     3.04           OBSERVATION DATA    M: Mixed            RINEX VERSION / TYPE
RTKCONV 2.4.3 b34                       20210417 235606 UTC PGM / RUN BY / DATE 
                                                            MARKER NAME         
                                                            MARKER NUMBER       
                                                            MARKER TYPE         
                                                            OBSERVER / AGENCY   
                    TRIMBLE NetR9       5.37,21/SEP/2018    REC # / TYPE / VERS 
                                                            ANT # / TYPE        
 -3959406.8860  3385707.4284  3667527.6518                  APPROX POSITION XYZ 
        0.0000        0.0000        0.0000                  ANTENNA: DELTA H/E/N
G   12 C1C L1C S1C C2W L2W S2W C2X L2X S2X C5X L5X S5X      SYS / # / OBS TYPES 
E   12 C1X L1X S1X C7X L7X S7X C5X L5X S5X C8X L8X S8X      SYS / # / OBS TYPES 
J   15 C1C L1C S1C C1X L1X S1X C1Z L1Z S1Z C2X L2X S2X C5X  SYS / # / OBS TYPES 
       L5X S5X                                              SYS / # / OBS TYPES 
  2021    03    19    12    00   00.0000000     GPS         TIME OF FIRST OBS   
  2021    03    19    12    00   59.0000000     GPS         TIME OF LAST OBS    
G L1C                                                       SYS / PHASE SHIFT   
G L2W  0.00000                                              SYS / PHASE SHIFT   
G L2X -0.25000                                              SYS / PHASE SHIFT   
G L5X  0.00000                                              SYS / PHASE SHIFT   
E L1X  0.00000                                              SYS / PHASE SHIFT   
E L7X  0.00000                                              SYS / PHASE SHIFT   
E L5X  0.00000                                              SYS / PHASE SHIFT   
E L8X  0.00000                                              SYS / PHASE SHIFT   
J L1C                                                       SYS / PHASE SHIFT   
J L1X  0.25000                                              SYS / PHASE SHIFT   
J L1Z  0.00000                                              SYS / PHASE SHIFT   
J L2X  0.00000                                              SYS / PHASE SHIFT   
J L5X  0.00000                                              SYS / PHASE SHIFT   
  0                                                         GLONASS SLOT / FRQ #
                                                            GLONASS COD/PHS/BIS 
                                                            END OF HEADER       
> 2021 03 19 12 00 00.0000000  0 24                     
G17  20347196.273   106925326.951          50.000    20347196.129    83318428.838          56.000    20347195.949    83318418.589          51.400                                                  
G03  21928473.273   115234951.006          46.400    21928475.195    89793529.753          36.200    21928475.270    89793505.507          46.400    21928475.656    86052113.536          52.100  
G09  22654738.969   119051496.127          41.600    22654741.254    92767401.112          31.900    22654741.035    92767388.875          44.100    22654741.020    88902083.497          49.100  
G28  22456477.992   118009628.000          41.400    22456477.508    91955565.080          28.900                                                                                                  
G04  22422950.148   117833449.444          42.600    22422950.703    91818256.632          30.700    22422950.965    91818248.371          44.500    22422953.691    87992488.446          49.300  
G06  21978166.273   115496055.894          44.000    21978168.070    89996990.805          46.900    21978168.578    89996971.545          46.500    21978167.898    86247100.556          50.800  
G01  23876262.359   125470780.369          36.800    23876265.824    97769545.741          21.500    23876265.449    97769490.488          38.900    23876264.410    93695771.082          45.200  
J07  37283203.641   195924584.652          39.200    37283203.285   195924578.939          42.400    37283197.980   195924608.865          44.900    37283202.313   152668509.477          47.500    37283205.227   146307322.524          51.700  
J01  37090983.547   194914515.709          44.000    37090983.586   194914483.949          47.700    37090980.492   194914466.204          44.300    37090981.641   151881427.279          45.500    37090984.746   145553036.546          50.200  
J02  37495770.070   197041623.037          37.200    37495770.273   197041607.325          41.700    37495766.156   197041589.639          38.500    37495769.359   153538916.520          38.900    37495772.465   147141462.997          45.000  
J03  38338235.453   201468834.171          48.000    38338235.520   201468822.420          51.500    38338231.469   201468802.051          49.100    38338234.645   156988697.716          52.000    38338237.633   150447502.481          55.200  
G19  20555058.664   108017594.032          46.800    20555056.020    84169576.126          41.600                                                                                                  
G02  25210821.023   132483778.539          30.600    25210820.473   103234108.881          14.800                                                                                                  
G14  23157330.273   121692643.274          40.400    23157329.484    94825434.373          25.800    23157329.656    94825425.148          42.000    23157333.391    90874367.084          46.600  
G22  24485754.313   128673579.973          37.200    24485751.426   100265151.960          21.300                                                                                                  
E01  27665789.734   145384713.846          38.600    27665788.648   111398679.616          41.400    27665788.988   108566507.551          41.700    27665789.293   109982595.183          45.400  
E26  26338853.211   138411610.666          38.600    26338852.473   106055650.656          42.700    26338853.125   103359321.084          42.600    26338853.828   104707485.975          46.500  
E03  25796390.563   135560974.569          44.200    25796389.449   103871404.119          47.000    25796389.590   101230608.998          47.000    25796390.078   102551008.663          50.600  
E07  27139937.609   142621331.422          39.200    27139936.836   109281279.749          42.100    27139936.297   106502941.574          41.800    27139937.281   107892111.271          45.800  
E21  26280671.758   138105886.542          42.000    26280670.578   105821400.196          45.500    26280671.164   103131028.783          45.300    26280671.555   104476216.597          49.300  
E13  23763893.711   124880140.636          48.600    23763891.293    95687390.351          52.500    23763891.641    93254661.697          53.000    23763892.219    94471026.134          56.000  
E08  22699577.828   119287105.167          48.000    22699575.203    91401806.028          51.200    22699575.047    89078034.323          50.800    22699575.750    90239922.279          54.600  
E27  27336511.406   143654366.221          37.600    27336510.270   110072834.603          42.400    27336510.961   107274374.017          43.000    27336511.129   108673604.417          46.700  
E15  24772469.727   130180294.668          45.800    24772469.414    99748580.135          49.900    24772469.703    97212602.518          50.600    24772470.277    98480594.427          53.300  
> 2021 03 19 12 00 01.0000000  0 24                     
G17  20347111.094   106924878.023          50.400    20347110.645    83318079.024          56.200    20347110.410    83318068.782          51.600                                                  
G03  21928990.906   115237670.148          46.400    21928992.656    89795648.566          36.100    21928992.820    89795624.313          46.600    21928993.164    86054144.068          52.100  
G09  22654219.078   119048758.943          41.200    22654220.473    92765268.244          31.800    22654220.313    92765256.025          44.300    22654220.031    88900039.505          49.100  
G28  22456979.617   118012261.120          41.200    22456978.766    91957616.867          29.100                                                                                                  
G04  22422744.969   117832371.709          42.600    22422745.613    91817416.841          31.300    22422745.527    91817408.595          44.300    22422748.590    87991683.661          49.300  
G06  21977851.688   115494404.100          44.600    21977853.773    89995703.693          46.700    21977854.016    89995684.448          46.600    21977853.621    86245867.087          50.800  
G01  23876753.328   125473358.991          36.800    23876756.539    97771555.068          20.600    23876756.555    97771499.807          38.500    23876754.969    93697696.676          45.200  
J07  37283203.828   195924586.095          39.200    37283203.512   195924580.350          42.400    37283198.008   195924610.315          45.100    37283202.336   152668510.590          47.700    37283205.563   146307323.580          51.800  
J01  37091013.969   194914676.397          44.200    37091014.156   194914644.654          47.800    37091011.293   194914626.883          44.700    37091012.480   151881552.504          45.500    37091015.359   145553156.557          50.500  
J02  37495867.617   197042134.627          37.400    37495867.289   197042118.871          41.600    37495863.832   197042101.228          38.800    37495866.707   153539315.136          38.900    37495869.781   147141845.014          44.600  
J03  38338114.656   201468201.681          47.400    38338115.164   201468189.930          51.400    38338111.270   201468169.562          49.400    38338114.313   156988204.872          52.200    38338117.254   150447030.165          55.500  
G19  20554728.242   108015857.428          47.000    20554725.570    84168222.928          41.700                                                                                                  
G02  25210417.227   132481653.868          30.600    25210416.113   103232453.215          14.800                                                                                                  
G14  23157942.758   121695863.630          40.200    23157942.340    94827943.755          27.500    23157942.656    94827934.505          41.700    23157946.207    90876771.865          46.600  
G22  24486368.906   128676808.404          37.400    24486365.813   100267667.619          21.100                                                                                                  
E01  27665697.445   145384229.362          38.000    27665696.441   111398308.424          42.200    27665696.875   108566145.779          41.800    27665697.121   109982228.705          46.000  
E26  26338498.453   138409746.062          38.800    26338497.688   106054221.917          42.300    26338498.445   103357928.660          42.800    26338499.004   104706075.390          46.300  
E03  25796570.602   135561921.101          43.800    25796569.719   103872129.370          47.000    25796569.742   101231315.816          47.100    25796570.207   102551724.703          50.400  
E07  27139357.055   142618280.730          39.400    27139356.250   109278942.216          42.100    27139355.746   106500663.477          41.900    27139356.785   107889803.450          46.000  
E21  26280991.070   138107563.426          41.800    26280989.648   105822685.095          45.900    26280990.180   103132281.013          45.500    26280990.633   104477485.161          49.300  
E13  23763775.852   124879522.210          48.600    23763773.574    95686916.485          52.400    23763774.027    93254199.875          52.800    23763774.535    94470558.285          55.900  
E08  22699255.219   119285409.137          48.200    22699252.453    91400506.459          50.800    22699252.289    89076767.798          50.500    22699253.008    90238639.239          54.600  
E27  27337047.742   143657183.547          37.800    27337046.289   110074993.342          42.500    27337047.094   107276477.862          43.300    27337047.219   108675735.706          46.500  
E15  24772687.391   130181437.180          45.600    24772686.809    99749455.558          49.700    24772687.094    97213455.695          50.500    24772687.680    98481458.730          53.100  
> 2021 03 19 12 00 02.0000000  0 24                     
G17  20347025.727   106924429.579          50.000    20347025.211    83317729.587          56.100    20347025.125    83317719.339          51.300                                                  
G03  21929508.023   115240389.558          46.000    21929510.172    89797767.592          36.400    21929510.449    89797743.346          46.100    21929510.605    86056174.800          52.200  
G09  22653698.047   119046022.135          41.800    22653699.719    92763135.667          31.900    22653699.020    92763123.413          44.400    22653699.359    88897995.764          49.400  
G28  22457480.227   118014894.541          41.400    22457479.988    91959668.882          28.100                                                                                                  
G04  22422540.203   117831294.542          42.800    22422540.621    91816577.478          30.900    22422540.582    91816569.237          44.300    22422543.645    87990879.292          49.400  
G06  21977537.453   115492752.441          44.400    21977539.426    89994416.684          46.800    21977539.895    89994397.447          46.100    21977539.270    86244633.710          50.700  
G01  23877243.813   125475937.623          37.000    23877247.277    97773564.378          20.900    23877247.336    97773509.148          38.500    23877245.730    93699622.301          45.700  
J07  37283204.031   195924587.533          39.000    37283203.723   195924581.778          42.400    37283198.371   195924611.753          44.900    37283202.664   152668511.691          47.600    37283205.809   146307324.644          51.900  
J01  37091044.727   194914837.194          43.600    37091044.863   194914805.453          47.700    37091042.027   194914787.680          44.400    37091042.992   151881677.790          45.800    37091045.945   145553276.624          50.500  
J02  37495965.313   197042646.188          37.400    37495964.934   197042630.417          41.600    37495961.352   197042612.781          38.100    37495964.336   153539713.748          39.500    37495967.227   147142226.997          45.100  
J03  38337994.680   201467569.142          46.800    38337994.930   201467557.398          51.500    38337991.223   201467537.023          49.600    38337993.918   156987711.983          52.000    38337996.906   150446557.819          55.200  
G19  20554398.203   108014121.250          47.200    20554395.281    84166870.064          41.600                                                                                                  
G02  25210012.984   132479529.199          30.200    25210011.828   103230797.579          14.800                                                                                                  
G14  23158555.492   121699084.081          40.200    23158555.098    94830453.188          28.200    23158555.176    94830443.962          41.500    23158558.992    90879176.770          46.800  
G22  24486982.844   128680036.906          37.400    24486980.309   100270183.339          20.900                                                                                                  
E01  27665605.617   145383745.393          38.000    27665604.266   111397937.544          41.900    27665604.820   108565784.387          42.000    27665605.039   109981862.569          46.000  
E26  26338143.523   138407881.366          38.800    26338142.852   106052793.153          42.500    26338143.711   103356536.206          43.000    26338144.160   104704664.788          46.500  
E03  25796750.805   135562868.086          44.000    25796749.824   103872854.994          47.000    25796749.996   101232022.958          47.600    25796750.387   102552441.079          50.700  
E07  27138776.602   142615230.092          39.600    27138775.777   109276604.693          42.300    27138775.086   106498385.411          41.500    27138776.262   107887495.651          45.900  
E21  26281310.094   138109240.653          41.600    26281308.844   105823970.240          46.100    26281309.281   103133533.476          45.400    26281309.785   104478753.965          49.200  
E13  23763658.297   124878903.856          48.400    23763655.930    95686442.675          52.600    23763656.309    93253738.117          52.700    23763656.863    94470090.499          55.500  
E08  22698932.328   119283713.479          48.000    22698929.766    91399207.190          51.000    22698929.570    89075501.556          50.600    22698930.313    90237356.478          54.500  
E27  27337583.586   143660000.853          38.200    27337582.488   110077152.043          42.800    27337583.160   107278581.686          43.000    27337583.332   108677866.973          46.500  
E15  24772904.844   130182579.787          45.600    24772904.223    99750331.067          49.400    24772904.598    97214308.934          50.100    24772905.109    98482323.109          52.900  
> 2021 03 19 12 00 03.0000000  0 24                     
G17  20346940.281   106923981.582          50.200    20346940.027    83317380.494          55.900    20346939.848    83317370.245          51.300                                                  
G03  21930025.656   115243109.254          46.000    21930027.473    89799886.828          36.700    21930027.832    89799862.579          46.600    21930028.098    86058205.740          52.200  
G09  22653177.008   119043285.563          41.600    22653178.875    92761003.280          31.600    22653178.469    92760991.047          44.700    22653178.582    88895952.238          49.000  
G28  22457981.422   118017528.215          41.600    22457981.023    91961721.095          28.000                                                                                                  
G04  22422334.984   117830217.942          42.800    22422335.844    91815738.578          30.600    22422335.457    91815730.314          44.600    22422338.664    87990075.325          49.000  
G06  21977223.445   115491100.906          45.200    21977225.148    89993129.777          46.600    21977225.410    89993110.527          46.000    21977224.988    86243400.428          50.800  
G01  23877734.203   125478516.332          37.400    23877737.910    97775573.750          20.400    23877737.645    97775518.502          38.300    23877736.586    93701547.919          46.300  
J07  37283204.203   195924588.915          39.200    37283204.133   195924583.168          42.400    37283198.344   195924613.136          45.200    37283203.121   152668512.780          47.300    37283206.066   146307325.684          51.900  
J01  37091075.148   194914998.049          44.200    37091075.477   194914966.296          47.800    37091072.348   194914948.543          44.700    37091073.449   151881803.125          45.900    37091076.594   145553396.739          50.200  
J02  37496062.305   197043157.735          37.800    37496062.027   197043141.992          41.700    37496058.590   197043124.336          38.400    37496061.871   153540112.356          39.500    37496064.484   147142608.998          44.700  
J03  38337874.203   201466936.564          47.200    38337874.531   201466924.813          51.600    38337870.367   201466904.444          50.200    38337873.410   156987219.062          52.200    38337876.484   150446085.435          55.200  
G19  20554067.586   108012385.526          47.000    20554064.816    84165517.548          41.700                                                                                                  
G02  25209608.719   132477404.387          31.200    25209607.371   103229141.898          15.600                                                                                                  
G14  23159168.055   121702304.716          40.200    23159167.863    94832962.792          26.500    23159168.203    94832953.513          41.600    23159171.973    90881581.778          46.900  
G22  24487597.211   128683265.398          37.600    24487594.621   100272699.031          21.300                                                                                                  
E01  27665513.758   145383261.811          37.600    27665512.277   111397567.051          41.900    27665512.891   108565423.276          41.900    27665512.996   109981496.767          46.000  
E26  26337788.477   138406016.687          38.800    26337788.156   106051364.336          42.600    26337788.840   103355143.744          42.600    26337789.352   104703254.148          46.600  
E03  25796930.938   135563815.479          44.000    25796930.184   103873580.904          47.100    25796930.219   101232730.448          47.200    25796930.672   102553157.771          50.800  
E07  27138196.109   142612179.439          39.800    27138195.262   109274267.189          42.400    27138194.625   106496107.321          41.700    27138195.754   107885187.857          46.100  
E21  26281629.422   138110918.178          41.600    26281628.043   105825255.608          46.000    26281628.582   103134786.183          45.400    26281629.020   104480022.998          49.100  
E13  23763540.648   124878285.535          48.400    23763538.348    95685968.917          52.800    23763538.625    93253276.401          52.500    23763539.207    94469622.763          55.500  
E08  22698609.813   119282018.179          47.800    22698607.098    91397908.197          50.900    22698606.996    89074235.584          50.800    22698607.727    90236073.994          54.200  
E27  27338119.727   143662818.092          38.200    27338118.516   110079310.691          42.100    27338119.078   107280685.471          42.600    27338119.469   108679998.185          46.300  
E15  24773122.141   130183722.482          46.000    24773121.625    99751206.641          49.600    24773122.016    97215162.244          50.100    24773122.551    98483187.542          53.200  
> 2021 03 19 12 00 04.0000000  0 24                     
G17  20346855.398   106923534.067          50.000    20346854.875    83317031.782          56.000    20346854.898    83317021.533          51.600                                                  
G03  21930543.109   115245829.242          45.600    21930545.242    89802006.303          36.500    21930545.301    89801982.060          46.500    21930545.801    86060236.899          52.300  
G09  22652656.203   119040549.330          41.600    22652658.266    92758871.146          31.800    22652658.270    92758858.901          44.800    22652657.836    88893908.938          49.100  
G28  22458482.758   118020162.181          41.600    22458482.242    91963773.523          29.100                                                                                                  
G04  22422130.305   117829141.886          43.000    22422131.199    91814900.096          30.800    22422131.051    91814891.847          44.800    22422133.934    87989271.780          49.100  
G06  21976908.898   115489449.511          45.400    21976910.945    89991842.972          46.800    21976911.625    89991823.730          46.100    21976910.762    86242167.246          50.800  
G01  23878225.195   125481095.007          36.600    23878228.488    97777583.123          20.600    23878228.184    97777527.856          38.400    23878227.035    93703473.572          45.700  
J07  37283204.141   195924590.317          39.000    37283204.387   195924584.555          42.300    37283198.758   195924614.530          45.400    37283203.324   152668513.866          47.800    37283206.270   146307326.733          52.000  
J01  37091105.516   194915159.000          44.200    37091106.055   194915127.250          47.700    37091103.348   194915109.487          44.600    37091104.230   151881928.558          45.800    37091107.238   145553516.938          50.300  
J02  37496160.000   197043669.273          37.600    37496159.453   197043653.524          41.600    37496155.648   197043635.874          38.800    37496159.145   153540510.986          38.900    37496161.906   147142991.027          45.100  
J03  38337753.742   201466303.959          47.600    38337753.910   201466292.201          51.500    38337750.289   201466271.840          50.300    38337753.086   156986726.122          52.500    38337756.109   150445613.030          55.200  
G19  20553737.531   108010650.268          47.400    20553734.613    84164165.402          41.700                                                                                                  
G02  25209204.352   132475279.716          31.600    25209203.113   103227486.250          15.600                                                                                                  
G14  23159781.648   121705525.508          40.200    23159780.609    94835472.490          26.800    23159781.316    94835463.209          41.700    23159784.914    90883986.897          46.800  
G22  24488212.070   128686493.957          37.400    24488208.938   100275214.809          21.100                                                                                                  
E01  27665422.047   145382778.754          37.200    27665420.438   111397196.895          41.900    27665420.809   108565062.518          42.500    27665421.070   109981131.303          46.200  
E26  26337433.539   138404151.927          39.000    26337433.094   106049935.534          42.700    26337433.836   103353751.245          42.700    26337434.488   104701843.496          46.900  
E03  25797111.438   135564763.312          44.000    25797110.496   103874307.177          47.400    25797110.496   101233438.246          47.200    25797111.043   102553874.810          50.900  
E07  27137615.422   142609128.819          39.800    27137614.680   109271929.709          42.400    27137614.258   106493829.264          41.600    27137615.234   107882880.082          46.300  
E21  26281948.602   138112596.055          41.800    26281947.367   105826541.247          45.700    26281947.867   103136039.131          45.300    26281948.293   104481292.295          48.900  
E13  23763422.898   124877667.333          48.200    23763420.648    95685495.221          52.900    23763421.031    93252814.741          52.800    23763421.566    94469155.080          55.900  
E08  22698287.258   119280323.249          48.000    22698284.609    91396609.484          51.000    22698284.512    89072969.901          50.800    22698285.191    90234791.795          54.300  
E27  27338655.977   143665635.281          37.800    27338654.695   110081469.313          42.100    27338655.453   107282789.206          42.500    27338655.551   108682129.364          46.000  
E15  24773339.758   130184865.286          45.800    24773339.203    99752082.291          49.300    24773339.582    97216015.632          50.100    24773340.047    98484052.063          53.500  
> 2021 03 19 12 00 05.0000000  0 24                     
G17  20346769.969   106923087.048          50.000    20346769.801    83316683.453          56.100    20346769.543    83316673.212          51.400                                                  
G03  21931061.063   115248549.534          45.400    21931062.949    89804126.011          36.400    21931063.223    89804101.764          46.700    21931063.473    86062268.283          52.600  
G09  22652135.891   119037813.406          42.200    22652137.715    92756739.261          32.000    22652137.313    92756727.024          44.800    22652137.184    88891865.887          49.000  
G28  22458984.070   118022796.468          42.000    22458983.531    91965826.219          29.500                                                                                                  
G04  22421925.703   117828066.427          43.200    22421926.566    91814062.074          30.400    22421926.375    91814053.814          45.100    22421929.277    87988468.671          49.100  
G06  21976594.383   115487798.285          44.800    21976596.648    89990556.308          47.100    21976597.141    89990537.058          46.600    21976596.488    86240934.177          50.900  
G01  23878716.141   125483673.743          36.600    23878719.047    97779592.526          21.100    23878718.910    97779537.281          38.600    23878717.969    93705399.251          46.100  
J07  37283204.805   195924591.726          38.600    37283204.496   195924585.989          42.400    37283199.133   195924615.939          45.600    37283204.016   152668514.989          47.700    37283206.641   146307327.799          52.100  
J01  37091136.125   194915320.053          44.200    37091136.629   194915288.314          47.700    37091133.723   194915270.539          44.700    37091134.727   151882054.048          46.000    37091138.000   145553637.207          50.400  
J02  37496257.289   197044180.878          37.800    37496256.918   197044165.124          41.600    37496253.082   197044147.479          38.900    37496256.594   153540909.608          38.700    37496259.195   147143373.033          45.100  
J03  38337633.188   201465671.318          47.600    38337633.594   201465659.567          51.500    38337629.703   201465639.205          49.900    38337632.984   156986233.163          52.300    38337635.750   150445140.619          55.400  
G19  20553406.969   108008915.492          47.200    20553404.617    84162813.629          41.400                                                                                                  
G02  25208799.734   132473154.993          30.800    25208798.871   103225830.709          16.300                                                                                                  
G14  23160394.180   121708746.454          40.000    23160393.480    94837982.319          26.700    23160394.215    94837973.057          41.900    23160397.934    90886392.151          46.600  
G22  24488826.445   128689722.530          37.400    24488823.238   100277730.580          21.300                                                                                                  
E01  27665329.742   145382296.106          37.400    27665328.465   111396827.084          41.900    27665329.016   108564702.127          42.000    27665329.234   109980766.205          46.100  
E26  26337079.148   138402287.219          39.200    26337078.297   106048506.715          42.800    26337079.242   103352358.754          42.600    26337079.621   104700432.844          46.800  
E03  25797291.891   135565711.603          44.200    25797290.828   103875033.794          47.400    25797290.941   101234146.375          47.100    25797291.516   102554592.187          51.100  
E07  27137035.031   142606078.205          40.000    27137034.168   109269592.219          42.100    27137033.672   106491551.214          41.700    27137034.738   107880572.331          46.200  
E21  26282267.977   138114274.275          42.200    26282266.711   105827827.154          45.500    26282267.297   103137292.348          45.200    26282267.660   104482561.855          48.700  
E13  23763305.305   124877049.208          48.400    23763303.012    95685021.595          52.800    23763303.434    93252353.156          52.600    23763303.934    94468687.478          56.100  
E08  22697964.859   119278628.740          48.000    22697962.137    91395311.087          50.900    22697962.051    89071704.513          50.900    22697962.727    90233509.904          54.300  
E27  27339192.000   143668452.454          38.200    27339190.594   110083627.927          42.300    27339191.449   107284892.950          42.600    27339191.648   108684260.543          46.400  
E15  24773557.305   130186008.193          45.600    24773556.727    99752958.034          49.700    24773556.969    97216869.118          50.200    24773557.512    98484916.679          53.900  
> 2021 03 19 12 00 06.0000000  0 24                     
G17  20346685.281   106922640.489          50.200    20346684.820    83316335.486          56.500    20346684.617    83316325.244          51.200                                                  
G03  21931578.734   115251270.114          45.400    21931580.594    89806245.933          36.400    21931580.770    89806221.691          46.700    21931581.207    86064299.881          52.300  
G09  22651615.023   119035077.773          41.600    22651617.117    92754607.600          32.000    22651616.949    92754595.368          44.700    22651616.547    88889823.040          49.300  
G28  22459485.383   118025431.028          41.600    22459484.871    91967879.128          29.300                                                                                                  
G04  22421721.281   117826991.501          43.200    22421722.004    91813224.475          30.700    22421721.848    91813216.203          45.000    22421724.668    87987665.980          49.200  
G06  21976280.273   115486147.156          44.400    21976282.438    89989269.713          47.100    21976283.023    89989250.473          46.700    21976282.336    86239701.201          51.100  
G01  23879206.945   125486252.514          37.000    23879209.723    97781601.946          20.600    23879209.855    97781546.716          38.700    23879208.516    93707324.955          45.800  
J07  37283204.578   195924593.139          39.200    37283205.020   195924587.397          42.500    37283199.383   195924617.353          45.700    37283203.867   152668516.090          47.900    37283206.828   146307328.852          52.100  
J01  37091167.203   194915481.199          44.200    37091167.305   194915449.443          47.800    37091164.402   194915431.685          44.700    37091165.293   151882179.603          45.700    37091168.543   145553757.534          50.500  
J02  37496354.594   197044692.455          37.800    37496354.305   197044676.704          41.800    37496350.313   197044659.049          38.100    37496354.063   153541308.241          39.100    37496356.523   147143755.076          45.400  
J03  38337513.453   201465038.643          47.600    38337513.344   201465026.892          51.500    38337509.504   201465006.523          49.500    38337512.371   156985740.169          52.300    38337515.309   150444668.157          55.200  
G19  20553077.148   108007181.131          47.200    20553074.492    84161462.182          41.600                                                                                                  
G02  25208395.766   132471030.314          31.600    25208394.527   103224175.181          15.600                                                                                                  
G14  23161006.641   121711967.532          40.000    23161006.605    94840492.241          27.600    23161006.742    94840482.985          42.300    23161010.770    90888797.504          46.700  
G22  24489440.859   128692951.139          37.400    24489437.582   100280246.386          21.100                                                                                                  
E01  27665238.219   145381813.947          37.600    27665237.012   111396457.636          41.700    27665237.211   108564342.069          42.100    27665237.445   109980401.464          46.300  
E26  26336723.867   138400422.437          39.600    26336723.703   106047077.864          42.700    26336724.246   103350966.237          42.700    26336724.801   104699022.155          46.900  
E03  25797472.328   135566660.328          43.800    25797471.406   103875760.737          47.400    25797471.484   101234854.840          47.000    25797472.039   102555309.895          50.900  
E07  27136454.461   142603027.633          39.800    27136453.590   109267254.798          42.100    27136453.090   106489273.201          41.400    27136454.246   107878264.599          46.100  
E21  26282587.344   138115952.831          42.200    26282586.156   105829113.313          45.900    26282586.660   103138545.789          44.600    26282587.055   104483831.658          49.000  
E13  23763187.750   124876431.159          48.000    23763185.328    95684548.022          52.600    23763185.809    93251891.632          53.100    23763186.332    94468219.928          56.500  
E08  22697642.289   119276934.573          48.200    22697639.727    91394012.974          51.200    22697639.648    89070439.402          50.600    22697640.340    90232228.287          54.400  
E27  27339728.063   143671269.565          38.200    27339726.785   110085786.497          42.300    27339727.398   107286996.604          42.700    27339727.715   108686391.661          46.300  
E15  24773774.734   130187151.201          45.800    24773774.203    99753833.834          49.700    24773774.539    97217722.651          50.200    24773775.023    98485781.346          53.800  
> 2021 03 19 12 00 07.0000000  0 24                     
G17  20346600.563   106922194.386          50.800    20346599.957    83315987.876          56.400    20346599.758    83315977.635          51.000                                                  
G03  21932096.578   115253990.966          45.000    21932098.355    89808366.086          36.000    21932098.941    89808341.839          46.500    21932099.012    86066331.689          52.100  
G09  22651094.547   119032342.453          41.600    22651096.418    92752476.176          32.000    22651096.195    92752463.937          44.800    22651096.105    88887780.440          49.000  
G28  22459986.859   118028065.845          41.800    22459986.313    91969932.239          29.100                                                                                                  
G04  22421516.742   117825917.121          42.800    22421517.418    91812387.294          30.500    22421517.004    91812379.039          44.900    22421520.109    87986863.684          48.900  
G06  21975965.930   115484496.174          44.400    21975968.344    89987983.233          46.800    21975968.691    89987963.981          46.100    21975968.176    86238468.319          51.100  
G01  23879697.359   125488831.305          36.600    23879700.656    97783611.392          21.300    23879700.754    97783556.151          38.200    23879699.309    93709250.679          45.800  
J07  37283205.156   195924594.516          39.400    37283205.012   195924588.794          42.400    37283199.742   195924618.737          45.900    37283204.238   152668517.165          47.900    37283207.230   146307329.887          52.000  
J01  37091197.750   194915642.384          43.800    37091198.070   194915610.634          47.800    37091195.234   194915592.870          44.200    37091196.160   151882305.226          46.000    37091199.184   145553877.907          50.200  
J02  37496452.203   197045203.996          37.000    37496451.633   197045188.257          41.700    37496447.789   197045170.598          38.000    37496451.039   153541706.857          39.100    37496453.906   147144137.084          44.900  
J03  38337392.641   201464405.917          47.600    38337392.801   201464394.159          51.700    38337388.762   201464373.798          49.400    38337391.887   156985247.132          52.400    38337394.941   150444195.665          55.300  
G19  20552747.492   108005447.197          47.000    20552744.531    84160111.062          41.800                                                                                                  
G02  25207992.000   132468905.569          30.600    25207990.223   103222519.457          16.300                                                                                                  
G14  23161620.359   121715188.751          40.000    23161619.621    94843002.282          28.100    23161619.988    94842993.041          41.800    23161623.938    90891202.971          46.700  
G22  24490054.711   128696179.730          37.800    24490051.848   100282762.176          21.300                                                                                                  
E01  27665146.406   145381332.201          37.800    27665145.316   111396088.501          42.200    27665145.719   108563982.320          41.900    27665145.809   109980037.014          46.400  
E26  26336369.086   138398557.648          39.600    26336368.570   106045648.996          43.000    26336369.324   103349573.688          43.000    26336369.934   104697611.443          46.900  
E03  25797652.930   135567609.475          44.000    25797652.082   103876488.008          47.600    25797652.172   101235563.624          46.800    25797652.664   102556027.925          50.900  
E07  27135873.953   142599977.071          39.600    27135873.223   109264917.343          42.000    27135872.719   106486995.161          41.600    27135873.730   107875956.848          46.300  
E21  26282906.867   138117631.653          42.000    26282905.609   105830399.703          46.000    26282906.078   103139799.469          45.000    26282906.559   104485101.688          49.500  
E13  23763070.180   124875813.168          48.200    23763067.855    95684074.498          52.900    23763068.070    93251430.140          53.200    23763068.738    94467752.418          56.400  
E08  22697320.258   119275240.796          48.600    22697317.402    91392715.126          51.400    22697317.293    89069174.541          51.000    22697318.020    90230946.941          54.700  
E27  27340264.281   143674086.604          38.000    27340262.730   110087944.991          42.300    27340263.551   107289100.268          42.700    27340263.801   108688522.744          46.200  
E15  24773992.367   130188294.275          46.000    24773991.777    99754709.712          49.600    24773992.145    97218576.256          50.000    24773992.555    98486646.085          53.700  
> 2021 03 19 12 00 08.0000000  0 24                     
G17  20346515.625   106921748.798          51.000    20346515.164    83315640.662          55.900    20346514.891    83315630.421          50.600                                                  
G03  21932614.016   115256712.143          45.000    21932616.234    89810486.483          36.300    21932616.320    89810462.221          46.500    21932616.762    86068363.734          52.100  
G09  22650574.406   119029607.477          41.600    22650576.098    92750345.033          31.200    22650575.805    92750332.780          44.600    22650575.598    88885738.073          49.000  
G28  22460488.320   118030700.986          41.400    22460487.652    91971985.581          28.700                                                                                                  
G04  22421312.500   117824843.344          42.800    22421313.234    91811550.578          30.500    22421313.176    91811542.339          44.600    22421315.738    87986061.830          49.000  
G06  21975652.250   115482845.336          44.200    21975654.184    89986696.872          46.700    21975654.801    89986677.626          46.300    21975654.098    86237235.554          50.900  
G01  23880188.328   125491410.139          37.400    23880191.313    97785620.897          20.400    23880191.488    97785565.648          38.400    23880190.000    93711176.424          45.900  
J07  37283205.977   195924595.962          38.800    37283205.289   195924590.232          42.300    37283200.246   195924620.176          45.900    37283204.297   152668518.272          47.700    37283207.328   146307330.951          51.500  
J01  37091228.273   194915803.719          43.800    37091228.910   194915771.957          47.700    37091225.922   194915754.206          44.200    37091227.105   151882430.922          45.500    37091229.895   145553998.382          50.500  
J02  37496548.547   197045715.627          37.200    37496549.109   197045699.861          41.600    37496545.332   197045682.228          38.100    37496548.547   153542105.534          39.200    37496551.168   147144519.140          44.600  
J03  38337272.516   201463773.186          47.400    38337272.633   201463761.442          51.500    38337268.230   201463741.066          49.500    38337271.547   156984754.094          52.400    38337274.520   150443723.171          55.200  
G19  20552417.547   108003713.778          46.800    20552414.727    84158760.345          41.300                                                                                                  
G02  25207587.516   132466780.838          31.400    25207585.875   103220863.791          16.300                                                                                                  
G14  23162233.180   121718410.150          40.600    23162232.715    94845512.464          26.200    23162233.180    94845503.229          41.900    23162236.852    90893608.574          47.000  
G22  24490669.305   128699408.384          37.400    24490666.215   100285278.000          21.300                                                                                                  
E01  27665055.055   145380850.968          37.800    27665053.730   111395719.753          42.500    27665053.945   108563622.963          41.700    27665054.227   109979672.965          46.000  
E26  26336014.547   138396692.831          39.200    26336013.656   106044220.114          42.800    26336014.469   103348181.126          42.700    26336015.090   104696200.732          46.500  
E03  25797833.586   135568559.092          44.000    25797832.758   103877215.632          47.500    25797832.789   101236272.748          47.000    25797833.371   102556746.292          51.300  
E07  27135293.797   142596926.576          39.800    27135292.645   109262579.930          42.400    27135292.012   106484717.178          41.600    27135293.207   107873649.153          45.800  
E21  26283226.516   138119310.873          42.200    26283225.066   105831686.370          46.100    26283225.664   103141053.443          44.900    26283226.105   104486372.011          49.300  
E13  23762952.398   124875195.304          48.000    23762950.262    95683601.058          52.700    23762950.559    93250968.740          53.000    23762951.141    94467285.005          56.100  
E08  22696998.039   119273547.399          48.600    22696995.258    91391417.606          51.400    22696995.020    89067910.012          50.700    22696995.770    90229665.909          54.800  
E27  27340800.375   143676903.666          38.000    27340798.910   110090103.522          42.100    27340799.555   107291203.905          43.100    27340799.863   108690653.818          46.600  
E15  24774209.836   130189437.504          46.000    24774209.375    99755585.680          49.800    24774209.543    97219429.954          50.100    24774210.078    98487510.919          53.500  
> 2021 03 19 12 00 09.0000000  0 24                     
G17  20346431.164   106921303.710          50.400    20346430.461    83315293.840          55.700    20346430.289    83315283.592          50.800                                                  
G03  21933131.883   115259433.621          44.600    21933134.180    89812607.111          36.200    21933134.340    89812582.871          46.900    21933134.707    86070396.008          52.100  
G09  22650054.242   119026872.821          42.000    22650055.785    92748214.131          30.500    22650055.395    92748201.880          44.600    22650055.172    88883695.963          49.000  
G28  22460990.078   118033336.441          41.400    22460989.195    91974039.187          28.100                                                                                                  
G04  22421108.008   117823770.146          43.000    22421109.176    91810714.318          31.000    22421109.285    91810706.079          44.700    22421111.594    87985260.428          48.900  
G06  21975337.813   115481194.654          44.200    21975340.121    89985410.629          46.700    21975340.453    89985391.368          46.600    21975339.984    86236002.900          51.200  
G01  23880679.141   125493989.054          36.800    23880682.055    97787630.399          20.600    23880681.914    97787575.166          38.600    23880680.801    93713102.220          46.000  
J07  37283206.047   195924597.400          38.400    37283205.754   195924591.663          42.200    37283200.152   195924621.621          46.400    37283204.809   152668519.399          47.500    37283207.773   146307332.030          51.800  
J01  37091259.414   194915965.133          43.800    37091259.535   194915933.398          47.800    37091256.664   194915915.619          43.600    37091257.488   151882556.711          45.800    37091260.613   145554118.922          50.300  
J02  37496645.828   197046227.254          37.600    37496646.445   197046211.519          41.700    37496642.688   197046193.848          38.000    37496646.129   153542504.223          39.200    37496648.594   147144901.203          44.800  
J03  38337151.992   201463140.439          47.800    38337152.109   201463128.688          51.500    38337148.254   201463108.319          49.300    38337151.344   156984261.046          52.500    38337154.129   150443250.661          55.300  
G19  20552087.797   108001980.812          47.200    20552084.910    84157409.982          41.600                                                                                                  
G02  25207183.148   132464656.209          30.600    25207181.836   103219208.310          16.300                                                                                                  
G14  23162846.664   121721631.736          40.400    23162846.055    94848022.797          26.900    23162845.754    94848013.542          42.100    23162849.859    90896014.292          47.000  
G22  24491283.883   128702637.101          37.400    24491280.648   100287793.885          20.900                                                                                                  
E01  27664963.477   145380370.197          38.200    27664962.082   111395351.397          42.300    27664962.516   108563263.933          41.900    27664962.730   109979309.265          45.900  
E26  26335659.594   138394828.005          39.200    26335658.797   106042791.240          42.600    26335659.492   103346788.567          43.100    26335660.219   104694790.011          46.500  
E03  25798014.695   135569509.181          44.200    25798013.637   103877943.621          47.100    25798013.598   101236982.228          47.100    25798014.137   102557465.034          50.800  
E07  27134712.930   142593876.074          39.800    27134712.332   109260242.539          42.400    27134711.688   106482439.223          41.500    27134712.746   107871341.487          45.900  
E21  26283545.953   138120990.439          42.000    26283544.719   105832973.303          46.000    26283545.199   103142307.656          45.700    26283545.695   104487642.580          49.500  
E13  23762835.000   124874577.517          48.000    23762832.719    95683127.695          53.000    23762833.035    93250507.417          53.000    23762833.602    94466817.656          56.400  
E08  22696675.656   119271854.420          48.600    22696673.043    91390120.384          51.700    22696672.953    89066645.767          50.300    22696673.609    90228385.178          54.600  
E27  27341336.289   143679720.682          38.200    27341334.992   110092262.021          42.300    27341335.598   107293307.520          43.000    27341335.926   108692784.875          46.500  
E15  24774427.422   130190580.841          45.600    24774426.887    99756461.749          49.600    24774427.273    97220283.751          50.300    24774427.664    98488375.855          53.500  
> 2021 03 19 12 00 10.0000000  0 24                     
G17  20346346.445   106920859.062          50.600    20346345.797    83314947.365          55.900    20346345.668    83314937.117          50.800                                                  
G03  21933650.313   115262155.360          44.800    21933652.117    89814727.952          36.300    21933652.508    89814703.712          46.600    21933652.586    86072428.482          52.100  
G09  22649533.453   119024138.431          41.600    22649535.625    92746083.434          31.500    22649535.188    92746071.204          44.900    22649534.863    88881654.053          49.100  
G28  22461491.148   118035972.123          41.400    22461490.723    91976092.961          28.700                                                                                                  
G04  22420904.133   117822697.473          43.000    22420904.902    91809878.473          30.600    22420904.688    91809870.224          45.100    22420907.375    87984459.402          49.100  
G06  21975024.000   115479544.084          43.800    21975025.914    89984124.464          46.800    21975026.496    89984105.205          46.600    21975025.930    86234770.318          51.300  
G01  23881169.656   125496567.957          36.600    23881172.852    97789639.964          20.900    23881173.000    97789584.685          38.600    23881171.500    93715028.003          46.100  
J07  37283206.070   195924598.775          38.600    37283205.820   195924593.060          42.300    37283200.336   195924622.988          45.700    37283204.957   152668520.492          47.500    37283207.984   146307333.064          51.900  
J01  37091289.734   194916126.611          43.800    37091290.090   194916094.861          47.900    37091287.375   194916077.098          43.800    37091288.438   151882682.550          46.000    37091291.461   145554239.506          50.500  
J02  37496743.703   197046738.882          37.600    37496743.543   197046723.123          41.600    37496740.176   197046705.475          38.000    37496743.230   153542902.858          39.000    37496745.855   147145283.243          44.700  
J03  38337031.430   201462507.619          47.800    38337031.832   201462495.875          51.500    38337027.738   201462475.500          49.300    38337030.859   156983767.944          52.300    38337033.707   150442778.113          55.200  
G19  20551757.992   108000248.274          47.200    20551755.211    84156059.953          41.300                                                                                                  
G02  25206779.609   132462531.433          31.400    25206777.438   103217552.544          14.800                                                                                                  
G14  23163459.492   121724853.478          39.800    23163458.996    94850533.241          27.300    23163459.145    94850523.974          42.100    23163462.949    90898420.111          47.100  
G22  24491898.227   128705865.747          37.400    24491894.844   100290309.712          21.300                                                                                                  
E01  27664871.984   145379889.846          38.000    27664870.785   111394983.317          42.700    27664871.152   108562905.228          41.700    27664871.332   109978945.876          45.700  
E26  26335304.617   138392963.158          39.000    26335304.070   106041362.315          42.900    26335304.645   103345395.969          43.300    26335305.352   104693379.243          46.500  
E03  25798195.461   135570459.642          44.000    25798194.414   103878671.908          47.100    25798194.445   101237692.015          47.300    25798195.031   102558184.066          50.600  
E07  27134132.617   142590825.589          40.400    27134131.605   109257905.138          42.100    27134131.070   106480161.244          41.500    27134132.273   107869033.798          45.800  
E21  26283865.664   138122670.281          41.800    26283864.473   105834260.470          46.000    26283864.738   103143562.093          45.500    26283865.352   104488913.385          49.400  
E13  23762717.477   124873959.771          48.600    23762715.223    95682654.364          52.800    23762715.449    93250046.116          52.800    23762716.039    94466350.340          56.500  
E08  22696353.781   119270161.777          48.200    22696350.945    91388823.421          51.600    22696350.855    89065381.781          50.500    22696351.520    90227104.704          54.600  
E27  27341872.266   143682537.605          38.000    27341871.105   110094420.459          42.200    27341871.699   107295411.096          43.000    27341871.969   108694915.878          46.300  
E15  24774644.961   130191724.241          46.000    24774644.492    99757337.861          49.400    24774644.844    97221137.595          50.200    24774645.246    98489240.830          53.400  
> 2021 03 19 12 00 11.0000000  0 24                     
G17  20346262.109   106920414.910          50.800    20346261.273    83314601.271          56.200    20346260.988    83314591.023          50.900                                                  
G03  21934167.820   115264877.396          44.600    21934170.152    89816849.016          36.500    21934169.879    89816824.775          46.700    21934170.621    86074461.170          52.300  
G09  22649012.875   119021404.366          41.600    22649015.305    92743953.001          32.200    22649014.598    92743940.760          44.900    22649014.641    88879612.382          49.100  
G28  22461992.813   118038608.123          41.400    22461992.504    91978146.992          28.700                                                                                                  
G04  22420699.852   117821625.383          42.400    22420700.914    91809043.074          30.800    22420700.441    91809034.825          45.200    22420703.387    87983658.801          49.100  
G06  21974709.570   115477893.648          44.000    21974711.977    89982838.412          46.900    21974712.297    89982819.147          46.700    21974711.836    86233537.857          51.300  
G01  23881660.586   125499146.840          37.000    23881663.621    97791649.471          20.100    23881664.012    97791594.236          38.400    23881662.258    93716953.841          46.300  
J07  37283206.617   195924600.199          38.800    37283206.371   195924594.460          42.100    37283200.488   195924624.418          45.600    37283205.465   152668521.600          47.600    37283208.250   146307334.126          52.000  
J01  37091320.547   194916288.204          44.200    37091320.813   194916256.446          47.800    37091318.363   194916238.691          44.100    37091318.957   151882808.447          45.900    37091322.141   145554360.175          50.600  
J02  37496841.336   197047250.512          38.000    37496840.996   197047234.757          41.600    37496837.168   197047217.113          38.100    37496840.742   153543301.542          38.900    37496843.273   147145665.307          44.500  
J03  38336910.797   201461874.781          47.600    38336911.160   201461863.038          51.500    38336907.355   201461842.669          49.400    38336910.230   156983274.820          52.300    38336913.285   150442305.537          55.200  
G19  20551428.578   107998516.223          47.000    20551425.664    84154710.303          41.500                                                                                                  
G02  25206374.906   132460406.807          31.400    25206372.820   103215897.049          14.800                                                                                                  
G14  23164072.391   121728075.308          40.200    23164072.219    94853043.754          27.500    23164072.539    94853034.506          42.500    23164076.238    90900826.052          47.000  
G22  24492513.016   128709094.485          37.400    24492509.215   100292825.617          21.300                                                                                                  
E01  27664780.672   145379409.960          38.400    27664779.430   111394615.628          43.000    27664779.973   108562546.869          41.500    27664780.023   109978582.856          45.500  
E26  26334949.836   138391098.249          39.000    26334949.125   106039933.361          43.000    26334949.766   103344003.360          43.200    26334950.480   104691968.472          46.800  
E03  25798376.648   135571410.593          44.000    25798375.383   103879400.557          47.000    25798375.332   101238402.132          47.200    25798376.000   102558903.445          50.500  
E07  27133552.141   142587775.122          40.000    27133551.246   109255567.779          42.300    27133550.754   106477883.298          41.500    27133551.805   107866726.141          45.900  
E21  26284185.438   138124350.482          42.200    26284184.055   105835547.890          46.300    26284184.695   103144816.797          45.500    26284185.078   104490184.448          49.000  
E13  23762599.727   124873342.124          48.200    23762597.523    95682181.101          52.900    23762597.934    93249584.887          52.800    23762598.512    94465883.098          56.500  
E08  22696031.664   119268469.526          48.200    22696028.840    91387526.760          51.300    22696028.703    89064118.102          50.900    22696029.504    90225824.534          54.700  
E27  27342408.305   143685354.509          38.200    27342407.168   110096578.864          42.400    27342407.574   107297514.622          42.900    27342407.992   108697046.848          46.000  
E15  24774862.703   130192867.761          46.000    24774862.074    99758214.064          49.300    24774862.465    97221991.512          49.800    24774862.844    98490105.896          53.300  
> 2021 03 19 12 00 12.0000000  0 24                     
G17  20346177.445   106919971.197          50.800    20346176.887    83314255.519          56.400    20346176.660    83314245.286          51.200                                                  
G03  21934685.867   115267599.719          44.600    21934688.184    89818970.306          36.200    21934688.309    89818946.058          46.700    21934688.660    86076494.059          52.200  
G09  22648492.688   119018670.584          42.000    22648494.969    92741822.776          31.700    22648494.371    92741810.535          45.000    22648494.492    88877570.922          49.000  
G28  22462494.516   118041244.362          41.200    22462494.234    91980201.195          29.100                                                                                                  
G04  22420496.352   117820553.821          43.000    22420497.031    91808208.094          32.000    22420496.672    91808199.827          44.900    22420499.320    87982858.607          49.400  
G06  21974395.688   115476243.323          43.800    21974397.828    89981552.445          46.700    21974398.305    89981533.185          46.400    21974397.781    86232305.460          51.300  
G01  23882151.055   125501725.756          36.800    23882154.480    97793659.017          20.600    23882154.570    97793603.802          38.600    23882152.914    93718879.646          46.100  
J07  37283206.344   195924601.594          39.000    37283206.613   195924595.848          42.000    37283200.711   195924625.814          46.000    37283205.484   152668522.666          47.300    37283208.492   146307335.163          51.900  
J01  37091351.414   194916449.819          43.600    37091351.715   194916418.078          47.900    37091348.945   194916400.305          43.700    37091349.813   151882934.386          46.000    37091352.813   145554480.869          50.500  
J02  37496938.867   197047762.079          36.800    37496938.145   197047746.358          41.400    37496934.504   197047728.679          38.300    37496937.883   153543700.209          38.900    37496940.848   147146047.352          44.300  
J03  38336790.727   201461241.882          47.200    38336790.809   201461230.138          51.600    38336786.887   201461209.762          49.200    38336789.891   156982781.652          52.300    38336792.762   150441832.918          55.200  
G19  20551098.938   107996784.574          46.800    20551096.121    84153360.968          41.600                                                                                                  
G02  25205969.680   132458282.036          31.400    25205968.328   103214241.377          15.600                                                                                                  
G14  23164684.813   121731297.302          40.400    23164685.414    94855554.399          25.900    23164685.492    94855545.144          42.200    23164689.422    90903232.089          47.100  
G22  24493127.367   128712323.213          37.400    24493123.719   100295341.489          21.500                                                                                                  
E01  27664689.695   145378930.505          38.600    27664688.199   111394248.247          42.700    27664688.629   108562188.855          41.900    27664688.785   109978220.151          45.700  
E26  26334595.258   138389233.329          38.800    26334594.145   106038504.399          43.000    26334594.723   103342610.728          43.200    26334595.566   104690557.665          47.000  
E03  25798557.445   135572361.930          44.000    25798556.426   103880129.507          47.000    25798556.375   101239112.539          47.200    25798557.016   102559623.125          50.400  
E07  27132971.641   142584724.640          40.400    27132970.953   109253230.393          42.100    27132970.027   106475605.346          41.900    27132971.309   107864418.479          45.700  
E21  26284505.070   138126030.987          41.600    26284504.004   105836835.550          46.300    26284504.340   103146071.714          45.100    26284504.859   104491455.729          48.700  
E13  23762482.305   124872724.529          48.200    23762480.102    95681707.877          53.000    23762480.469    93249123.693          52.900    23762480.984    94465415.891          56.300  
E08  22695709.602   119266777.640          48.400    22695706.879    91386230.378          51.000    22695706.828    89062854.665          51.200    22695707.523    90224544.624          54.200  
E27  27342944.789   143688171.358          38.600    27342943.078   110098737.235          42.400    27342943.613   107299618.106          43.200    27342944.027   108699177.767          46.200  
E15  24775080.156   130194011.355          46.000    24775079.613    99759090.325          49.700    24775080.105    97222845.498          49.800    24775080.465    98490971.015          53.200  
> 2021 03 19 12 00 13.0000000  0 24                     
G17  20346092.852   106919528.003          50.800    20346092.523    83313910.172          56.700    20346092.543    83313899.938          51.000                                                  
G03  21935203.906   115270322.345          44.200    21935206.141    89821091.833          36.700    21935206.387    89821067.599          46.800    21935206.770    86078527.199          52.300  
G09  22647973.047   119015937.173          41.800    22647974.902    92739692.850          32.400    22647974.570    92739680.598          45.000    22647974.168    88875529.725          49.100  
G28  22462996.695   118043880.953          41.400    22462995.895    91982255.679          29.300                                                                                                  
G04  22420292.125   117819482.845          42.600    22420293.242    91807373.573          30.800    22420292.941    91807365.320          45.100    22420295.711    87982058.868          49.200  
G06  21974081.781   115474593.156          44.000    21974083.863    89980266.602          46.900    21974084.148    89980247.348          46.600    21974083.758    86231073.210          51.200  
G01  23882641.922   125504304.759          37.000    23882645.277    97795668.626          21.500    23882645.340    97795613.370          38.600    23882643.641    93720805.535          45.800  
J07  37283206.867   195924603.020          39.000    37283206.809   195924597.261          42.300    37283201.332   195924627.233          45.400    37283205.848   152668523.778          47.800    37283208.742   146307336.222          51.900  
J01  37091382.000   194916611.597          44.200    37091382.559   194916579.849          47.800    37091379.695   194916562.084          43.900    37091380.828   151883060.442          46.000    37091383.563   145554601.665          50.300  
J02  37497035.953   197048273.770          37.200    37497035.863   197048258.006          41.700    37497032.027   197048240.370          38.900    37497035.238   153544098.884          38.900    37497038.059   147146429.448          44.600  
J03  38336670.484   201460608.996          47.400    38336670.207   201460597.245          51.400    38336666.480   201460576.876          48.800    38336669.328   156982288.491          52.400    38336672.391   150441360.307          55.200  
G19  20550769.281   107995053.429          46.800    20550766.691    84152012.020          41.800                                                                                                  
G02  25205565.414   132456157.382          31.400    25205563.984   103212585.809          16.900                                                                                                  
G14  23165298.930   121734519.514          40.200    23165298.488    94858065.215          27.300    23165298.488    94858055.946          42.600    23165302.512    90905638.253          46.800  
G22  24493741.766   128715552.005          37.200    24493738.020   100297857.446          20.900                                                                                                  
E01  27664598.234   145378451.584          38.000    27664596.879   111393881.274          42.800    27664597.352   108561831.206          42.100    27664597.625   109977857.847          45.900  
E26  26334240.227   138387368.415          38.600    26334239.520   106037075.424          43.000    26334239.918   103341218.092          42.700    26334240.684   104689146.860          46.800  
E03  25798738.586   135573313.765          44.000    25798737.539   103880858.830          47.100    25798737.598   101239823.317          47.000    25798738.152   102560343.182          50.600  
E07  27132391.063   142581674.222          40.000    27132390.211   109250893.072          41.900    27132389.766   106473327.447          41.800    27132390.816   107862110.870          45.900  
E21  26284825.305   138127711.859          41.600    26284823.922   105838123.486          46.500    26284824.262   103147326.906          44.900    26284824.719   104492727.307          48.800  
E13  23762364.945   124872107.069          48.200    23762362.484    95681234.753          53.100    23762362.934    93248662.595          52.400    23762363.488    94464948.782          56.200  
E08  22695388.000   119265086.150          48.400    22695385.090    91384934.311          51.000    22695385.008    89061591.544          51.200    22695385.652    90223265.033          54.500  
E27  27343480.727   143690988.198          38.800    27343479.137   110100895.590          42.400    27343479.746   107301721.613          42.800    27343480.043   108701308.695          46.400  
E15  24775297.563   130195155.094          46.200    24775297.242    99759966.690          49.300    24775297.730    97223699.581          49.800    24775298.105    98491836.235          53.000  
> 2021 03 19 12 00 14.0000000  0 24                     
G17  20346008.844   106919085.290          50.800    20346008.336    83313565.202          56.400    20346008.395    83313554.947          51.000                                                  
G03  21935722.344   115273045.267          44.600    21935724.262    89823213.590          36.300    21935724.586    89823189.342          47.000    21935724.891    86080560.556          52.400  
G09  22647453.188   119013204.033          41.600    22647454.766    92737563.128          33.000    22647454.234    92737550.886          44.700    22647454.070    88873488.745          49.000  
G28  22463498.773   118046517.809          41.200    22463497.711    91984310.382          29.200                                                                                                  
G04  22420088.508   117818412.439          42.600    22420089.457    91806539.487          30.700    22420089.445    91806531.228          45.000    22420091.797    87981259.520          49.100  
G06  21973767.992   115472943.123          43.600    21973769.898    89978980.856          46.800    21973770.328    89978961.603          46.300    21973769.824    86229841.037          51.100  
G01  23883132.984   125506883.794          36.600    23883136.051    97797678.261          21.700    23883135.730    97797623.028          38.600    23883134.406    93722731.418          45.900  
J07  37283207.102   195924604.420          38.800    37283206.855   195924598.656          42.200    37283201.461   195924628.633          45.100    37283206.102   152668524.871          47.400    37283209.047   146307337.266          51.800  
J01  37091412.906   194916773.428          44.000    37091413.270   194916741.683          47.800    37091410.883   194916723.915          44.100    37091411.328   151883186.543          46.000    37091414.449   145554722.519          50.700  
J02  37497133.148   197048785.425          37.400    37497133.117   197048769.683          41.500    37497129.152   197048752.024          38.400    37497132.371   153544497.596          39.200    37497135.535   147146811.517          44.700  
J03  38336550.148   201459976.042          48.200    38336549.742   201459964.312          51.500    38336546.371   201459943.921          48.700    38336549.082   156981795.293          52.500    38336552.000   150440887.653          55.200  
G19  20550440.133   107993322.721          46.800    20550437.305    84150663.421          41.700                                                                                                  
G02  25205160.945   132454032.688          31.400    25205159.672   103210930.233          16.900                                                                                                  
G14  23165911.781   121737741.814          40.200    23165911.551    94860576.098          26.600    23165911.727    94860566.848          42.700    23165915.762    90908044.549          47.000  
G22  24494355.875   128718780.791          37.000    24494352.379   100300373.392          20.400                                                                                                  
E01  27664507.328   145377973.071          38.200    27664505.988   111393514.617          43.000    27664506.363   108561473.872          42.500    27664506.590   109977495.851          46.100  
E26  26333885.328   138385503.463          38.200    26333884.469   106035646.425          42.800    26333884.988   103339825.426          42.700    26333885.805   104687736.030          46.700  
E03  25798919.906   135574266.033          44.200    25798918.793   103881588.488          46.800    25798918.594   101240534.423          46.800    25798919.363   102561063.561          50.000  
E07  27131810.727   142578623.824          39.600    27131809.902   109248555.760          42.600    27131809.145   106471049.578          41.700    27131810.355   107859803.269          46.500  
E21  26285145.164   138129393.053          41.600    26285143.699   105839411.668          46.700    26285144.238   103148582.346          45.300    26285144.637   104493999.112          48.800  
E13  23762247.305   124871489.664          48.000    23762245.102    95680761.680          53.000    23762245.461    93248201.549          52.400    23762245.984    94464481.717          56.200  
E08  22695066.070   119263395.033          48.200    22695063.180    91383638.515          50.400    22695063.105    89060328.703          50.600    22695063.852    90221985.710          54.000  
E27  27344016.727   143693804.962          38.200    27344015.008   110103053.871          42.200    27344015.797   107303825.016          42.800    27344016.051   108703439.555          46.300  
E15  24775515.508   130196298.898          46.200    24775514.961    99760843.120          49.400    24775515.309    97224553.731          50.000    24775515.781    98492701.526          53.400  
> 2021 03 19 12 00 15.0000000  0 24                     
G17  20345924.945   106918643.050          51.000    20345924.094    83313220.595          56.600    20345924.094    83313210.362          51.300                                                  
G03  21936240.688   115275768.475          44.400    21936242.492    89825335.575          36.600    21936242.668    89825311.334          47.400    21936243.063    86082594.121          52.600  
G09  22646932.398   119010471.213          41.800    22646934.734    92735433.650          33.000    22646934.852    92735421.414          44.700    22646934.086    88871448.007          49.100  
G28  22463999.852   118049154.961          41.600    22463999.504    91986365.310          28.900                                                                                                  
G04  22419885.008   117817342.595          42.600    22419885.984    91805705.843          30.500    22419885.836    91805697.580          44.700    22419888.297    87980460.621          49.000  
G06  21973453.836   115471293.239          43.800    21973455.961    89977695.232          46.800    21973456.125    89977675.967          46.800    21973455.844    86228608.985          51.300  
G01  23883623.453   125509462.852          37.000    23883626.984    97799687.914          20.900    23883626.395    97799632.669          38.700    23883625.234    93724657.335          45.800  
J07  37283206.406   195924605.839          39.000    37283207.457   195924600.084          42.300    37283201.945   195924630.053          45.200    37283206.027   152668525.971          47.800    37283209.277   146307338.338          52.200  
J01  37091443.578   194916935.367          44.400    37091443.938   194916903.607          47.800    37091441.551   194916885.853          44.100    37091442.250   151883312.726          46.200    37091445.305   145554843.448          50.500  
J02  37497230.016   197049297.110          37.400    37497230.504   197049281.352          41.600    37497226.527   197049263.704          37.900    37497229.453   153544896.306          39.000    37497232.668   147147193.616          44.800  
J03  38336429.211   201459343.094          47.800    38336429.461   201459331.343          51.500    38336425.629   201459310.975          48.900    38336428.586   156981302.083          52.700    38336431.484   150440414.994          55.100  
G19  20550110.484   107991592.493          47.000    20550108.000    84149315.191          41.800                                                                                                  
G02  25204756.336   132451908.012          31.400    25204755.516   103209274.751          16.900                                                                                                  
G14  23166524.844   121740964.299          39.600    23166524.875    94863087.125          26.700    23166524.570    94863077.877          42.300    23166529.039    90910450.947          47.100  
G22  24494970.805   128722009.638          37.000    24494966.742   100302889.351          20.600                                                                                                  
E01  27664416.086   145377495.028          38.000    27664415.172   111393148.348          42.800    27664415.488   108561116.897          42.600    27664415.617   109977134.215          45.800  
E26  26333530.117   138383638.482          38.600    26333529.582   106034217.424          42.700    26333530.301   103338432.764          42.600    26333530.891   104686325.199          46.700  
E03  25799101.109   135575218.717          44.000    25799100.031   103882318.484          47.200    25799099.902   101241245.858          46.900    25799100.641   102561784.273          50.400  
E07  27131230.313   142575573.465          39.800    27131229.367   109246218.458          42.200    27131228.684   106468771.690          41.200    27131229.871   107857495.677          46.000  
E21  26285464.891   138131074.599          42.200    26285463.734   105840700.121          46.000    26285464.109   103149838.027          45.100    26285464.645   104495271.179          48.900  
E13  23762129.922   124870872.345          48.400    23762127.703    95680288.670          52.900    23762127.996    93247740.565          52.500    23762128.523    94464014.720          56.400  
E08  22694744.156   119261704.318          48.400    22694741.504    91382343.033          50.800    22694741.375    89059066.150          50.400    22694742.117    90220706.696          54.100  
E27  27344552.313   143696621.735          38.600    27344550.969   110105212.170          42.100    27344551.797   107305928.444          42.800    27344552.074   108705570.411          46.300  
E15  24775733.102   130197442.858          46.200    24775732.648    99761719.640          49.700    24775732.910    97225407.975          50.000    24775733.465    98493566.913          53.700  
> 2021 03 19 12 00 16.0000000  0 24                     
G17  20345840.781   106918201.274          50.800    20345840.090    83312876.353          56.400    20345840.020    83312866.110          51.100                                                  
G03  21936758.961   115278491.987          44.200    21936760.742    89827457.788          36.000    21936760.863    89827433.543          47.300    21936761.324    86084627.903          52.500  
G09  22646413.156   119007738.691          41.800    22646414.684    92733304.414          32.100    22646414.402    92733292.177          44.500    22646414.113    88869407.479          49.200  
G28  22464502.102   118051792.382          41.200    22464501.363    91988420.445          28.600                                                                                                  
G04  22419681.203   117816273.291          42.000    22419682.688    91804872.614          30.900    22419682.027    91804864.363          44.700    22419684.832    87979662.118          49.100  
G06  21973140.109   115469643.474          43.800    21973142.012    89976409.701          46.800    21973142.293    89976390.436          46.500    21973141.898    86227377.011          51.000  
G01  23884113.844   125512041.932          36.600    23884117.816    97801697.574          21.700    23884117.047    97801642.339          39.200    23884116.000    93726583.259          45.500  
J07  37283207.273   195924607.224          38.600    37283207.523   195924601.480          42.200    37283201.926   195924631.437          44.900    37283206.582   152668527.062          47.900    37283209.621   146307339.374          51.900  
J01  37091474.711   194917097.374          45.000    37091474.945   194917065.626          47.900    37091472.531   194917047.868          43.800    37091473.137   151883438.974          46.100    37091476.219   145554964.428          50.200  
J02  37497327.523   197049808.762          37.000    37497327.891   197049793.008          41.600    37497324.172   197049775.355          38.400    37497327.199   153545295.003          38.900    37497330.063   147147575.703          44.900  
J03  38336308.711   201458710.069          48.200    38336308.945   201458698.325          51.500    38336305.371   201458677.949          49.100    38336308.090   156980808.821          52.200    38336311.039   150439942.284          55.100  
G19  20549781.617   107989862.683          46.800    20549778.945    84147967.289          42.100                                                                                                  
G02  25204351.930   132449783.305          31.400    25204351.191   103207619.008          16.900                                                                                                  
G14  23167138.211   121744186.948          40.200    23167138.160    94865598.281          26.700    23167137.992    94865589.013          42.200    23167142.391    90912857.448          47.200  
G22  24495584.523   128725238.501          37.400    24495581.117   100305405.358          20.900                                                                                                  
E01  27664325.445   145377017.421          37.800    27664324.191   111392782.379          42.700    27664324.766   108560760.252          42.400    27664324.746   109976772.923          46.000  
E26  26333175.609   138381773.486          38.600    26333174.758   106032788.392          43.000    26333175.238   103337040.036          42.400    26333176.000   104684914.322          46.800  
E03  25799282.250   135576171.871          44.200    25799281.508   103883048.803          47.100    25799281.461   101241957.619          47.300    25799282.031   102562505.318          50.500  
E07  27130649.633   142572523.109          39.400    27130649.133   109243881.158          42.100    27130648.305   106466493.805          41.400    27130649.406   107855188.082          45.900  
E21  26285784.961   138132756.439          41.800    26285783.852   105841988.812          46.100    26285784.039   103151093.955          45.300    26285784.676   104496543.490          48.800  
E13  23762012.492   124870255.093          48.000    23762010.199    95679815.708          53.100    23762010.480    93247279.627          52.400    23762011.070    94463547.771          56.300  
E08  22694422.641   119260013.951          48.200    22694419.770    91381047.818          51.000    22694419.891    89057803.862          50.200    22694420.438    90219427.946          54.200  
E27  27345088.461   143699438.421          39.000    27345087.059   110107370.402          41.600    27345087.641   107308031.822          42.500    27345088.066   108707701.217          45.900  
E15  24775950.891   130198586.857          46.400    24775950.359    99762596.221          49.600    24775950.594    97226262.265          49.900    24775951.148    98494432.343          53.300  
> 2021 03 19 12 00 17.0000000  0 24                     
G17  20345756.875   106917760.035          51.000    20345756.098    83312532.534          56.500    20345755.969    83312522.285          51.000                                                  
G03  21937277.195   115281215.832          44.200    21937278.934    89829580.265          36.100    21937279.391    89829556.015          47.200    21937279.715    86086661.941          52.300  
G09  22645892.617   119005006.552          42.000    22645894.824    92731175.478          32.400    22645894.617    92731163.224          44.800    22645894.184    88867367.240          49.000  
G28  22465003.570   118054430.106          41.600    22465003.141    91990475.809          29.500                                                                                                  
G04  22419477.867   117815204.606          42.200    22419479.242    91804039.872          30.300    22419478.473    91804031.620          45.000    22419481.406    87978864.069          48.800  
G06  21972826.016   115467993.887          43.600    21972828.129    89975124.311          46.900    21972828.402    89975105.061          46.600    21972827.930    86226145.172          51.200  
G01  23884604.828   125514621.091          36.000    23884608.715    97803707.316          21.500    23884607.488    97803652.068          39.300    23884606.730    93728509.254          45.500  
J07  37283207.648   195924608.704          38.400    37283208.020   195924602.944          42.100    37283202.461   195924632.917          45.000    37283206.938   152668528.199          47.800    37283209.805   146307340.457          51.500  
J01  37091505.438   194917259.514          45.000    37091505.629   194917227.775          47.900    37091503.375   194917210.001          43.900    37091503.840   151883565.313          45.900    37091506.930   145555085.505          50.500  
J02  37497425.125   197050320.491          37.600    37497425.375   197050304.727          41.600    37497421.410   197050287.091          38.100    37497424.324   153545693.761          39.400    37497427.582   147147957.839          44.500  
J03  38336188.250   201458077.067          48.200    38336188.520   201458065.323          51.600    38336184.922   201458044.948          48.800    38336187.641   156980315.566          52.100    38336190.602   150439469.580          55.400  
G19  20549452.703   107988133.397          46.800    20549449.895    84146619.789          42.000                                                                                                  
G02  25203947.828   132447658.583          31.400    25203946.879   103205963.424          16.300                                                                                                  
G14  23167751.125   121747409.775          39.800    23167751.488    94868109.575          27.000    23167751.242    94868100.313          42.200    23167755.574    90915264.113          47.300  
G22  24496199.453   128728467.412          37.200    24496195.734   100307921.409          20.900                                                                                                  
E01  27664234.289   145376540.330          38.000    27664233.484   111392416.828          42.300    27664233.785   108560403.976          42.300    27664233.953   109976411.998          45.900  
E26  26332820.570   138379908.486          39.000    26332819.957   106031359.363          43.400    26332820.199   103335647.371          42.600    26332821.102   104683503.472          47.100  
E03  25799463.617   135577125.497          43.600    25799462.852   103883779.502          47.100    25799462.730   101242669.742          47.000    25799463.496   102563226.722          50.100  
E07  27130069.133   142569472.799          39.000    27130068.617   109241543.932          42.100    27130067.852   106464215.996          41.300    27130068.957   107852880.575          45.600  
E21  26286105.016   138134438.650          42.200    26286104.043   105843277.796          46.200    26286104.289   103152350.170          44.900    26286104.789   104497816.084          48.500  
E13  23761894.891   124869637.968          48.200    23761892.781    95679342.852          53.000    23761893.102    93246818.790          52.300    23761893.637    94463080.923          56.000  
E08  22694101.047   119258324.030          48.000    22694098.195    91379752.940          51.300    22694098.266    89056541.908          50.500    22694098.867    90218149.525          54.400  
E27  27345624.484   143702255.093          38.600    27345623.094   110109528.681          41.600    27345623.590   107310135.204          42.600    27345624.066   108709832.039          45.900  
E15  24776168.547   130199731.034          46.600    24776168.094    99763472.926          49.500    24776168.453    97227116.675          49.800    24776168.887    98495297.902          53.100  
> 2021 03 19 12 00 18.0000000  0 24                     
G17  20345672.844   106917319.2201         50.800    20345672.199    83312189.0351         56.000    20345672.063    83312178.7871         51.200                                                  
G03  21937795.188   115283939.8781         44.200    21937797.527    89831702.8981         36.100    21937797.613    89831678.6511         47.000    21937798.059    86088696.1401         52.100  
G09  22645373.180   119002274.6321         41.800    22645374.953    92729046.7091         33.000    22645374.430    92729034.4701         45.100    22645374.121    88865327.1871         49.500  
G28  22465505.992   118057068.1041         41.600    22465505.094    91992531.3851         29.400                                                                                                  
G04  22419274.547   117814136.4511         42.000    22419275.883    91803207.5401         30.000    22419275.398    91803199.2861         45.100    22419278.168    87978066.4121         49.000  
G06  21972512.438   115466344.3761         43.600    21972514.195    89973838.9731         46.900    21972514.703    89973819.7201         46.200    21972514.066    86224913.4081         51.000  
G01  23885095.813   125517200.2241         35.800    23885099.641    97805717.0521         20.900    23885098.832    97805661.7701         39.000    23885097.586    93730435.2281         45.000  
J07  37283208.461   195924610.0781         38.400    37283208.031   195924604.3341         42.300    37283202.586   195924634.2921         45.100    37283207.191   152668529.2821         47.700    37283210.059   146307341.4961         51.400  
J01  37091536.352   194917421.6971         45.200    37091536.598   194917389.9411         48.000    37091533.809   194917372.1911         43.800    37091534.777   151883691.6911         45.900    37091537.910   145555206.6081         50.800  
J02  37497522.430   197050832.1431         38.200    37497522.531   197050816.4171         41.600    37497518.934   197050798.7431         38.600    37497522.145   153546092.4441         39.100    37497525.055   147148339.9221         44.600  
J03  38336068.063   201457443.9911         47.600    38336068.090   201457432.2321         51.700    38336064.172   201457411.8701         49.100    38336067.242   156979822.2511         52.100    38336070.055   150438996.8271         55.100  
G19  20549123.625   107986404.5121         47.000    20549120.754    84145272.6101         42.000                                                                                                  
G02  25203543.438   132445533.9121         31.400    25203542.617   103204307.8521         15.600                                                                                                  
G14  23168364.945   121750632.6921         40.000    23168364.902    94870620.9451         27.100    23168364.707    94870611.6781         42.200    23168368.844    90917670.8401         47.500  
G22  24496814.008   128731696.3291         36.800    24496810.305   100310437.4371         20.600                                                                                                  
E01  27664143.961   145376063.6611         38.200    27664142.684   111392051.5631         42.800    27664143.285   108560048.0201         42.400    27664143.230   109976051.4051         46.000  
E26  26332465.375   138378043.4121         39.000    26332464.977   106029930.2971         42.800    26332465.391   103334254.6271         42.600    26332466.207   104682092.5641         46.800  
E03  25799645.203   135578079.5091         44.200    25799644.227   103884510.4921         47.200    25799644.270   101243382.1531         47.000    25799645.027   102563948.4221         50.600  
E07  27129488.836   142566422.4741         39.200    27129488.293   109239206.6511         42.100    27129487.461   106461938.1511         41.200    27129488.500   107850573.0001         45.700  
E21  26286425.258   138136121.1671         41.600    26286424.309   105844566.9831         46.000    26286424.273   103153606.5781         44.400    26286424.969   104499088.8891         48.500  
E13  23761777.500   124869020.8731         48.600    23761775.352    95678870.0011         53.000    23761775.660    93246357.9661         52.500    23761776.207    94462614.0931         55.900  
E08  22693779.609   119256634.4241         48.000    22693776.648    91378458.3001         51.300    22693776.824    89055280.1791         50.800    22693777.332    90216871.3511         54.400  
E27  27346160.359   143705071.6911         38.600    27346159.418   110111686.8361         41.600    27346159.789   107312238.4941         42.500    27346160.063   108711962.7761         45.700  
E15  24776386.273   130200875.2361         46.200    24776385.832    99764349.6561         49.900    24776386.125    97227971.1211         50.000    24776386.621    98496163.4951         53.400  
> 2021 03 19 12 00 19.0000000  0 24                     
G17  20345589.000   106916878.871          51.200    20345588.367    83311845.910          56.000    20345588.207    83311835.661          51.000                                                  
G03  21938313.734   115286664.254          44.600    21938315.969    89833825.790          36.000    21938316.148    89833801.535          47.200    21938316.523    86090730.571          52.300  
G09  22644853.383   118999543.027          41.800    22644855.145    92726918.184          32.200    22644854.902    92726905.962          45.000    22644854.484    88863287.364          49.500  
G28  22466007.508   118059706.367          41.600    22466007.141    91994587.176          28.600                                                                                                  
G04  22419071.578   117813068.827          42.000    22419072.734    91802375.631          30.800    22419072.426    91802367.393          44.700    22419074.926    87977269.169          49.100  
G06  21972197.938   115464695.012          43.600    21972200.414    89972553.758          46.700    21972200.824    89972534.512          46.300    21972200.215    86223681.744          51.400  
G01  23885587.203   125519779.363          36.400    23885590.359    97807726.767          22.000    23885589.770    97807671.518          38.700    23885588.277    93732361.208          44.900  
J07  37283208.203   195924611.470          38.600    37283208.129   195924605.737          42.400    37283202.688   195924635.683          45.800    37283207.566   152668530.363          47.800    37283210.219   146307342.538          51.700  
J01  37091567.438   194917583.965          45.600    37091567.590   194917552.201          47.900    37091565.086   194917534.459          44.300    37091565.707   151883818.131          46.000    37091568.730   145555327.778          50.900  
J02  37497620.102   197051343.878          37.600    37497619.855   197051328.093          41.600    37497616.359   197051310.479          38.300    37497619.270   153546491.163          38.600    37497622.199   147148722.039          44.900  
J03  38335947.711   201456810.871          47.800    38335947.547   201456799.119          51.700    38335944.070   201456778.751          49.500    38335946.551   156979328.913          52.200    38335949.648   150438524.042          55.100  
G19  20548794.563   107984676.077          46.800    20548791.895    84143925.779          42.200                                                                                                  
G02  25203138.625   132443409.190          31.600    25203138.152   103202652.138          15.600                                                                                                  
G14  23168977.969   121753855.785          40.200    23168978.199    94873132.430          26.900    23168978.152    94873123.189          42.100    23168982.277    90920077.686          47.400  
G22  24497428.164   128734925.260          37.400    24497424.738   100312953.493          20.100                                                                                                  
E01  27664053.289   145375587.436          38.200    27664051.914   111391686.661          42.600    27664052.586   108559692.381          42.400    27664052.613   109975691.131          45.900  
E26  26332110.609   138376178.320          39.000    26332109.996   106028501.201          43.000    26332110.504   103332861.841          42.400    26332111.285   104680681.627          47.000  
E03  25799826.820   135579033.963          44.000    25799826.113   103885241.832          47.200    25799825.902   101244094.898          46.800    25799826.676   102564670.472          50.800  
E07  27128908.070   142563372.174          39.200    27128907.777   109236869.434          42.000    27128906.977   106459660.338          41.600    27128908.063   107848265.482          45.700  
E21  26286745.648   138137804.015          41.400    26286744.398   105845856.432          46.100    26286744.504   103154863.243          44.600    26286745.191   104500361.944          48.900  
E13  23761660.203   124868403.858          48.400    23761657.984    95678397.230          52.800    23761658.227    93245897.212          52.700    23761658.793    94462147.328          56.100  
E08  22693458.242   119254945.214          48.000    22693455.195    91377163.967          51.300    22693455.297    89054018.763          50.700    22693455.895    90215593.464          54.400  
E27  27346696.422   143707888.268          38.600    27346695.027   110113844.988          41.700    27346695.566   107314341.775          42.800    27346696.020   108714093.489          46.400  
E15  24776604.070   130202019.548          45.800    24776603.621    99765226.479          49.800    24776603.891    97228825.644          50.000    24776604.371    98497029.164          53.200  
> 2021 03 19 12 00 20.0000000  0 24                     
G17  20345505.211   106916438.966          50.600    20345504.672    83311503.129          55.800    20345504.375    83311492.887          51.000                                                  
G03  21938832.313   115289388.877          44.600    21938834.379    89835948.873          35.900    21938834.547    89835924.617          47.000    21938834.848    86092765.194          52.100  
G09  22644333.648   118996811.725          41.600    22644335.320    92724789.900          32.200    22644335.027    92724777.672          45.200    22644334.574    88861247.747          49.500  
G28  22466509.594   118062344.903          41.800    22466509.234    91996643.175          28.200                                                                                                  
G04  22418868.492   117812001.752          42.200    22418869.797    91801544.144          30.600    22418869.176    91801535.896          44.600    22418871.918    87976472.328          49.200  
G06  21971883.992   115463045.758          44.000    21971886.480    89971268.626          46.900    21971886.777    89971249.376          46.200    21971886.410    86222450.156          51.600  
G01  23886076.969   125522358.522          36.800    23886081.063    97809736.481          22.500    23886080.598    97809681.248          39.100    23886078.988    93734287.218          45.300  
J07  37283208.203   195924612.836          38.400    37283208.820   195924607.107          42.300    37283203.113   195924637.042          45.400    37283207.480   152668531.446          48.100    37283210.590   146307343.565          51.500  
J01  37091598.039   194917746.288          45.600    37091598.391   194917714.539          47.800    37091596.070   194917696.774          44.300    37091596.648   151883944.614          46.300    37091599.613   145555449.003          50.700  
J02  37497717.656   197051855.504          37.600    37497717.289   197051839.773          41.600    37497713.922   197051822.098          38.400    37497716.703   153546889.862          38.500    37497719.625   147149104.119          44.700  
J03  38335827.156   201456177.675          47.400    38335826.930   201456165.938          51.600    38335823.230   201456145.555          49.500    38335826.176   156978835.526          52.400    38335829.152   150438051.207          55.200  
G19  20548465.672   107982948.065          47.000    20548463.105    84142579.279          41.800                                                                                                  
G02  25202734.500   132441284.524          31.600    25202733.906   103200996.557          13.900                                                                                                  
G14  23169590.695   121757078.965          40.000    23169591.484    94875644.012          27.900    23169591.234    94875634.762          42.200    23169595.629    90922484.623          47.600  
G22  24498042.406   128738154.223          37.000    24498039.215   100315469.530          20.600                                                                                                  
E01  27663962.664   145375111.640          38.200    27663961.477   111391322.089          42.800    27663962.098   108559337.084          42.400    27663962.098   109975331.193          46.000  
E26  26331755.633   138374313.164          38.400    26331755.152   106027072.068          43.100    26331755.559   103331469.058          43.000    26331756.359   104679270.673          47.000  
E03  25800008.367   135579988.819          44.000    25800007.938   103885973.472          47.300    25800007.500   101244807.934          46.800    25800008.391   102565392.806          50.300  
E07  27128327.727   142560321.862          39.400    27128327.320   109234532.167          42.300    27128326.848   106457382.504          41.800    27128327.598   107845957.943          45.900  
E21  26287065.914   138139487.123          41.800    26287064.902   105847146.110          45.900    26287064.770   103156120.146          44.600    26287065.488   104501635.232          48.900  
E13  23761542.766   124867786.883          48.600    23761540.563    95677924.483          52.600    23761540.797    93245436.490          52.700    23761541.387    94461680.590          56.100  
E08  22693136.516   119253256.325          47.600    22693133.754    91375869.897          51.400    22693133.906    89052757.582          50.800    22693134.508    90214315.840          54.700  
E27  27347232.203   143710704.784          38.400    27347231.082   110116003.076          41.700    27347231.566   107316445.004          42.400    27347231.977   108716224.137          46.100  
E15  24776821.859   130203163.943          46.200    24776821.438    99766103.340          49.800    24776821.711    97229680.216          50.100    24776822.148    98497894.885          53.300  
> 2021 03 19 12 00 21.0000000  0 24                     
G17  20345421.555   106915999.626          50.200    20345421.074    83311160.787          55.900    20345421.059    83311150.531          51.200                                                  
G03  21939351.031   115292113.842          44.800    21939352.887    89838072.219          35.900    21939353.109    89838047.973          47.000    21939353.430    86094800.068          52.300  
G09  22643813.383   118994080.789          42.200    22643815.613    92722661.887          32.300    22643815.160    92722649.680          45.200    22643814.914    88859208.419          49.500  
G28  22467012.492   118064983.770          41.600    22467011.457    91998699.443          29.700                                                                                                  
G04  22418665.586   117810935.306          42.200    22418666.977    91800713.142          31.000    22418666.434    91800704.903          44.500    22418668.926    87975675.953          48.800  
G06  21971570.664   115461396.691          43.800    21971572.773    89969983.637          47.000    21971573.117    89969964.401          46.600    21971572.664    86221218.722          51.200  
G01  23886567.383   125524937.777          37.000    23886571.949    97811746.296          21.800    23886571.039    97811691.054          39.200    23886570.027    93736213.284          44.900  
J07  37283208.922   195924614.281          38.000    37283208.844   195924608.552          42.200    37283203.688   195924638.501          45.400    37283207.977   152668532.556          47.600    37283211.012   146307344.641          51.700  
J01  37091629.070   194917908.761          45.200    37091629.219   194917877.006          47.900    37091626.563   194917859.249          44.300    37091627.758   151884071.227          46.400    37091630.566   145555570.326          50.500  
J02  37497814.664   197052367.261          37.400    37497814.258   197052351.514          41.600    37497811.234   197052333.862          38.100    37497814.461   153547288.642          38.500    37497817.020   147149486.272          44.900  
J03  38335706.836   201455544.523          47.600    38335706.609   201455532.786          51.500    38335702.902   201455512.404          49.500    38335705.789   156978342.153          53.000    38335708.652   150437578.398          55.300  
G19  20548136.773   107981220.581          46.800    20548134.438    84141233.181          41.700                                                                                                  
G02  25202330.570   132439159.797          31.400    25202329.707   103199340.904          13.900                                                                                                  
G14  23170204.781   121760302.414          39.600    23170204.855    94878155.785          27.600    23170204.656    94878146.506          42.300    23170209.164    90924891.728          47.500  
G22  24498657.156   128741383.250          37.000    24498653.648   100317985.697          21.100                                                                                                  
E01  27663872.469   145374636.351          38.000    27663871.109   111390957.902          42.100    27663871.453   108558982.165          42.700    27663871.641   109974971.648          45.800  
E26  26331400.492   138372448.076          39.000    26331400.223   106025642.952          42.900    26331400.477   103330076.283          43.000    26331401.422   104677859.725          46.800  
E03  25800190.453   135580944.187          44.000    25800189.613   103886705.512          47.100    25800189.402   101245521.363          46.800    25800190.180   102566115.534          50.300  
E07  27127747.234   142557271.641          39.400    27127747.262   109232194.994          42.200    27127746.082   106455104.749          41.800    27127747.184   107843650.475          45.700  
E21  26287386.266   138141170.687          41.600    26287385.293   105848436.086          45.900    26287385.109   103157377.325          44.400    26287385.840   104502908.803          48.800  
E13  23761425.313   124867170.063          48.400    23761423.168    95677451.862          52.600    23761423.461    93244975.878          53.100    23761424.004    94461213.967          56.400  
E08  22692815.359   119251567.907          48.200    22692812.484    91374576.169          51.100    22692812.602    89051496.747          50.800    22692813.203    90213038.560          54.700  
E27  27347768.563   143713521.247          38.400    27347766.918   110118161.191          41.700    27347767.484   107318548.223          42.700    27347767.957   108718354.811          46.100  
E15  24777039.664   130204308.492          46.200    24777039.188    99766980.333          49.300    24777039.488    97230534.920          50.200    24777039.957    98498760.726          53.100  
> 2021 03 19 12 00 22.0000000  0 24                     
G17  20345338.023   106915560.732          50.000    20345337.582    83310818.786          55.900    20345337.613    83310808.537          51.100                                                  
G03  21939869.461   115294839.084          44.400    21939871.375    89840195.790          35.700    21939871.906    89840171.543          47.000    21939872.051    86096835.156          52.000  
G09  22643294.031   118991350.166          42.000    22643295.855    92720534.132          32.300    22643295.785    92720521.883          45.200    22643295.258    88857169.297          49.000  
G28  22467514.570   118067622.920          41.600    22467513.648    92000755.920          29.100                                                                                                  
G04  22418462.664   117809869.399          42.800    22418464.207    91799882.567          31.300    22418463.785    91799874.323          43.900    22418466.086    87974879.985          48.700  
G06  21971256.977   115459747.741          44.200    21971258.918    89968698.744          47.000    21971259.141    89968679.492          46.800    21971258.844    86219987.354          50.700  
G01  23887058.070   125527517.046          36.400    23887062.852    97813756.119          21.700    23887061.801    97813700.859          39.400    23887060.754    93738139.360          45.100  
J07  37283209.594   195924615.722          38.000    37283209.430   195924609.952          42.200    37283204.180   195924639.942          45.800    37283208.285   152668533.651          47.600    37283211.230   146307345.681          51.600  
J01  37091660.086   194918071.300          45.200    37091660.152   194918039.553          47.900    37091657.121   194918021.786          44.500    37091658.375   151884197.872          46.600    37091661.559   145555691.701          50.600  
J02  37497912.313   197052879.000          37.400    37497911.820   197052863.233          41.600    37497908.363   197052845.601          38.200    37497911.813   153547687.377          38.300    37497914.258   147149868.405          44.900  
J03  38335586.359   201454911.333          47.800    38335585.977   201454899.574          51.600    38335582.324   201454879.213          48.900    38335585.328   156977848.756          52.800    38335588.156   150437105.551          55.200  
G19  20547808.234   107979493.527          46.800    20547805.695    84139887.431          41.400                                                                                                  
G02  25201925.961   132437035.135          31.600    25201925.324   103197685.395          14.800                                                                                                  
G14  23170818.391   121763525.970          40.400    23170818.281    94880667.637          27.100    23170817.957    94880658.372          41.800    23170822.438    90927298.911          47.000  
G22  24499271.859   128744612.245          36.800    24499268.117   100320501.778          20.600                                                                                                  
E01  27663782.219   145374161.515          37.600    27663780.543   111390594.081          42.000    27663781.348   108558627.589          42.400    27663781.293   109974612.438          45.700  
E26  26331045.695   138370582.942          39.000    26331045.168   106024213.832          42.600    26331045.613   103328683.468          43.100    26331046.516   104676448.748          46.800  
E03  25800371.898   135581899.965          44.000    25800371.414   103887437.873          46.800    25800371.203   101246235.105          47.200    25800372.059   102566838.588          50.300  
E07  27127166.633   142554221.418          40.400    27127166.418   109229857.784          42.400    27127165.727   106452826.979          41.200    27127166.730   107841342.978          45.600  
E21  26287706.789   138142854.522          42.200    26287705.691   105849726.306          45.800    26287705.633   103158634.740          44.500    26287706.270   104504182.623          48.800  
E13  23761307.945   124866553.306          48.600    23761305.828    95676979.276          52.100    23761306.098    93244515.299          53.200    23761306.648    94460747.393          56.000  
E08  22692494.266   119249879.843          48.400    22692491.297    91373282.708          50.600    22692491.402    89050236.171          50.600    22692491.977    90211761.541          54.200  
E27  27348304.633   143716337.730          38.200    27348302.797   110120319.239          41.600    27348303.426   107320651.418          42.700    27348303.898   108720485.433          46.300  
E15  24777257.563   130205453.121          46.200    24777256.953    99767857.389          49.300    24777257.375    97231389.671          49.800    24777257.758    98499626.635          53.000  
> 2021 03 19 12 00 23.0000000  0 24                     
G17  20345254.648   106915122.294          49.800    20345254.156    83310477.145          55.600    20345254.016    83310466.896          50.900                                                  
G03  21940388.359   115297564.620          44.600    21940390.055    89842319.581          36.300    21940390.355    89842295.331          47.100    21940390.844    86098870.450          52.000  
G09  22642774.109   118988619.773          41.600    22642776.523    92718406.552          32.900    22642776.492    92718394.357          44.500    22642775.785    88855130.397          49.000  
G28  22468017.141   118070262.352          42.000    22468015.988    92002812.621          28.700                                                                                                  
G04  22418259.922   117808804.035          43.000    22418261.398    91799052.414          30.600    22418260.906    91799044.158          44.300    22418263.313    87974084.424          48.600  
G06  21970942.867   115458098.919          44.200    21970945.164    89967413.949          47.100    21970945.480    89967394.696          46.700    21970945.105    86218756.087          50.700  
G01  23887549.992   125530096.332          36.400    23887553.637    97815765.965          22.000    23887552.500    97815710.704          39.400    23887551.668    93740065.433          45.200  
J07  37283209.680   195924617.075          38.400    37283209.777   195924611.351          42.300    37283203.922   195924641.287          45.800    37283208.848   152668534.742          47.500    37283211.383   146307346.724          51.800  
J01  37091690.797   194918233.911          45.000    37091691.195   194918202.165          47.900    37091688.621   194918184.398          44.700    37091689.523   151884324.591          46.100    37091692.441   145555813.143          50.700  
J02  37498009.602   197053390.737          37.200    37498009.145   197053374.937          41.600    37498005.738   197053357.330          38.500    37498009.023   153548086.134          38.800    37498011.730   147150250.536          44.900  
J03  38335465.594   201454278.068          48.000    38335465.578   201454266.317          51.500    38335461.762   201454245.949          49.000    38335464.535   156977355.302          52.600    38335467.605   150436632.668          55.100  
G19  20547479.977   107977766.922          47.200    20547477.152    84138542.020          41.200                                                                                                  
G02  25201522.281   132434910.354          31.600    25201520.902   103196029.685          15.600                                                                                                  
G14  23171431.922   121766749.645          40.000    23171431.563    94883179.598          26.700    23171431.547    94883170.340          42.300    23171435.902    90929706.215          47.200  
G22  24499886.227   128747841.284          37.000    24499882.531   100323017.921          20.400                                                                                                  
E01  27663692.086   145373687.111          37.600    27663690.418   111390230.580          41.900    27663691.148   108558273.326          42.700    27663690.992   109974253.549          45.700  
E26  26330691.039   138368717.722          38.800    26330690.289   106022784.659          42.500    26330690.594   103327290.647          42.900    26330691.566   104675037.755          46.800  
E03  25800554.344   135582856.206          44.200    25800553.238   103888170.554          46.800    25800553.141   101246949.152          47.200    25800554.016   102567561.955          50.200  
E07  27126586.445   142551171.166          40.400    27126586.078   109227520.629          42.300    27126585.125   106450549.197          41.100    27126586.289   107839035.512          45.500  
E21  26288027.094   138144538.685          41.800    26288026.117   105851016.768          45.700    26288026.105   103159892.388          44.600    26288026.754   104505456.677          48.800  
E13  23761190.492   124865936.609          48.000    23761188.508    95676506.738          52.000    23761188.723    93244054.792          53.000    23761189.297    94460280.867          55.700  
E08  22692172.992   119248192.133          48.200    22692170.094    91371989.534          50.600    22692170.469    89048975.881          50.300    22692170.816    90210484.810          53.900  
E27  27348840.164   143719154.096          38.000    27348838.703   110122477.236          41.500    27348839.453   107322754.564          42.700    27348839.840   108722616.004          46.300  
E15  24777475.242   130206597.850          46.200    24777474.777    99768734.522          48.800    24777475.109    97232244.493          49.800    24777475.590    98500492.614          52.500  
> 2021 03 19 12 00 24.0000000  0 24                     
G17  20345171.352   106914684.342          49.200    20345170.805    83310135.881          55.700    20345170.734    83310125.625          50.800                                                  
G03  21940907.055   115300290.422          44.600    21940908.867    89844443.589          36.000    21940908.945    89844419.339          47.000    21940909.434    86100905.953          52.300  
G09  22642254.859   118985889.759          41.600    22642257.098    92716279.271          32.700    22642256.438    92716267.030          44.500    22642256.238    88853091.731          49.400  
G28  22468518.922   118072902.047          41.600    22468518.352    92004869.529          28.900                                                                                                  
G04  22418057.547   117807739.223          43.200    22418058.809    91798222.694          30.700    22418058.242    91798214.447          44.400    22418060.723    87973289.276          48.600  
G06  21970629.125   115456450.210          44.200    21970631.496    89966129.239          46.800    21970631.852    89966109.988          46.300    21970631.453    86217524.910          50.900  
G01  23888041.258   125532675.640          36.600    23888044.359    97817775.805          21.700    23888043.887    97817720.542          39.000    23888042.379    93741991.541          45.400  
J07  37283209.531   195924618.457          38.200    37283209.922   195924612.721          42.300    37283203.949   195924642.678          45.800    37283208.801   152668535.818          47.400    37283211.676   146307347.759          51.700  
J01  37091721.898   194918396.620          45.400    37091722.160   194918364.864          47.900    37091719.633   194918347.106          44.300    37091720.383   151884451.358          45.800    37091723.402   145555934.632          50.700  
J02  37498107.047   197053902.413          37.200    37498106.598   197053886.663          41.400    37498103.000   197053869.013          38.100    37498106.301   153548484.878          38.400    37498109.156   147150632.656          45.000  
J03  38335344.992   201453644.769          47.600    38335345.023   201453633.024          51.800    38335341.309   201453612.649          48.500    38335344.008   156976861.822          52.700    38335347.230   150436159.752          55.100  
G19  20547151.242   107976040.743          47.000    20547148.625    84137196.946          41.500                                                                                                  
G02  25201118.250   132432785.672          32.200    25201116.547   103194374.035          15.600                                                                                                  
G14  23172044.711   121769973.481          39.800    23172045.035    94885691.683          27.300    23172044.715    94885682.418          42.000    23172049.441    90932113.620          47.400  
G22  24500500.141   128751070.361          37.200    24500497.164   100325534.100          20.600                                                                                                  
E01  27663601.742   145373213.156          38.000    27663600.309   111389867.426          42.200    27663600.734   108557919.402          42.700    27663600.801   109973895.014          46.100  
E26  26330336.031   138366852.501          39.400    26330335.414   106021355.466          42.700    26330335.656   103325897.790          42.800    26330336.609   104673626.732          46.600  
E03  25800736.367   135583812.835          44.000    25800735.434   103888903.578          47.000    25800735.191   101247663.531          47.200    25800736.059   102568285.662          50.200  
E07  27126005.875   142548120.990          40.000    27126005.688   109225183.433          42.400    27126004.855   106448271.446          41.400    27126005.898   107836728.049          45.600  
E21  26288347.672   138146223.146          42.000    26288346.715   105852307.470          45.900    26288346.617   103161150.285          44.700    26288347.285   104506730.975          48.900  
E13  23761073.445   124865319.981          48.400    23761071.137    95676034.252          52.300    23761071.363    93243594.314          52.700    23761071.953    94459814.389          55.800  
E08  22691852.016   119246504.806          48.000    22691848.949    91370696.649          50.900    22691849.250    89047715.862          50.400    22691849.723    90209208.356          53.700  
E27  27349376.305   143721970.433          38.000    27349374.754   110124635.223          42.000    27349375.348   107324857.668          42.700    27349375.777   108724746.550          46.400  
E15  24777693.141   130207742.659          46.400    24777692.625    99769611.697          48.900    24777693.004    97233099.383          49.300    24777693.449    98501358.648          52.500  
> 2021 03 19 12 00 25.0000000  0 24                     
G17  20345088.156   106914246.834          49.600    20345087.496    83309794.966          55.800    20345087.328    83309784.716          51.300                                                  
G03  21941425.500   115303016.495          45.200    21941427.449    89846567.792          36.000    21941427.551    89846543.545          46.900    21941428.188    86102941.666          52.100  
G09  22641734.797   118983160.028          42.000    22641737.555    92714152.210          32.300    22641737.293    92714139.959          44.500    22641736.859    88851053.287          49.500  
G28  22469021.508   118075541.975          41.600    22469020.645    92006926.614          29.400                                                                                                  
G04  22417854.828   117806674.981          42.800    22417856.246    91797393.421          30.900    22417855.523    91797385.154          44.700    22417858.172    87972494.546          48.500  
G06  21970315.414   115454801.647          43.600    21970317.875    89964844.642          47.000    21970317.992    89964825.391          46.400    21970317.605    86216293.839          50.800  
G01  23888531.219   125535254.965          36.400    23888535.191    97819785.668          21.800    23888535.148    97819730.389          39.000    23888533.309    93743917.665          45.500  
J07  37283209.719   195924619.834          37.800    37283209.930   195924614.090          42.200    37283204.379   195924644.048          45.800    37283209.148   152668536.883          47.400    37283211.984   146307348.776          51.500  
J01  37091752.938   194918559.375          44.800    37091753.203   194918527.626          47.900    37091750.594   194918509.869          44.200    37091751.148   151884578.195          46.000    37091754.414   145556056.185          50.700  
J02  37498203.727   197054414.122          37.800    37498204.035   197054398.393          41.600    37498200.250   197054380.723          38.200    37498203.367   153548883.610          38.700    37498206.355   147151014.797          45.200  
J03  38335224.336   201453011.430          46.800    38335224.598   201452999.686          51.600    38335220.980   201452979.318          48.600    38335223.602   156976368.311          52.300    38335226.586   150435686.807          55.100  
G19  20546822.500   107974315.024          46.600    20546820.254    84135852.231          41.400                                                                                                  
G02  25200712.938   132430660.940          31.600    25200712.223   103192718.433          15.600                                                                                                  
G14  23172658.117   121773197.421          39.200    23172658.605    94888203.846          28.700    23172658.539    94888194.599          42.200    23172662.863    90934521.141          47.100  
G22  24501114.789   128754299.455          37.000    24501111.672   100328050.277          20.600                                                                                                  
E01  27663511.563   145372739.632          37.200    27663509.977   111389504.615          42.400    27663510.551   108557565.807          42.700    27663510.711   109973536.808          46.300  
E26  26329980.938   138364987.240          38.200    26329980.402   106019926.239          43.200    26329980.641   103324504.892          42.900    26329981.691   104672215.670          46.900  
E03  25800918.461   135584769.917          44.200    25800917.563   103889636.904          47.000    25800917.391   101248378.229          47.300    25800918.191   102569009.668          50.300  
E07  27125425.070   142545070.790          39.400    27125425.160   109222846.287          42.500    27125424.270   106445993.696          41.500    27125425.434   107834420.595          45.500  
E21  26288668.250   138147907.951          41.600    26288667.391   105853598.412          46.000    26288667.313   103162408.407          45.100    26288667.902   104508005.510          49.400  
E13  23760956.023   124864703.425          48.600    23760953.730    95675561.829          52.600    23760954.047    93243133.906          52.700    23760954.609    94459347.971          55.700  
E08  22691530.859   119244817.851          48.000    22691527.961    91369404.038          51.200    22691528.250    89046456.114          50.400    22691528.711    90207932.185          54.100  
E27  27349912.211   143724786.717          38.400    27349910.785   110126793.135          42.100    27349911.344   107326960.721          43.000    27349911.699   108726877.028          46.300  
E15  24777910.914   130208887.562          46.400    24777910.469    99770488.965          49.400    24777910.934    97233954.346          49.200    24777911.309    98502224.765          52.900  
> 2021 03 19 12 00 26.0000000  0 24                     
G17  20345004.992   106913809.828          49.800    20345004.309    83309454.443          56.200    20345004.223    83309444.194          51.200                                                  
G03  21941944.328   115305742.867          45.600    21941946.320    89848692.238          36.400    21941946.523    89848667.982          46.900    21941946.879    86104977.587          52.200  
G09  22641216.492   118980430.573          42.000    22641218.184    92712025.357          32.600    22641217.801    92712013.151          44.500    22641217.477    88849015.072          49.600  
G28  22469523.938   118078182.261          42.200    22469523.020    92008983.978          28.500                                                                                                  
G04  22417652.422   117805611.303          43.000    22417653.813    91796564.571          31.300    22417652.996    91796556.323          44.700    22417655.605    87971700.231          48.700  
G06  21970001.625   115453153.208          44.600    21970004.156    89963560.146          46.900    21970004.551    89963540.886          46.100    21970003.980    86215062.854          51.200  
G01  23889022.156   125537834.315          36.000    23889026.156    97821795.554          21.700    23889025.543    97821740.303          38.600    23889023.973    93745843.809          45.300  
J07  37283210.469   195924621.227          37.800    37283210.461   195924615.468          42.300    37283204.688   195924645.448          45.900    37283209.219   152668537.956          47.500    37283212.184   146307349.805          51.500  
J01  37091783.625   194918722.236          45.000    37091784.063   194918690.489          48.000    37091781.730   194918672.725          44.300    37091782.129   151884705.115          46.000    37091785.441   145556177.807          50.300  
J02  37498301.633   197054925.887          36.800    37498301.477   197054910.135          41.400    37498297.703   197054892.480          38.300    37498301.348   153549282.376          38.300    37498303.934   147151396.930          44.800  
J03  38335103.867   201452378.063          47.600    38335104.109   201452366.313          51.500    38335100.348   201452345.944          48.900    38335103.090   156975874.775          52.100    38335106.090   150435213.830          55.200  
G19  20546494.766   107972589.768          46.800    20546491.973    84134507.877          41.400                                                                                                  
G02  25200309.219   132428536.214          32.200    25200307.859   103191062.839          14.800                                                                                                  
G14  23173271.969   121776421.591          39.600    23173272.293    94890716.175          27.000    23173272.199    94890706.914          42.100    23173276.449    90936928.759          47.300  
G22  24501729.484   128757528.547          37.000    24501726.203   100330566.452          20.600                                                                                                  
E01  27663421.789   145372266.638          37.600    27663419.848   111389142.160          42.700    27663420.906   108557212.553          42.700    27663420.699   109973178.957          46.500  
E26  26329626.039   138363121.987          38.400    26329625.531   106018496.981          43.200    26329625.887   103323111.979          43.000    26329626.742   104670804.585          46.800  
E03  25801100.664   135585727.458          44.400    25801099.863   103890370.609          47.000    25801099.621   101249093.268          47.200    25801100.410   102569734.045          50.400  
E07  27124844.969   142542020.644          39.800    27124844.773   109220509.148          43.000    27124843.879   106443715.983          41.500    27124845.012   107832113.176          45.600  
E21  26288988.859   138149593.091          42.200    26288988.133   105854889.628          45.900    26288987.727   103163666.786          44.900    26288988.578   104509280.312          49.500  
E13  23760838.633   124864086.958          48.200    23760836.500    95675089.478          52.800    23760836.715    93242673.557          52.600    23760837.313    94458881.621          55.700  
E08  22691209.813   119243131.256          48.000    22691206.988    91368111.727          51.200    22691207.371    89045196.660          50.700    22691207.766    90206656.296          54.200  
E27  27350448.016   143727602.921          38.600    27350446.730   110128951.044          42.100    27350447.348   107329063.780          42.800    27350447.613   108729007.512          46.300  
E15  24778128.984   130210032.570          46.200    24778128.426    99771366.307          49.500    24778128.656    97234809.381          49.700    24778129.211    98503090.949          53.200  
> 2021 03 19 12 00 27.0000000  0 24                     
G17  20344921.891   106913373.317          49.600    20344921.328    83309114.305          55.800    20344921.301    83309104.049          51.000                                                  
G03  21942463.391   115308469.575          44.800    21942465.148    89850816.946          36.600    21942465.203    89850792.692          46.700    21942465.840    86107013.750          52.100  
G09  22640696.484   118977701.483          41.600    22640698.766    92709898.796          32.600    22640698.508    92709886.575          44.700    22640698.043    88846977.112          49.500  
G28  22470026.313   118080822.812          42.600    22470025.504    92011041.544          29.000                                                                                                  
G04  22417449.797   117804548.189          42.800    22417451.371    91795736.166          31.000    22417451.281    91795727.927          45.000    22417453.340    87970906.355          48.600  
G06  21969688.094   115451504.905          44.400    21969690.555    89962275.752          47.000    21969690.828    89962256.515          46.300    21969690.363    86213831.995          51.200  
G01  23889513.297   125540413.703          35.800    23889517.031    97823805.492          22.000    23889516.793    97823750.238          38.000    23889514.887    93747769.992          45.200  
J07  37283210.625   195924622.604          38.200    37283210.801   195924616.844          42.300    37283204.953   195924646.824          45.900    37283209.613   152668539.037          47.400    37283212.461   146307350.851          51.600  
J01  37091814.609   194918885.221          44.600    37091814.996   194918853.464          48.000    37091812.824   194918835.707          44.400    37091813.332   151884832.091          46.400    37091816.457   145556299.495          50.300  
J02  37498398.969   197055437.646          37.000    37498398.852   197055421.889          41.500    37498394.887   197055404.247          38.300    37498398.633   153549681.128          38.300    37498401.227   147151779.095          44.900  
J03  38334983.102   201451744.678          47.400    38334983.469   201451732.919          51.600    38334979.777   201451712.558          49.400    38334982.734   156975381.230          52.100    38334985.566   150434740.850          55.200  
G19  20546165.977   107970864.987          46.600    20546163.852    84133163.887          41.400                                                                                                  
G02  25199904.414   132426411.578          31.800    25199903.539   103189407.268          13.900                                                                                                  
G14  23173885.891   121779645.863          39.400    23173885.902    94893228.602          27.000    23173885.602    94893219.336          42.300    23173889.953    90939336.521          47.300  
G22  24502343.516   128760757.688          37.000    24502340.492   100333082.670          20.400                                                                                                  
E01  27663331.828   145371794.066          38.000    27663330.172   111388780.052          42.400    27663330.883   108556859.676          42.600    27663330.773   109972821.475          46.400  
E26  26329270.961   138361256.685          38.400    26329270.625   106017067.742          43.200    26329270.953   103321719.084          43.100    26329271.809   104669393.525          46.500  
E03  25801283.047   135586685.407          44.400    25801282.125   103891104.632          47.300    25801281.945   101249808.636          47.300    25801282.715   102570458.733          50.500  
E07  27124264.664   142538970.488          39.000    27124264.137   109218172.042          42.800    27124263.453   106441438.303          41.500    27124264.602   107829805.776          46.000  
E21  26289309.953   138151278.583          42.200    26289309.016   105856181.080          45.500    26289308.430   103164925.417          45.000    26289309.324   104510555.355          49.200  
E13  23760721.359   124863470.570          48.000    23760719.148    95674617.176          52.700    23760719.445    93242213.258          52.500    23760720.020    94458415.320          55.700  
E08  22690889.133   119241445.088          47.600    22690886.215    91366819.718          51.200    22690886.473    89043937.496          50.700    22690886.887    90205380.716          54.300  
E27  27350983.891   143730419.159          39.400    27350982.559   110131108.914          42.200    27350983.027   107331166.789          42.500    27350983.527   108731137.963          46.100  
E15  24778346.891   130211177.687          46.600    24778346.336    99772243.747          49.700    24778346.566    97235664.510          50.000    24778347.121    98503957.229          53.400  
> 2021 03 19 12 00 28.0000000  0 24                     
G17  20344838.961   106912937.282          49.600    20344838.320    83308774.540          56.100    20344838.316    83308764.283          51.200                                                  
G03  21942982.391   115311196.531          45.200    21942984.184    89852941.847          36.100    21942984.328    89852917.611          46.900    21942984.715    86109050.133          52.200  
G09  22640177.047   118974972.734          41.800    22640179.387    92707772.503          31.600    22640178.910    92707760.251          44.700    22640178.910    88844939.395          49.400  
G28  22470528.898   118083463.635          42.400    22470528.168    92013099.333          28.900                                                                                                  
G04  22417248.172   117803485.651          42.800    22417249.180    91794908.220          31.600    22417249.020    91794899.980          45.100    22417251.207    87970112.912          48.600  
G06  21969374.398   115449856.757          43.600    21969377.031    89960991.483          46.900    21969377.000    89960972.224          46.800    21969376.789    86212601.232          51.100  
G01  23890003.984   125542993.117          36.000    23890007.934    97825815.428          22.500    23890007.590    97825760.167          38.300    23890005.762    93749696.183          45.100  
J07  37283211.188   195924623.976          37.800    37283210.813   195924618.255          42.300    37283205.535   195924648.190          45.800    37283209.879   152668540.128          47.500    37283212.715   146307351.889          51.900  
J01  37091845.531   194919048.277          44.200    37091846.082   194919016.521          48.000    37091843.922   194918998.771          44.000    37091844.324   151884959.150          46.100    37091847.496   145556421.265          50.300  
J02  37498496.016   197055949.376          37.000    37498496.148   197055933.661          41.400    37498492.324   197055915.976          38.200    37498495.699   153550079.929          38.700    37498498.703   147152161.253          45.000  
J03  38334862.750   201451111.269          47.200    38334862.883   201451099.510          51.500    38334859.199   201451079.149          48.700    38334862.051   156974887.662          52.500    38334865.020   150434267.838          55.200  
G19  20545838.414   107969140.658          46.800    20545835.676    84131820.253          41.400                                                                                                  
G02  25199500.000   132424286.814          32.200    25199499.430   103187751.588          15.600                                                                                                  
G14  23174499.414   121782870.317          39.400    23174499.418    94895741.159          26.800    23174499.355    94895731.918          42.300    23174503.566    90941744.389          47.500  
G22  24502957.984   128763986.870          36.600    24502954.938   100335598.909          20.400                                                                                                  
E01  27663241.844   145371321.989          37.400    27663240.418   111388418.302          42.600    27663241.219   108556507.133          42.800    27663240.922   109972464.320          46.600  
E26  26328916.008   138359391.362          38.600    26328915.473   106015638.497          43.000    26328915.809   103320326.165          43.400    26328916.828   104667982.435          46.700  
E03  25801465.250   135587643.834          44.400    25801464.367   103891839.002          47.200    25801464.242   101250524.354          46.700    25801465.066   102571183.782          50.300  
E07  27123684.281   142535920.352          39.200    27123684.020   109215834.958          43.000    27123683.023   106439160.621          41.800    27123684.180   107827498.396          45.900  
E21  26289630.406   138152964.377          42.400    26289629.746   105857472.820          45.700    26289629.363   103166184.299          45.000    26289630.121   104511830.666          49.400  
E13  23760604.141   124862854.283          47.800    23760601.922    95674144.948          52.700    23760602.199    93241753.046          52.700    23760602.754    94457949.101          56.000  
E08  22690568.148   119239759.290          47.600    22690565.316    91365528.003          51.000    22690565.629    89042678.626          50.700    22690566.082    90204105.414          54.600  
E27  27351520.016   143733235.326          38.600    27351518.340   110133266.767          41.600    27351518.922   107333269.776          42.500    27351519.406   108733268.376          46.100  
E15  24778564.961   130212322.927          46.000    24778564.305    99773121.260          49.700    24778564.570    97236519.712          50.000    24778565.066    98504823.587          53.600  
> 2021 03 19 12 00 29.0000000  0 24                     
G17  20344755.953   106912501.755          50.000    20344755.402    83308435.168          56.000    20344755.332    83308424.919          51.300                                                  
G03  21943500.922   115313923.822          45.000    21943503.238    89855067.011          35.900    21943503.543    89855042.763          46.500    21943503.672    86111086.736          52.100  
G09  22639658.156   118972244.250          41.800    22639660.270    92705646.404          32.600    22639659.910    92705634.178          45.200    22639659.699    88842901.898          49.300  
G28  22471031.297   118086104.808          42.600    22471030.785    92015157.389          29.700                                                                                                  
G04  22417045.406   117802423.699          43.000    22417046.895    91794080.727          31.400    22417046.891    91794072.483          45.000    22417049.102    87969319.882          48.800  
G06  21969060.891   115448208.775          43.800    21969063.273    89959707.342          47.000    21969063.617    89959688.081          46.800    21969063.078    86211370.593          51.300  
G01  23890495.047   125545572.605          36.000    23890498.730    97827825.396          22.300    23890498.348    97827770.166          38.700    23890496.723    93751622.428          44.900  
J07  37283211.305   195924625.402          38.000    37283210.961   195924619.656          42.200    37283205.793   195924649.615          45.800    37283210.082   152668541.241          47.600    37283213.004   146307352.952          51.700  
J01  37091876.828   194919211.445          44.400    37091877.141   194919179.686          48.000    37091874.703   194919161.939          44.100    37091875.387   151885086.288          45.900    37091878.465   145556543.113          50.300  
J02  37498593.609   197056461.198          37.000    37498593.410   197056445.448          41.400    37498589.938   197056427.798          37.900    37498593.129   153550478.726          38.700    37498595.891   147152543.441          44.900  
J03  38334742.055   201450477.825          47.400    38334742.391   201450466.074          51.600    38334738.883   201450445.705          48.900    38334741.660   156974394.072          52.700    38334744.477   150433794.828          55.200  
G19  20545510.273   107967416.815          46.600    20545507.789    84130477.006          41.400                                                                                                  
G02  25199096.570   132422162.182          32.000    25199095.074   103186096.084          16.300                                                                                                  
G14  23175113.516   121786094.929          39.600    23175113.016    94898253.848          27.900    23175112.906    94898244.607          42.300    23175117.125    90944152.388          47.700  
G22  24503572.945   128767216.074          36.600    24503569.609   100338115.151          19.600                                                                                                  
E01  27663152.039   145370850.327          37.600    27663150.441   111388056.937          42.300    27663151.457   108556154.955          42.900    27663151.184   109972107.539          46.800  
E26  26328561.102   138357526.053          38.400    26328560.734   106014209.229          43.000    26328561.082   103318933.246          43.300    26328561.871   104666571.339          46.800  
E03  25801647.742   135588602.717          43.600    25801646.887   103892573.740          47.100    25801646.688   101251240.387          47.000    25801647.555   102571909.160          50.800  
E07  27123103.664   142532870.330          39.400    27123103.676   109213497.890          42.800    27123102.484   106436882.978          41.600    27123103.785   107825191.041          46.000  
E21  26289951.359   138154650.531          42.000    26289950.711   105858764.820          45.500    26289950.156   103167443.443          45.000    26289950.973   104513106.238          49.500  
E13  23760486.789   124862238.075          48.000    23760484.688    95673672.799          52.500    23760484.906    93241292.895          52.700    23760485.477    94457482.953          56.000  
E08  22690247.414   119238073.892          48.000    22690244.609    91364236.597          51.000    22690244.859    89041420.053          50.900    22690245.355    90202830.428          54.500  
E27  27352055.672   143736051.460          38.600    27352054.512   110135424.577          41.700    27352054.820   107335372.733          42.400    27352055.305   108735398.759          46.100  
E15  24778782.734   130213468.277          46.000    24778782.398    99773998.867          49.700    24778782.402    97237375.007          49.900    24778783.004    98505690.037          53.500  
> 2021 03 19 12 00 30.0000000  0 24                     
G17  20344673.305   106912066.727          49.800    20344672.750    83308096.182          56.300    20344672.582    83308085.933          51.100                                                  
G03  21944019.914   115316651.424          45.400    21944022.297    89857192.417          36.100    21944022.230    89857168.156          46.400    21944022.773    86113123.582          52.000  
G09  22639139.414   118969516.154          41.600    22639141.051    92703520.615          32.000    22639140.926    92703508.379          45.200    22639140.492    88840864.674          49.300  
G28  22471533.742   118088746.253          41.800    22471533.551    92017215.667          28.000                                                                                                  
G04  22416844.109   117801362.313          42.800    22416845.047    91793253.679          31.500    22416844.887    91793245.439          45.300    22416847.121    87968527.306          49.100  
G06  21968747.180   115446560.933          44.000    21968749.734    89958423.313          47.200    21968750.082    89958404.064          46.700    21968749.594    86210140.071          51.000  
G01  23890985.875   125548152.155          35.400    23890989.473    97829835.413          22.300    23890989.523    97829780.190          38.700    23890987.367    93753548.713          45.100  
J07  37283211.875   195924626.869          38.200    37283210.988   195924621.109          42.100    37283205.855   195924651.082          45.800    37283210.512   152668542.348          47.400    37283213.242   146307354.028          51.900  
J01  37091908.219   194919374.695          44.600    37091907.996   194919342.947          47.900    37091905.809   194919325.182          44.000    37091906.105   151885213.515          45.600    37091909.609   145556665.033          50.300  
J02  37498690.859   197056973.031          37.000    37498691.133   197056957.272          41.300    37498687.387   197056939.631          38.000    37498690.609   153550877.544          39.400    37498693.426   147152925.652          45.000  
J03  38334621.805   201449844.380          47.200    38334621.879   201449832.644          51.600    38334618.371   201449812.268          48.700    38334621.000   156973900.491          52.500    38334623.883   150433321.801          55.200  
G19  20545182.188   107965693.449          47.200    20545179.574    84129134.122          41.600                                                                                                  
G02  25198693.188   132420037.500          32.000    25198690.762   103184440.494          16.300                                                                                                  
G14  23175726.898   121789319.733          39.400    23175726.539    94900766.679          27.800    23175726.973    94900757.434          42.700    23175730.695    90946560.511          47.800  
G22  24504187.820   128770445.393          37.000    24504184.156   100340631.518          19.900                                                                                                  
E01  27663062.063   145370379.178          37.600    27663060.680   111387695.914          42.600    27663061.773   108555803.111          42.900    27663061.539   109971751.120          46.800  
E26  26328206.227   138355660.750          38.800    26328205.770   106012779.972          42.800    26328205.992   103317540.299          42.800    26328206.906   104665160.239          46.700  
E03  25801830.352   135589562.048          43.800    25801829.473   103893308.814          46.800    25801829.090   101251956.781          47.100    25801830.117   102572634.895          51.000  
E07  27122523.320   142529820.314          39.200    27122523.027   109211160.863          43.500    27122522.164   106434605.370          41.800    27122523.402   107822883.720          45.800  
E21  26290272.273   138156337.058          42.400    26290271.664   105860057.064          45.600    26290271.043   103168702.847          45.100    26290271.895   104514382.063          49.500  
E13  23760369.648   124861621.992          48.000    23760367.434    95673200.733          52.700    23760367.637    93240832.830          52.400    23760368.230    94457016.884          55.900  
E08  22689926.875   119236388.901          48.000    22689923.949    91362945.495          51.100    22689924.340    89040161.771          50.800    22689924.711    90201555.732          54.800  
E27  27352591.594   143738867.607          39.000    27352590.004   110137582.390          41.600    27352590.855   107337475.697          42.600    27352591.207   108737529.148          46.200  
E15  24779000.828   130214613.757          46.000    24779000.340    99774876.568          49.500    24779000.395    97238230.402          49.800    24779001.000    98506556.589          53.700  
> 2021 03 19 12 00 31.0000000  0 24                     
G17  20344590.570   106911632.142          50.000    20344589.969    83307757.546          56.200    20344589.758    83307747.289          51.100                                                  
G03  21944539.664   115319379.263          44.800    21944541.438    89859318.006          36.200    21944541.480    89859293.763          46.500    21944541.789    86115160.608          52.100  
G09  22638619.883   118966788.291          41.800    22638621.852    92701395.014          32.100    22638621.668    92701382.771          45.200    22638621.512    88838827.645          49.300  
G28  22472036.461   118091387.957          42.600    22472036.188    92019274.123          28.700                                                                                                  
G04  22416641.922   117800301.482          42.400    22416643.258    91792427.051          31.200    22416643.051    91792418.812          45.100    22416645.238    87967735.122          49.000  
G06  21968433.805   115444913.184          43.600    21968436.262    89957139.349          46.900    21968436.684    89957120.098          46.900    21968436.027    86208909.602          50.800  
G01  23891477.023   125550731.699          35.800    23891480.199    97831845.454          22.000    23891480.297    97831790.224          38.800    23891478.188    93755474.973          45.000  
J07  37283211.703   195924628.245          37.600    37283211.645   195924622.481          42.400    37283206.297   195924652.466          46.300    37283210.480   152668543.436          47.900    37283213.664   146307355.066          51.800  
J01  37091938.813   194919538.024          44.400    37091939.328   194919506.277          47.900    37091936.813   194919488.519          44.600    37091937.414   151885340.783          45.700    37091940.637   145556786.997          50.300  
J02  37498788.438   197057484.837          36.800    37498788.527   197057469.088          41.400    37498785.039   197057451.438          37.800    37498787.730   153551276.357          39.200    37498790.805   147153307.841          44.500  
J03  38334501.008   201449210.871          47.400    38334501.336   201449199.119          51.500    38334497.703   201449178.751          49.200    38334500.531   156973406.832          52.100    38334503.398   150432848.717          55.400  
G19  20544854.414   107963970.494          47.400    20544851.820    84127791.559          41.400                                                                                                  
G02  25198288.008   132417912.828          32.400    25198286.445   103182784.867          16.300                                                                                                  
G14  23176340.914   121792544.652          39.600    23176340.184    94903279.601          27.900    23176340.824    94903270.351          43.000    23176344.680    90948968.720          47.900  
G22  24504801.961   128773674.618          36.400    24504798.488   100343147.777          20.100                                                                                                  
E01  27662972.656   145369908.425          37.800    27662971.332   111387335.219          42.200    27662972.102   108555451.590          43.000    27662971.984   109971395.009          46.800  
E26  26327851.305   138353795.379          39.000    26327850.914   106011350.642          42.800    26327850.961   103316147.323          43.100    26327851.957   104663749.089          46.600  
E03  25802013.125   135590521.810          43.600    25802012.207   103894044.214          46.800    25802011.895   101252673.484          47.000    25802012.746   102573360.951          50.700  
E07  27121942.672   142526770.280          39.400    27121942.602   109208823.815          42.700    27121941.930   106432327.743          41.400    27121943.012   107820576.379          45.600  
E21  26290593.219   138158023.881          42.000    26290592.758   105861349.564          45.800    26290592.234   103169962.483          44.800    26290592.879   104515658.127          49.100  
E13  23760252.461   124861005.940          48.200    23760250.215    95672728.694          52.500    23760250.398    93240372.792          52.400    23760251.016    94456550.845          56.000  
E08  22689606.305   119234704.249          48.000    22689603.320    91361654.653          51.200    22689603.754    89038903.754          51.100    22689604.145    90200281.307          54.500  
E27  27353127.500   143741683.638          38.600    27353125.957   110139740.146          41.700    27353126.934   107339578.589          42.400    27353127.063   108739659.479          46.100  
E15  24779218.711   130215759.283          46.200    24779218.172    99775754.319          49.500    24779218.398    97239085.823          49.400    24779218.977    98507423.173          53.500  
> 2021 03 19 12 00 32.0000000  0 24                     
G17  20344507.969   106911198.031          49.800    20344507.391    83307419.274          56.100    20344507.156    83307409.018          51.000                                                  
G03  21945058.516   115322107.417          45.000    21945060.484    89861443.836          36.400    21945060.523    89861419.574          46.300    21945060.914    86117197.852          52.200  
G09  22638100.617   118964060.762          41.600    22638102.836    92699269.663          31.600    22638102.949    92699257.432          44.600    22638102.465    88836790.842          49.200  
G28  22472539.438   118094029.907          42.200    22472538.863    92021332.790          28.300                                                                                                  
G04  22416440.352   117799241.213          42.800    22416441.727    91791600.869          30.500    22416440.965    91791592.623          45.000    22416443.488    87966943.360          48.800  
G06  21968119.953   115443265.585          44.200    21968122.742    89955855.504          47.000    21968122.816    89955836.258          46.700    21968122.516    86207679.245          50.800  
G01  23891967.516   125553311.244          35.600    23891971.047    97833855.517          22.200    23891970.398    97833800.272          38.900    23891969.121    93757401.272          45.200  
J07  37283211.930   195924629.646          38.600    37283211.965   195924623.913          42.400    37283206.414   195924653.867          46.100    37283210.676   152668544.530          47.800    37283213.793   146307356.112          51.900  
J01  37091969.922   194919701.429          44.800    37091970.410   194919669.688          47.900    37091967.941   194919651.916          44.500    37091968.637   151885468.117          46.000    37091971.754   145556909.017          50.600  
J02  37498885.547   197057996.624          36.800    37498885.656   197057980.880          41.300    37498882.535   197057963.218          37.900    37498885.398   153551675.155          39.600    37498888.371   147153690.036          44.300  
J03  38334380.836   201448577.316          47.400    38334380.746   201448565.580          51.500    38334376.918   201448545.197          49.500    38334379.930   156972913.163          52.200    38334382.855   150432375.615          55.300  
G19  20544526.570   107962247.987          47.000    20544523.953    84126449.345          41.500                                                                                                  
G02  25197883.305   132415788.167          32.600    25197882.137   103181129.259          16.300                                                                                                  
G14  23176954.031   121795769.723          39.600    23176953.863    94905792.641          25.800    23176953.816    94905783.368          42.900    23176958.184    90951377.046          48.000  
G22  24505416.695   128776903.921          36.200    24505412.961   100345664.117          19.900                                                                                                  
E01  27662883.219   145369438.179          37.800    27662881.563   111386974.896          42.500    27662882.789   108555100.394          42.800    27662882.465   109971039.253          46.700  
E26  26327496.102   138351929.974          38.800    26327495.797   106009921.316          42.700    26327495.965   103314754.334          43.300    26327496.984   104662337.930          46.500  
E03  25802195.867   135591481.985          43.200    25802195.004   103894779.926          46.700    25802194.586   101253390.499          47.100    25802195.488   102574087.312          50.600  
E07  27121362.547   142523720.244          39.000    27121362.387   109206486.789          42.800    27121361.355   106430050.149          41.300    27121362.625   107818269.073          46.000  
E21  26290914.039   138159710.988          42.200    26290913.762   105862642.307          45.700    26290913.227   103171222.369          45.000    26290913.934   104516934.443          49.300  
E13  23760135.203   124860389.963          48.400    23760133.035    95672256.713          52.400    23760133.246    93239912.810          52.400    23760133.816    94456084.865          55.900  
E08  22689285.969   119233019.967          48.000    22689282.930    91360364.106          50.800    22689283.141    89037646.017          51.100    22689283.629    90199007.164          54.400  
E27  27353663.242   143744499.645          38.800    27353661.758   110141897.871          41.400    27353662.531   107341681.425          42.300    27353662.949   108741789.756          45.900  
E15  24779436.836   130216904.929          46.000    24779436.219    99776632.147          49.400    24779436.402    97239941.329          49.800    24779436.977    98508289.839          53.200  
> 2021 03 19 12 00 33.0000000  0 24                     
G17  20344425.625   106910764.447          50.200    20344424.855    83307081.421          56.200    20344424.734    83307071.173          50.900                                                  
G03  21945578.047   115324835.863          44.400    21945579.488    89863569.894          36.400    21945580.063    89863545.655          46.300    21945580.027    86119235.346          52.000  
G09  22637581.961   118961333.595          42.000    22637583.805    92697144.594          32.400    22637583.684    92697132.350          44.900    22637583.402    88834754.320          49.200  
G28  22473042.250   118096672.215          42.200    22473041.598    92023391.732          28.500                                                                                                  
G04  22416238.422   117798181.561          43.200    22416239.953    91790775.171          30.800    22416239.445    91790766.909          44.900    22416241.832    87966152.049          49.100  
G06  21967807.227   115441618.167          44.400    21967809.273    89954571.806          47.000    21967809.613    89954552.548          46.700    21967809.039    86206449.032          51.000  
G01  23892457.664   125555890.906          36.400    23892462.063    97835865.633          22.600    23892461.484    97835810.347          38.900    23892459.871    93759327.626          45.200  
J07  37283212.461   195924631.114          38.200    37283212.078   195924625.349          42.300    37283206.285   195924655.334          45.800    37283211.188   152668545.656          47.900    37283214.074   146307357.183          51.600  
J01  37092001.141   194919864.986          44.600    37092001.230   194919833.237          47.900    37091999.203   194919815.480          44.500    37091999.578   151885595.562          46.000    37092002.914   145557031.149          50.400  
J02  37498983.500   197058508.490          36.800    37498983.281   197058492.743          41.300    37498979.512   197058475.090          38.000    37498982.578   153552074.021          39.400    37498985.820   147154072.263          44.600  
J03  38334259.711   201447943.788          47.200    38334260.289   201447932.037          51.600    38334256.570   201447911.668          49.800    38334259.398   156972419.503          52.400    38334262.262   150431902.523          55.600  
G19  20544198.695   107960526.006          46.800    20544196.285    84125107.534          41.200                                                                                                  
G02  25197478.945   132413663.477          32.400    25197477.695   103179473.698          15.600                                                                                                  
G14  23177567.984   121798994.950          39.600    23177567.703    94908305.800          26.700    23177567.418    94908296.566          42.800    23177571.887    90953785.518          47.800  
G22  24506030.695   128780133.274          37.000    24506027.473   100348180.524          20.100                                                                                                  
E01  27662793.906   145368968.393          37.800    27662792.473   111386614.947          42.400    27662793.184   108554749.603          42.700    27662793.074   109970683.879          46.400  
E26  26327140.961   138350064.586          38.400    26327140.832   106008491.995          42.900    26327140.992   103313361.350          43.000    26327141.957   104660926.781          46.600  
E03  25802378.625   135592442.659          43.600    25802377.664   103895516.037          46.900    25802377.301   101254107.884          46.900    25802378.266   102574814.066          50.500  
E07  27120781.992   142520670.301          39.000    27120781.895   109204149.839          43.000    27120780.926   106427772.588          41.400    27120782.246   107815961.820          45.900  
E21  26291235.234   138161398.494          41.800    26291234.895   105863935.330          45.600    26291234.262   103172482.512          44.800    26291235.074   104518211.021          49.200  
E13  23760018.047   124859774.109          48.200    23760015.824    95671784.834          52.400    23760016.012    93239452.925          52.300    23760016.625    94455618.980          55.800  
E08  22688965.383   119231336.116          48.400    22688962.363    91359073.890          50.800    22688962.859    89036388.600          51.300    22688963.195    90197733.348          54.400  
E27  27354198.836   143747315.651          39.000    27354197.871   110144055.589          41.400    27354198.680   107343784.316          41.800    27354198.789   108743920.056          46.000  
E15  24779654.641   130218050.720          46.000    24779654.344    99777510.086          49.400    24779654.434    97240796.953          50.300    24779655.031    98509156.623          53.700  
> 2021 03 19 12 00 34.0000000  0 24                     
G17  20344343.180   106910331.273          50.600    20344342.434    83306743.881          56.200    20344342.250    83306733.640          50.900                                                  
G03  21946097.125   115327564.583          44.800    21946098.992    89865696.174          36.400    21946098.957    89865671.924          46.200    21946099.211    86121273.014          52.200  
G09  22637063.188   118958606.665          42.000    22637064.895    92695019.718          32.200    22637064.609    92695007.466          44.700    22637064.672    88832717.982          49.200  
G28  22473545.234   118099314.747          42.400    22473544.418    92025450.856          28.100                                                                                                  
G04  22416037.008   117797122.370          43.200    22416038.422    91789949.823          30.500    22416038.027    91789941.569          45.000    22416040.301    87965361.109          48.800  
G06  21967493.266   115439970.810          44.200    21967495.852    89953288.148          47.200    21967495.691    89953268.889          46.800    21967495.559    86205218.859          50.900  
G01  23892949.219   125558470.452          36.000    23892952.969    97837875.666          22.300    23892952.766    97837820.443          39.100    23892950.914    93761253.947          45.500  
J07  37283212.547   195924632.460          38.200    37283212.383   195924626.721          42.300    37283206.996   195924656.673          45.800    37283211.219   152668546.736          48.100    37283214.313   146307358.224          51.900  
J01  37092032.078   194920028.555          44.400    37092032.621   194919996.787          47.900    37092030.383   194919979.041          44.500    37092031.133   151885723.012          45.700    37092034.059   145557153.294          50.300  
J02  37499080.031   197059020.291          37.400    37499080.605   197059004.561          41.400    37499077.020   197058986.892          37.900    37499080.234   153552472.852          39.500    37499083.137   147154454.452          44.900  
J03  38334139.648   201447310.156          47.400    38334139.613   201447298.404          51.500    38334136.277   201447278.036          49.600    38334138.836   156971925.761          52.100    38334141.719   150431429.357          55.600  
G19  20543871.266   107958804.396          46.800    20543868.672    84123766.022          41.600                                                                                                  
G02  25197075.227   132411538.779          32.200    25197073.320   103177818.020          14.800                                                                                                  
G14  23178181.367   121802220.294          39.800    23178181.477    94910819.054          26.400    23178181.176    94910809.823          42.700    23178185.621    90956194.052          47.700  
G22  24506645.578   128783362.613          36.000    24506642.008   100350696.879          19.300                                                                                                  
E01  27662704.695   145368499.029          37.600    27662703.039   111386255.318          42.400    27662703.922   108554399.118          43.100    27662703.770   109970328.818          46.400  
E26  26326785.898   138348199.121          38.400    26326785.805   106007062.593          43.100    26326786.164   103311968.314          42.700    26326787.035   104659515.552          46.500  
E03  25802561.727   135593403.706          44.200    25802560.504   103896252.415          46.900    25802560.219   101254825.543          47.100    25802561.160   102575541.079          50.300  
E07  27120201.688   142517620.329          39.000    27120201.375   109201812.829          43.100    27120200.660   106425495.006          41.500    27120201.859   107813654.510          46.000  
E21  26291556.414   138163086.274          42.400    26291556.160   105865228.551          45.800    26291555.395   103173742.870          44.900    26291556.242   104519487.808          49.100  
E13  23759900.875   124859158.294          48.200    23759898.699    95671312.963          52.700    23759898.828    93238993.058          52.400    23759899.422    94455153.113          55.700  
E08  22688645.078   119229652.584          48.600    22688642.086    91357783.914          51.100    22688642.492    89035131.417          51.200    22688642.848    90196459.766          54.800  
E27  27354734.805   143750131.558          38.800    27354733.664   110146213.226          41.400    27354734.438   107345887.096          41.900    27354734.668   108746050.262          45.700  
E15  24779872.727   130219196.549          46.000    24779872.410    99778388.052          49.500    24779872.355    97241652.601          49.500    24779873.051    98510023.432          53.300  
> 2021 03 19 12 00 35.0000000  0 24                     
G17  20344260.773   106909898.637          50.400    20344260.172    83306406.764          56.000    20344260.012    83306396.502          51.400                                                  
G03  21946616.352   115330293.601          44.800    21946618.207    89867822.684          36.000    21946618.055    89867798.428          46.600    21946618.668    86123310.917          52.000  
G09  22636544.328   118955880.081          42.400    22636546.094    92692895.111          31.900    22636546.164    92692882.862          44.600    22636545.750    88830681.900          49.400  
G28  22474048.086   118101957.589          42.600    22474047.457    92027510.209          28.500                                                                                                  
G04  22415835.500   117796063.786          43.200    22415836.941    91789124.960          30.900    22415836.801    91789116.722          44.900    22415838.758    87964570.622          49.100  
G06  21967179.578   115438323.611          44.400    21967182.363    89952004.621          47.000    21967182.602    89951985.369          46.700    21967182.047    86203988.810          51.100  
G01  23893440.031   125561050.180          36.600    23893443.918    97839885.833          22.200    23893443.477    97839830.577          38.900    23893441.801    93763180.324          45.600  
J07  37283212.711   195924633.889          38.400    37283212.645   195924628.158          42.300    37283207.094   195924658.102          46.100    37283211.613   152668547.827          48.200    37283214.625   146307359.273          51.900  
J01  37092063.125   194920192.250          44.800    37092063.672   194920160.480          47.900    37092061.637   194920142.744          45.000    37092061.824   151885850.552          45.600    37092065.191   145557275.525          50.500  
J02  37499178.125   197059532.152          37.800    37499177.816   197059516.403          41.300    37499174.484   197059498.753          38.200    37499177.285   153552871.669          39.200    37499180.355   147154836.672          44.700  
J03  38334019.164   201446676.525          47.400    38334019.094   201446664.774          51.500    38334015.207   201446644.405          49.800    38334018.285   156971432.018          52.400    38334021.113   150430956.185          55.100  
G19  20543543.703   107957083.288          46.600    20543541.211    84122424.904          41.800                                                                                                  
G02  25196671.125   132409414.091          32.400    25196669.020   103176162.455          14.800                                                                                                  
G14  23178795.281   121805445.832          39.200    23178795.371    94913332.478          26.900    23178795.191    94913323.211          42.800    23178799.461    90958602.719          47.700  
G22  24507259.766   128786591.981          36.600    24507256.457   100353213.289          20.600                                                                                                  
E01  27662615.531   145368030.137          38.000    27662613.730   111385896.003          42.400    27662614.844   108554048.946          42.900    27662614.520   109969974.086          46.200  
E26  26326431.055   138346333.636          38.200    26326430.961   106005633.220          43.200    26326431.078   103310575.267          43.100    26326432.031   104658104.344          46.900  
E03  25802744.438   135594365.213          44.400    25802743.457   103896989.176          46.800    25802743.160   101255543.569          47.100    25802744.113   102576268.475          50.400  
E07  27119621.492   142514570.418          39.000    27119621.141   109199475.849          42.800    27119620.066   106423217.439          41.400    27119621.461   107811347.251          45.600  
E21  26291877.672   138164774.405          42.200    26291877.406   105866522.057          45.900    26291876.762   103175003.478          45.100    26291877.480   104520764.879          49.200  
E13  23759783.664   124858542.572          48.000    23759781.570    95670841.181          52.600    23759781.609    93238533.272          52.500    23759782.254    94454687.330          56.100  
E08  22688324.766   119227969.480          48.400    22688321.789    91356494.253          51.100    22688322.207    89033874.546          51.300    22688322.535    90195186.503          54.900  
E27  27355271.000   143752947.438          39.200    27355269.566   110148370.849          41.600    27355270.199   107347989.840          42.300    27355270.496   108748180.444          45.800  
E15  24780091.000   130220342.498          46.000    24780090.453    99779266.121          49.700    24780090.441    97242508.352          49.600    24780091.125    98510890.343          53.600  
> 2021 03 19 12 00 36.0000000  0 24                     
G17  20344178.352   106909466.418          50.600    20344177.840    83306069.970          55.600    20344177.813    83306059.721          51.400                                                  
G03  21947136.094   115333022.875          45.000    21947137.645    89869949.391          36.200    21947137.762    89869925.137          46.600    21947137.961    86125349.012          52.000  
G09  22636025.906   118953153.779          43.000    22636027.180    92690770.714          31.600    22636027.012    92690758.473          44.300    22636027.008    88828646.027          49.300  
G28  22474550.688   118104600.697          41.600    22474550.391    92029569.770          28.800                                                                                                  
G04  22415634.609   117795005.754          43.400    22415635.816    91788300.518          30.400    22415635.207    91788292.267          45.000    22415637.426    87963780.524          48.900  
G06  21966866.016   115436676.544          45.000    21966868.953    89950721.192          46.900    21966869.207    89950701.932          47.000    21966868.699    86202758.850          51.200  
G01  23893931.438   125563629.802          37.400    23893934.930    97841895.945          22.000    23893934.383    97841840.709          38.800    23893932.789    93765106.690          45.500  
J07  37283212.625   195924635.245          38.600    37283212.754   195924629.505          42.100    37283207.215   195924659.466          46.200    37283211.855   152668548.906          47.900    37283214.914   146307360.304          52.100  
J01  37092094.742   194920355.981          44.800    37092095.063   194920324.236          48.100    37092092.426   194920306.467          44.900    37092093.078   151885978.136          45.900    37092096.379   145557397.792          50.500  
J02  37499275.906   197060043.961          37.800    37499275.152   197060028.202          41.300    37499271.473   197060010.562          38.300    37499275.020   153553270.492          39.000    37499277.848   147155218.882          44.700  
J03  38333898.320   201446042.820          48.000    38333898.527   201446031.076          51.600    38333894.688   201446010.700          49.900    38333897.480   156970938.232          52.400    38333900.527   150430482.971          55.200  
G19  20543216.641   107955362.603          47.200    20543213.680    84121084.106          41.400                                                                                                  
G02  25196266.227   132407289.378          33.200    25196264.801   103174506.843          15.600                                                                                                  
G14  23179408.844   121808671.475          39.200    23179409.148    94915845.970          27.300    23179409.129    94915836.703          42.400    23179413.188    90961011.480          47.800  
G22  24507873.922   128789821.376          36.800    24507871.004   100355729.676          20.400                                                                                                  
E01  27662526.227   145367561.661          37.200    27662524.535   111385537.066          42.300    27662525.684   108553699.137          43.100    27662525.395   109969619.709          46.200  
E26  26326076.188   138344468.140          38.200    26326075.996   106004203.809          43.100    26326076.113   103309182.175          43.100    26326077.059   104656693.097          46.700  
E03  25802927.305   135595327.165          44.400    25802926.508   103897726.236          46.800    25802926.168   101256261.887          47.000    25802927.184   102576996.162          50.500  
E07  27119040.711   142511520.440          39.000    27119040.602   109197138.898          42.500    27119039.695   106420939.892          41.600    27119041.090   107809040.004          45.500  
E21  26292199.195   138166462.859          42.400    26292198.836   105867815.801          45.800    26292198.047   103176264.332          45.200    26292198.777   104522042.170          49.300  
E13  23759666.570   124857926.907          48.000    23759664.344    95670369.441          52.800    23759664.492    93238073.512          52.600    23759665.102    94454221.575          56.100  
E08  22688004.508   119226286.692          48.600    22688001.551    91355204.853          51.100    22688001.902    89032617.928          51.500    22688002.324    90193913.499          55.200  
E27  27355806.742   143755763.235          39.000    27355805.281   110150528.410          41.500    27355806.109   107350092.565          42.100    27355806.355   108750310.595          45.800  
E15  24780309.078   130221488.525          46.200    24780308.629    99780144.241          50.100    24780308.469    97243364.153          49.700    24780309.215    98511757.302          53.300  
> 2021 03 19 12 00 37.0000000  0 24                     
G17  20344096.367   106909034.752          50.600    20344095.688    83305733.605          55.400    20344095.617    83305723.356          51.500                                                  
G03  21947654.922   115335752.476          45.800    21947657.102    89872076.346          36.200    21947657.340    89872052.107          46.600    21947657.406    86127387.355          51.900  
G09  22635506.813   118950427.820          42.200    22635508.602    92688646.588          32.700    22635508.742    92688634.384          44.300    22635508.270    88826610.418          49.300  
G28  22475054.023   118107244.111          41.800    22475053.434    92031629.583          28.000                                                                                                  
G04  22415433.219   117793948.336          43.200    22415434.520    91787476.558          31.500    22415434.016    91787468.295          45.000    22415436.164    87962990.888          48.600  
G06  21966552.891   115435029.614          43.800    21966555.527    89949437.873          47.000    21966555.844    89949418.615          46.900    21966555.320    86201529.021          50.900  
G01  23894422.398   125566209.571          36.800    23894425.844    97843906.145          21.700    23894425.551    97843850.889          38.900    23894423.691    93767033.132          45.500  
J07  37283213.305   195924636.683          38.400    37283213.320   195924630.931          42.300    37283207.586   195924660.897          45.700    37283212.227   152668550.013          47.500    37283215.102   146307361.354          51.600  
J01  37092125.953   194920519.853          44.000    37092125.902   194920488.111          48.000    37092123.617   194920470.339          45.200    37092124.313   151886105.844          46.200    37092127.473   145557520.175          50.500  
J02  37499372.477   197060555.847          37.400    37499372.457   197060540.089          41.200    37499369.270   197060522.447          38.600    37499372.609   153553669.337          38.800    37499375.184   147155601.132          45.100  
J03  38333777.727   201445409.144          47.200    38333777.766   201445397.394          51.600    38333774.109   201445377.032          49.900    38333777.117   156970444.451          52.200    38333779.977   150430009.763          55.400  
G19  20542888.906   107953642.412          47.000    20542886.469    84119743.695          41.400                                                                                                  
G02  25195861.859   132405164.729          33.200    25195860.328   103172851.275          16.900                                                                                                  
G14  23180022.547   121811897.330          39.800    23180022.930    94918359.612          28.200    23180022.668    94918350.352          43.000    23180027.074    90963420.384          47.600  
G22  24508489.438   128793050.799          36.400    24508485.617   100358246.111          20.400                                                                                                  
E01  27662437.281   145367093.711          37.600    27662435.637   111385178.522          42.700    27662436.605   108553349.698          43.200    27662436.359   109969265.709          46.400  
E26  26325721.305   138342602.639          38.200    26325721.055   106002774.386          43.000    26325721.148   103307789.118          43.300    26325722.039   104655281.860          46.800  
E03  25803110.719   135596289.561          44.000    25803109.715   103898463.665          47.100    25803109.477   101256980.577          46.900    25803110.332   102577724.227          50.500  
E07  27118460.367   142508470.582          39.000    27118460.039   109194801.989          42.300    27118459.309   106418662.393          41.100    27118460.723   107806732.802          45.500  
E21  26292520.789   138168151.655          42.200    26292520.176   105869109.825          45.800    26292519.309   103177525.455          45.200    26292520.137   104523319.750          49.400  
E13  23759549.445   124857311.357          48.200    23759547.234    95669897.790          53.000    23759547.309    93237613.854          52.300    23759547.965    94453755.926          55.900  
E08  22687684.383   119224604.373          48.200    22687681.434    91353915.801          51.100    22687681.816    89031361.648          51.500    22687682.180    90192640.822          55.100  
E27  27356342.664   143758579.064          38.600    27356341.066   110152685.954          41.900    27356342.020   107352195.273          42.100    27356342.148   108752440.721          45.800  
E15  24780527.047   130222634.691          46.400    24780526.578    99781022.487          50.100    24780526.613    97244220.056          49.100    24780527.313    98512624.377          53.200  
> 2021 03 19 12 00 38.0000000  0 24                     
G17  20344014.391   106908603.543          50.600    20344013.680    83305397.598          55.700    20344013.832    83305387.349          51.100                                                  
G03  21948174.516   115338482.379          45.400    21948176.520    89874203.550          36.200    21948176.859    89874179.289          46.800    21948176.805    86129425.915          52.000  
G09  22634988.211   118947702.184          42.200    22634989.883    92686522.722          32.400    22634989.805    92686510.491          44.500    22634989.594    88824575.027          49.300  
G28  22475557.180   118109887.815          41.800    22475556.434    92033689.601          28.600                                                                                                  
G04  22415231.992   117792891.434          42.200    22415233.398    91786653.008          30.500    22415232.910    91786644.746          44.700    22415235.082    87962201.656          48.400  
G06  21966239.602   115433382.849          43.800    21966242.328    89948154.676          47.000    21966242.449    89948135.416          47.000    21966241.984    86200299.278          51.000  
G01  23894913.344   125568789.312          37.200    23894916.594    97845916.330          22.000    23894916.617    97845861.086          39.000    23894914.672    93768959.569          45.400  
J07  37283213.227   195924638.074          38.400    37283213.441   195924632.330          42.400    37283207.742   195924662.295          45.000    37283212.609   152668551.100          47.900    37283215.383   146307362.413          51.500  
J01  37092157.148   194920683.804          44.400    37092157.070   194920652.052          47.900    37092154.734   194920634.298          45.200    37092155.262   151886233.599          46.000    37092158.781   145557642.605          50.500  
J02  37499469.891   197061067.724          37.800    37499470.266   197061051.951          41.500    37499466.684   197061034.325          39.000    37499469.512   153554068.220          38.800    37499472.617   147155983.363          45.100  
J03  38333656.906   201444775.399          46.800    38333657.344   201444763.655          51.600    38333653.570   201444743.287          49.700    38333656.340   156969950.632          52.300    38333659.316   150429536.520          55.400  
G19  20542561.391   107951922.671          46.800    20542559.172    84118403.640          41.200                                                                                                  
G02  25195457.875   132403040.036          33.400    25195455.980   103171195.668          15.600                                                                                                  
G14  23180637.102   121815123.268          39.200    23180636.898    94920873.329          28.100    23180636.621    94920864.088          43.000    23180640.945    90965829.395          47.500  
G22  24509103.367   128796280.256          36.200    24509100.242   100360762.593          20.400                                                                                                  
E01  27662348.461   145366626.208          37.800    27662346.555   111384820.293          42.500    27662347.484   108553000.573          43.700    27662347.352   109968912.040          46.400  
E26  26325366.414   138340737.113          38.400    26325365.934   106001344.972          43.300    26325366.098   103306396.042          43.200    26325367.055   104653870.612          47.000  
E03  25803294.031   135597252.428          44.200    25803292.914   103899201.445          47.300    25803292.656   101257699.587          47.000    25803293.551   102578452.618          50.600  
E07  27117880.008   142505420.705          39.200    27117879.738   109192465.088          42.300    27117878.941   106416384.897          41.100    27117880.344   107804425.600          45.400  
E21  26292841.703   138169840.774          42.400    26292841.625   105870404.101          46.000    26292840.895   103178786.817          44.800    26292841.574   104524597.564          49.300  
E13  23759432.438   124856695.879          47.600    23759430.023    95669426.192          52.900    23759430.320    93237154.250          52.400    23759430.844    94453290.323          55.900  
E08  22687364.359   119222922.389          48.600    22687361.238    91352627.003          51.300    22687361.695    89030105.618          51.100    22687362.113    90191368.421          54.600  
E27  27356878.586   143761394.828          38.400    27356876.906   110154843.500          42.000    27356877.602   107354297.945          42.300    27356878.004   108754570.826          46.000  
E15  24780745.250   130223780.965          46.200    24780744.770    99781900.789          49.800    24780744.711    97245076.033          49.500    24780745.465    98513491.511          53.100  
> 2021 03 19 12 00 39.0000000  0 24                     
G17  20343932.164   106908172.798          50.600    20343931.766    83305061.954          55.600    20343931.461    83305051.705          51.200                                                  
G03  21948694.398   115341212.537          45.600    21948696.172    89876330.943          36.200    21948695.859    89876306.695          46.700    21948696.273    86131464.667          52.000  
G09  22634470.000   118944976.842          42.200    22634471.297    92684399.083          32.100    22634471.395    92684386.832          44.800    22634470.973    88822539.864          49.300  
G28  22476060.523   118112531.770          42.000    22476059.559    92035749.827          28.500                                                                                                  
G04  22415030.563   117791835.104          42.200    22415032.445    91785829.883          30.500    22415031.766    91785821.637          44.900    22415033.984    87961412.833          48.500  
G06  21965926.156   115431736.178          44.200    21965928.957    89946871.555          47.000    21965929.070    89946852.297          46.600    21965928.586    86199069.620          51.000  
G01  23895404.641   125571369.117          37.200    23895407.570    97847926.574          22.200    23895407.066    97847871.306          39.200    23895405.402    93770886.035          45.000  
J07  37283213.953   195924639.457          39.000    37283213.469   195924633.720          42.400    37283208.223   195924663.678          45.800    37283213.051   152668552.177          48.000    37283215.719   146307363.438          51.400  
J01  37092188.578   194920847.823          45.000    37092188.422   194920816.080          48.000    37092186.469   194920798.310          45.300    37092186.676   151886361.401          45.900    37092189.992   145557765.095          50.600  
J02  37499567.633   197061579.580          37.200    37499567.668   197061563.829          41.300    37499563.828   197061546.173          38.400    37499566.988   153554467.067          38.800    37499570.172   147156365.596          44.900  
J03  38333536.563   201444141.618          47.000    38333536.746   201444129.867          51.500    38333533.098   201444109.498          49.600    38333535.969   156969456.769          52.600    38333538.723   150429063.238          55.300  
G19  20542234.344   107950203.372          46.600    20542232.004    84117063.927          41.300                                                                                                  
G02  25195054.625   132400685.2751         33.000    25195051.645   103169352.9471         14.800                                                                                                  
G14  23181250.789   121818349.421          39.400    23181250.828    94923387.220          27.800    23181250.711    94923377.945          42.500    23181254.965    90968238.506          47.400  
G22  24509718.109   128799509.746          36.600    24509714.699   100363279.080          20.900                                                                                                  
E01  27662259.758   145366159.148          38.000    27662257.586   111384462.396          42.200    27662258.859   108552651.790          43.600    27662258.500   109968558.697          46.400  
E26  26325011.023   138338871.522          39.000    26325010.906   105999915.490          43.400    26325011.172   103305002.906          43.200    26325012.059   104652459.302          47.000  
E03  25803477.148   135598215.661          44.200    25803476.207   103899939.507          47.000    25803475.863   101258418.902          47.000    25803476.852   102579181.311          50.700  
E07  27117299.844   142502370.839          39.400    27117299.453   109190128.187          42.500    27117298.691   106414107.408          41.200    27117299.988   107802118.397          45.200  
E21  26293163.328   138171530.221          42.400    26293162.992   105871698.587          46.000    26293162.207   103180048.396          44.800    26293163.078   104525875.598          49.400  
E13  23759315.266   124856080.477          48.000    23759312.977    95668954.638          53.000    23759313.195    93236694.693          52.500    23759313.738    94452824.771          55.800  
E08  22687044.188   119221240.786          48.200    22687041.219    91351338.500          51.700    22687041.758    89028849.875          51.200    22687042.102    90190096.294          54.900  
E27  27357414.258   143764210.484          39.000    27357412.547   110157000.969          42.400    27357413.594   107356400.572          42.300    27357413.797   108756700.878          46.200  
E15  24780963.359   130224927.302          46.400    24780962.977    99782779.147          49.700    24780962.887    97245932.062          49.700    24780963.609    98514358.709          53.200  
> 2021 03 19 12 00 40.0000000  0 24                     
G17  20343850.227   106907742.541          50.600    20343849.844    83304726.681          56.100    20343849.852    83304716.439          51.400                                                  
G03  21949213.789   115343942.984          45.400    21949215.516    89878458.562          36.400    21949215.859    89878434.322          47.200    21949215.895    86133503.640          51.900  
G09  22633950.828   118942251.823          42.200    22633952.824    92682275.686          32.200    22633953.074    92682263.455          44.700    22633952.527    88820504.961          49.300  
G28  22476563.578   118115176.042          42.200    22476562.766    92037810.295          28.100                                                                                                  
G04  22414829.969   117790779.340          42.000    22414831.453    91785007.216          30.700    22414831.066    91784998.969          44.900    22414833.262    87960624.443          48.600  
G06  21965612.820   115430089.680          44.400    21965615.633    89945588.575          47.100    21965615.672    89945569.296          46.700    21965615.414    86197840.081          50.900  
G01  23895895.219   125573948.901          37.000    23895898.344    97849936.788          22.300    23895897.691    97849881.581          39.200    23895896.605    93772812.524          45.200  
J07  37283213.500   195924640.865          39.000    37283213.891   195924635.132          42.100    37283208.500   195924665.078          45.300    37283213.258   152668553.272          47.800    37283215.973   146307364.494          51.500  
J01  37092219.492   194921011.955          44.400    37092219.672   194920980.198          48.000    37092217.363   194920962.449          45.000    37092218.113   151886489.292          46.200    37092221.277   145557887.654          50.400  
J02  37499664.695   197062091.443          37.000    37499664.969   197062075.692          41.400    37499661.133   197062058.036          38.900    37499664.738   153554865.956          39.200    37499667.547   147156747.845          45.100  
J03  38333415.758   201443507.818          47.000    38333416.090   201443496.074          51.600    38333412.406   201443475.698          49.600    38333415.352   156968962.902          52.500    38333418.098   150428589.947          55.400  
G19  20541907.336   107948484.523          46.800    20541904.977    84115724.563          41.400                                                                                                  
G02  25194650.125   132398790.6841         33.200    25194647.293   103167884.4901         16.300                                                                                                  
G14  23181864.648   121821575.676          39.400    23181864.793    94925901.179          27.000    23181864.887    94925891.926          42.400    23181868.738    90970647.736          47.800  
G22  24510332.859   128802739.258          37.400    24510329.094   100365795.569          21.800                                                                                                  
E01  27662170.711   145365692.531          38.200    27662168.730   111384104.878          42.300    27662169.938   108552303.340          43.200    27662169.719   109968205.716          46.500  
E26  26324656.195   138337005.941          39.200    26324655.855   105998486.029          43.800    26324656.137   103303609.767          42.800    26324657.039   104651047.992          46.900  
E03  25803660.703   135599179.396          44.200    25803659.551   103900677.947          47.100    25803659.281   101259138.567          46.800    25803660.242   102579910.357          50.700  
E07  27116719.578   142499321.064          39.200    27116719.137   109187791.290          42.300    27116718.137   106411829.960          41.200    27116719.629   107799811.236          45.200  
E21  26293485.008   138173219.998          42.200    26293484.660   105872993.354          46.100    26293483.824   103181310.252          44.700    26293484.629   104527153.906          49.400  
E13  23759198.078   124855465.169          48.200    23759195.914    95668483.164          53.100    23759196.082    93236235.192          52.400    23759196.652    94452359.280          55.700  
E08  22686724.289   119219559.585          48.000    22686721.316    91350050.293          51.500    22686721.762    89027594.427          51.600    22686722.180    90188824.463          54.900  
E27  27357949.984   143767026.180          39.600    27357948.527   110159158.444          42.400    27357949.410   107358503.174          42.300    27357949.582   108758830.914          46.000  
E15  24781181.539   130226073.771          46.400    24781181.051    99783657.609          49.800    24781181.035    97246788.192          49.700    24781181.766    98515225.999          53.100  
> 2021 03 19 12 00 41.0000000  0 24                     
G17  20343768.750   106907312.738          50.600    20343768.051    83304391.773          55.900    20343767.969    83304381.532          51.600                                                  
G03  21949733.508   115346673.691          45.400    21949735.230    89880586.387          36.500    21949735.582    89880562.146          46.800    21949735.477    86135542.809          52.100  
G09  22633432.547   118939527.055          42.000    22633434.211    92680152.493          32.100    22633434.176    92680140.266          44.600    22633433.977    88818470.236          49.800  
G28  22477067.266   118117820.551          42.000    22477065.891    92039870.965          28.700                                                                                                  
G04  22414629.453   117789724.119          42.600    22414630.672    91784184.971          30.600    22414630.188    91784176.710          45.000    22414632.367    87959836.451          48.400  
G06  21965299.250   115428443.236          44.600    21965302.305    89944305.629          47.000    21965302.563    89944286.369          47.000    21965302.027    86196610.608          51.200  
G01  23896385.172   125576528.726          36.800    23896389.371    97851947.055          22.000    23896388.359    97851891.793          39.200    23896387.414    93774738.999          45.200  
J07  37283214.273   195924642.221          38.800    37283214.227   195924636.475          42.300    37283208.652   195924666.441          45.300    37283213.441   152668554.328          47.500    37283216.227   146307365.506          51.700  
J01  37092250.656   194921176.121          44.600    37092250.863   194921144.372          48.000    37092248.184   194921126.608          44.700    37092249.086   151886617.224          46.100    37092252.477   145558010.248          50.400  
J02  37499762.813   197062603.278          37.400    37499762.281   197062587.550          41.300    37499758.883   197062569.872          37.900    37499761.879   153555264.773          38.900    37499764.953   147157130.066          44.700  
J03  38333295.172   201442873.936          47.200    38333295.418   201442862.193          51.600    38333292.004   201442841.824          50.100    38333294.711   156968468.969          52.300    38333297.504   150428116.596          55.300  
G19  20541580.477   107946766.129          47.000    20541578.035    84114385.557          41.400                                                                                                  
G02  25194245.070   132396665.966          33.600    25194243.016   103166228.846          16.900                                                                                                  
G14  23182479.125   121824802.035          39.400    23182478.730    94928415.223          27.000    23182478.570    94928405.990          42.400    23182482.770    90973057.053          47.700  
G22  24510947.289   128805968.744          36.200    24510943.723   100368312.045          20.900                                                                                                  
E01  27662082.148   145365226.354          38.400    27662080.074   111383747.659          42.200    27662081.152   108551955.233          43.200    27662080.992   109967853.057          46.100  
E26  26324301.344   138335140.288          38.800    26324300.762   105997056.502          43.400    26324301.051   103302216.600          43.000    26324302.012   104649636.659          47.000  
E03  25803844.102   135600143.504          44.200    25803842.973   103901416.682          47.500    25803842.875   101259858.524          46.900    25803843.699   102580639.709          51.200  
E07  27116139.023   142496271.223          38.800    27116138.543   109185454.425          42.700    27116137.816   106409552.491          41.100    27116139.277   107797504.046          45.300  
E21  26293806.492   138174910.070          41.600    26293806.301   105874288.366          46.000    26293805.359   103182572.334          44.400    26293806.250   104528432.453          49.300  
E13  23759080.945   124854849.872          48.400    23759078.801    95668011.712          53.000    23759078.949    93235775.729          52.100    23759079.563    94451893.827          55.800  
E08  22686404.523   119217878.695          48.000    22686401.535    91348762.356          51.300    22686401.988    89026339.228          51.700    22686402.324    90187552.895          54.800  
E27  27358485.836   143769841.741          39.200    27358484.504   110161315.807          42.300    27358485.203   107360605.718          42.300    27358485.418   108760960.866          45.900  
E15  24781399.742   130227220.311          46.200    24781399.234    99784536.123          49.700    24781399.168    97247644.366          49.800    24781399.930    98516093.344          53.400  
> 2021 03 19 12 00 42.0000000  0 24                     
G17  20343686.977   106906883.469          50.200    20343686.297    83304057.280          56.100    20343686.219    83304047.033          51.500                                                  
G03  21950253.586   115349404.766          46.000    21950255.020    89882714.493          36.100    21950255.531    89882690.253          46.400    21950255.316    86137582.246          52.000  
G09  22632913.930   118936802.710          42.400    22632915.602    92678029.628          31.900    22632915.645    92678017.379          44.600    22632915.621    88816435.806          50.000  
G28  22477569.922   118120465.401          42.000    22477569.211    92041931.882          28.100                                                                                                  
G04  22414428.273   117788669.510          42.400    22414429.926    91783363.199          30.800    22414429.594    91783354.952          45.200    22414431.633    87959048.924          48.500  
G06  21964986.313   115426797.027          44.600    21964988.965    89943022.869          47.200    21964989.469    89943003.612          47.100    21964988.844    86195381.295          50.900  
G01  23896876.742   125579108.651          37.200    23896880.309    97853957.384          21.500    23896879.727    97853902.106          39.200    23896878.410    93776665.558          45.000  
J07  37283214.195   195924643.660          38.600    37283214.293   195924637.929          42.300    37283209.137   195924667.873          45.500    37283213.762   152668555.451          47.600    37283216.492   146307366.578          51.500  
J01  37092281.781   194921340.445          45.000    37092282.266   194921308.697          47.900    37092279.906   194921290.932          44.500    37092280.559   151886745.266          46.100    37092283.727   145558132.959          50.700  
J02  37499859.797   197063115.226          37.400    37499860.035   197063099.459          41.200    37499856.520   197063081.827          37.500    37499859.324   153555663.672          39.200    37499862.379   147157512.347          44.900  
J03  38333174.320   201442240.104          47.600    38333174.813   201442228.346          51.600    38333171.078   201442207.985          49.600    38333174.059   156967975.064          52.800    38333176.895   150427643.270          55.100  
G19  20541253.586   107945048.247          46.800    20541251.109    84113046.943          41.600                                                                                                  
G02  25193841.023   132394541.308          33.800    25193838.770   103164573.286          16.300                                                                                                  
G14  23183093.008   121828028.640          38.800    23183092.758    94930929.461          27.500    23183092.328    94930920.216          42.700    23183096.859    90975466.517          47.600  
G22  24511561.680   128809198.335          36.200    24511558.184   100370828.607          21.300                                                                                                  
E01  27661993.375   145364760.688          38.600    27661991.590   111383390.882          42.600    27661992.684   108551607.494          43.000    27661992.395   109967500.788          46.300  
E26  26323946.352   138333274.696          38.800    26323945.809   105995627.006          43.200    26323946.055   103300823.438          42.800    26323946.984   104648225.328          46.700  
E03  25804027.609   135601108.147          44.400    25804026.746   103902155.811          47.400    25804026.355   101260578.856          46.800    25804027.270   102581369.435          51.000  
E07  27115558.656   142493221.439          39.000    27115558.414   109183117.600          42.500    27115557.242   106407275.061          41.100    27115558.898   107795196.934          45.300  
E21  26294128.352   138176600.558          41.800    26294127.949   105875583.651          46.100    26294127.180   103183834.679          44.700    26294127.926   104529711.272          49.300  
E13  23758963.891   124854234.742          48.600    23758961.746    95667540.381          53.200    23758961.859    93235316.388          52.400    23758962.504    94451428.488          56.000  
E08  22686084.641   119216198.272          47.800    22686081.738    91347474.754          51.300    22686082.188    89025084.357          51.700    22686082.555    90186281.663          54.700  
E27  27359021.438   143772657.316          39.000    27359020.188   110163473.205          42.300    27359021.172   107362708.277          42.100    27359021.176   108763090.845          46.100  
E15  24781618.070   130228366.992          46.200    24781617.590    99785414.748          49.800    24781617.363    97248500.654          49.700    24781618.156    98516960.800          53.700  
> 2021 03 19 12 00 43.0000000  0 24                     
G17  20343605.461   106906454.643          50.600    20343604.777    83303723.127          56.300    20343604.625    83303712.872          51.300                                                  
G03  21950773.102   115352136.081          46.000    21950774.711    89884842.796          36.800    21950775.094    89884818.542          46.700    21950774.922    86139621.856          52.000  
G09  22632395.445   118934078.608          42.200    22632397.262    92675906.943          32.400    22632397.270    92675894.705          44.500    22632397.148    88814401.583          49.900  
G28  22478073.242   118123110.507          42.000    22478072.527    92043992.997          27.900                                                                                                  
G04  22414228.594   117787615.435          42.400    22414229.359    91782541.849          31.300    22414229.098    91782533.589          45.300    22414231.199    87958261.793          48.600  
G06  21964673.273   115425150.877          44.400    21964675.918    89941740.155          47.200    21964675.910    89941720.917          46.800    21964675.547    86194152.049          51.200  
G01  23897367.469   125581688.517          37.000    23897371.141    97855967.666          21.500    23897371.008    97855912.401          39.200    23897369.266    93778592.088          44.700  
J07  37283215.086   195924645.037          39.000    37283215.059   195924639.290          42.100    37283209.070   195924669.258          45.800    37283213.996   152668556.529          47.900    37283216.723   146307367.608          51.400  
J01  37092313.375   194921504.812          45.400    37092313.348   194921473.070          47.900    37092311.004   194921455.299          44.600    37092311.453   151886873.340          46.200    37092315.004   145558255.694          50.500  
J02  37499957.453   197063627.101          37.400    37499957.332   197063611.342          41.200    37499953.742   197063593.694          37.900    37499956.660   153556062.554          39.000    37499959.777   147157894.603          44.900  
J03  38333054.242   201441606.171          48.000    38333054.199   201441594.413          51.700    38333050.676   201441574.052          49.900    38333053.523   156967481.095          52.700    38333056.188   150427169.884          55.300  
G19  20540927.109   107943330.770          46.800    20540924.211    84111708.654          41.300                                                                                                  
G02  25193436.641   132392416.597          33.800    25193434.488   103162917.655          15.600                                                                                                  
G14  23183706.664   121831255.363          39.000    23183706.648    94933443.796          27.300    23183706.785    94933434.543          42.700    23183710.746    90977876.071          47.200  
G22  24512175.984   128812427.885          36.000    24512172.840   100373345.130          21.100                                                                                                  
E01  27661905.086   145364295.457          38.400    27661902.859   111383034.373          42.800    27661904.203   108551260.060          43.100    27661903.852   109967148.831          46.400  
E26  26323591.203   138331409.009          38.600    26323590.750   105994197.457          43.200    26323590.965   103299430.230          43.300    26323591.965   104646813.951          46.900  
E03  25804211.508   135602073.166          44.000    25804210.352   103902895.252          47.100    25804210.051   101261299.499          46.800    25804210.902   102582099.477          51.100  
E07  27114978.719   142490171.709          39.000    27114977.984   109180780.751          42.100    27114976.906   106404997.639          41.200    27114978.602   107792889.805          45.100  
E21  26294450.117   138178291.280          42.000    26294449.742   105876879.157          46.100    26294448.652   103185097.248          44.400    26294449.652   104530990.306          49.200  
E13  23758846.930   124853619.658          48.000    23758844.762    95667069.076          53.200    23758844.820    93234857.057          52.300    23758845.461    94450963.171          56.000  
E08  22685764.883   119214518.178          48.000    22685762.098    91346187.415          51.500    22685762.516    89023829.742          51.400    22685762.836    90185010.684          54.700  
E27  27359557.219   143775472.848          38.400    27359555.859   110165630.548          41.800    27359556.621   107364810.770          42.400    27359556.953   108765220.771          46.300  
E15  24781836.375   130229513.740          46.600    24781835.824    99786293.432          49.700    24781835.559    97249356.994          49.900    24781836.375    98517828.313          53.500  
> 2021 03 19 12 00 44.0000000  0 24                     
G17  20343523.648   106906026.322          51.000    20343523.254    83303389.369          56.600    20343523.035    83303379.112          51.300                                                  
G03  21951292.305   115354867.697          46.000    21951294.523    89886971.326          36.800    21951294.543    89886947.078          46.400    21951294.719    86141661.701          52.000  
G09  22631877.766   118931354.858          42.600    22631878.977    92673784.545          32.300    22631878.816    92673772.301          44.600    22631878.953    88812367.611          50.000  
G28  22478576.734   118125755.899          42.600    22478575.941    92046054.346          28.600                                                                                                  
G04  22414027.828   117786561.940          43.200    22414028.906    91781720.939          31.100    22414028.164    91781712.680          45.500    22414030.582    87957475.090          48.700  
G06  21964360.156   115423504.921          44.800    21964362.707    89940457.594          47.200    21964362.797    89940438.342          47.200    21964362.266    86192922.910          51.300  
G01  23897858.016   125584268.439          37.000    23897862.031    97857978.006          21.500    23897861.887    97857922.767          38.900    23897860.246    93780518.668          45.000  
J07  37283215.094   195924646.445          39.000    37283215.227   195924640.702          42.300    37283209.633   195924670.659          45.900    37283214.027   152668557.627          47.700    37283217.004   146307368.657          51.500  
J01  37092344.539   194921669.287          45.400    37092344.914   194921637.540          48.000    37092342.566   194921619.773          44.600    37092342.992   151887001.502          46.000    37092346.434   145558378.522          50.600  
J02  37500054.789   197064139.032          38.000    37500054.438   197064123.293          41.300    37500050.992   197064105.633          38.200    37500054.090   153556461.460          39.400    37500057.188   147158276.894          45.300  
J03  38332933.305   201440972.243          48.000    38332933.410   201440960.484          51.600    38332929.953   201440940.123          50.000    38332932.535   156966987.120          52.500    38332935.641   150426696.495          55.200  
G19  20540600.250   107941613.774          47.000    20540597.566    84110370.737          41.400                                                                                                  
G02  25193032.250   132390291.946          33.800    25193030.148   103161262.099          14.800                                                                                                  
G14  23184320.461   121834482.240          38.800    23184320.813    94935958.246          26.800    23184320.547    94935949.001          42.600    23184324.781    90980285.762          47.300  
G22  24512790.914   128815657.523          36.000    24512787.637   100375861.727          21.300                                                                                                  
E01  27661816.258   145363830.702          38.600    27661814.492   111382678.255          42.700    27661815.816   108550913.009          43.200    27661815.422   109966797.243          46.600  
E26  26323236.070   138329543.318          38.600    26323235.684   105992767.901          43.500    26323236.063   103298037.036          43.000    26323236.910   104645402.574          47.000  
E03  25804395.180   135603038.648          44.200    25804394.008   103903635.035          47.100    25804393.848   101262020.477          46.800    25804394.637   102582829.856          50.700  
E07  27114398.055   142487121.963          39.400    27114397.656   109178443.973          42.600    27114396.648   106402720.258          41.100    27114398.246   107790582.711          45.300  
E21  26294771.742   138179982.392          42.000    26294771.699   105878174.945          45.900    26294770.582   103186360.097          44.400    26294771.469   104532269.627          49.300  
E13  23758729.695   124853004.658          48.000    23758727.613    95666597.846          53.300    23758727.887    93234397.820          52.100    23758728.418    94450497.937          56.000  
E08  22685445.328   119212838.495          48.000    22685442.422    91344900.383          51.400    22685442.938    89022575.439          51.500    22685443.191    90183740.015          54.900  
E27  27360093.063   143778288.318          38.400    27360091.504   110167787.875          41.900    27360092.629   107366913.223          42.600    27360092.723   108767350.657          46.100  
E15  24782054.484   130230660.617          46.200    24782053.988    99787172.199          49.200    24782053.762    97250213.428          49.800    24782054.602    98518695.914          53.400  
> 2021 03 19 12 00 45.0000000  0 24                     
G17  20343442.313   106905598.455          51.000    20343441.844    83303055.968          56.700    20343441.715    83303045.712          51.100                                                  
G03  21951812.586   115357599.570          45.800    21951814.457    89889100.054          36.300    21951814.520    89889075.822          46.700    21951814.641    86143701.743          51.900  
G09  22631359.289   118928631.378          42.600    22631360.832    92671662.352          32.800    22631360.516    92671650.115          44.300    22631360.738    88810333.855          49.800  
G28  22479080.375   118128401.560          42.600    22479079.297    92048115.905          28.100                                                                                                  
G04  22413827.305   117785508.982          43.200    22413828.340    91780900.454          30.900    22413827.891    91780892.201          45.200    22413830.262    87956688.794          48.600  
G06  21964046.711   115421859.056          44.800    21964049.500    89939175.096          47.100    21964049.453    89939155.851          47.100    21964049.070    86191693.860          51.100  
G01  23898349.227   125586848.392          36.800    23898353.043    97859988.357          21.100    23898352.602    97859933.126          38.900    23898351.164    93782445.259          45.300  
J07  37283215.297   195924647.822          39.200    37283215.398   195924642.072          42.200    37283209.758   195924672.042          46.200    37283214.375   152668558.698          47.500    37283217.293   146307369.681          51.700  
J01  37092375.859   194921833.822          45.400    37092376.199   194921802.086          47.900    37092373.461   194921784.316          44.900    37092374.371   151887129.708          45.700    37092377.574   145558501.392          50.900  
J02  37500151.977   197064650.926          37.200    37500151.777   197064635.184          41.100    37500148.781   197064617.527          38.300    37500151.258   153556860.356          39.100    37500154.582   147158659.128          44.900  
J03  38332812.672   201440338.233          48.000    38332812.883   201440326.489          51.600    38332809.332   201440306.113          49.700    38332812.105   156966493.098          52.700    38332815.000   150426223.059          55.200  
G19  20540273.242   107939897.211          47.400    20540270.926    84109033.148          41.600                                                                                                  
G02  25192628.070   132388167.249          33.200    25192625.660   103159606.527          14.800                                                                                                  
G14  23184934.813   121837709.240          39.000    23184934.887    94938472.790          26.700    23184934.484    94938463.532          42.400    23184938.781    90982695.529          47.500  
G22  24513405.500   128818887.140          35.800    24513402.094   100378378.317          20.900                                                                                                  
E01  27661728.000   145363366.342          38.200    27661725.980   111382322.474          42.700    27661727.250   108550566.263          43.100    27661727.066   109966445.975          46.700  
E26  26322880.922   138327677.588          39.200    26322880.754   105991338.320          43.300    26322880.988   103296643.803          43.000    26322881.895   104643991.169          46.900  
E03  25804579.094   135604004.544          44.200    25804577.801   103904375.145          47.100    25804577.488   101262741.756          46.800    25804578.430   102583560.554          50.700  
E07  27113817.758   142484072.247          39.000    27113817.016   109176107.160          42.200    27113816.313   106400442.859          41.500    27113817.871   107788275.617          45.300  
E21  26295093.844   138181673.788          41.800    26295093.465   105879470.956          45.700    26295092.480   103187623.172          44.100    26295093.328   104533549.171          48.900  
E13  23758612.844   124852389.717          48.600    23758610.613    95666126.657          53.300    23758610.758    93233938.608          52.500    23758611.414    94450032.738          56.200  
E08  22685125.641   119211159.168          48.200    22685122.910    91343613.624          51.500    22685123.270    89021321.394          51.100    22685123.609    90182469.615          54.800  
E27  27360628.938   143781103.737          38.400    27360627.406   110169945.156          41.800    27360628.281   107369015.643          42.700    27360628.523   108769480.504          45.900  
E15  24782272.617   130231807.585          46.000    24782272.250    99788051.044          49.400    24782271.965    97251069.919          49.800    24782272.883    98519563.587          53.100  
> 2021 03 19 12 00 46.0000000  0 24                     
G17  20343361.234   106905171.082          51.000    20343360.508    83302722.951          56.600    20343360.539    83302712.703          51.000                                                  
G03  21952332.734   115360331.761          45.600    21952334.406    89891229.032          36.200    21952334.375    89891204.786          46.700    21952334.504    86145742.019          52.400  
G09  22630840.664   118925908.235          42.400    22630842.617    92669540.424          32.300    22630842.547    92669528.178          44.600    22630842.531    88808300.326          49.700  
G28  22479583.352   118131047.514          42.000    22479582.852    92050177.690          28.200                                                                                                  
G04  22413627.023   117784456.615          43.200    22413628.160    91780080.427          30.900    22413627.887    91780072.169          45.200    22413630.035    87955902.924          48.800  
G06  21963733.523   115420213.354          44.200    21963736.289    89937892.738          47.200    21963736.266    89937873.488          47.200    21963735.914    86190464.921          51.200  
G01  23898840.039   125589428.391          37.000    23898844.121    97861998.752          20.900    23898843.488    97861943.491          39.100    23898842.285    93784371.872          45.000  
J07  37283215.555   195924649.206          39.400    37283215.664   195924643.483          42.200    37283210.172   195924673.419          45.800    37283214.492   152668559.778          47.800    37283217.555   146307370.726          51.800  
J01  37092406.961   194921998.458          45.400    37092407.426   194921966.694          47.900    37092405.316   194921948.945          45.100    37092405.762   151887258.009          45.800    37092409.020   145558624.332          50.900  
J02  37500249.266   197065162.868          37.200    37500249.379   197065147.104          41.100    37500246.215   197065129.470          38.400    37500249.207   153557259.244          38.800    37500252.141   147159041.434          45.000  
J03  38332692.258   201439704.225          47.800    38332692.207   201439692.482          51.600    38332688.813   201439672.105          49.900    38332691.496   156965999.059          52.800    38332694.277   150425749.600          55.300  
G19  20539947.063   107938181.120          47.200    20539944.371    84107695.934          41.800                                                                                                  
G02  25192222.977   132386042.554          33.600    25192221.359   103157950.885          16.300                                                                                                  
G14  23185548.703   121840936.393          39.200    23185548.852    94940987.454          27.200    23185548.633    94940978.215          42.600    23185552.852    90985105.429          47.300  
G22  24514020.000   128822116.821          36.000    24514016.582   100380894.957          21.500                                                                                                  
E01  27661639.820   145362902.512          37.600    27661637.680   111381967.052          42.700    27661638.988   108550219.902          43.300    27661638.805   109966095.080          46.800  
E26  26322526.289   138325811.844          38.600    26322525.684   105989908.720          42.900    26322525.930   103295250.551          43.200    26322526.887   104642579.733          47.000  
E03  25804762.906   135604970.908          44.200    25804761.723   103905115.590          46.700    25804761.488   101263463.382          46.900    25804762.332   102584291.592          50.400  
E07  27113237.336   142481022.548          39.000    27113236.789   109173770.391          42.300    27113236.031   106398165.499          41.000    27113237.539   107785968.545          45.100  
E21  26295415.430   138183365.559          42.000    26295415.398   105880767.228          45.900    26295414.359   103188886.473          44.500    26295415.273   104534828.956          49.200  
E13  23758495.898   124851774.887          48.400    23758493.633    95665655.555          53.300    23758493.820    93233479.477          52.900    23758494.410    94449567.616          56.700  
E08  22684806.266   119209480.233          48.000    22684803.344    91342327.169          51.500    22684803.734    89020067.650          51.000    22684804.125    90181199.519          54.700  
E27  27361164.664   143783919.098          38.000    27361163.016   110172102.402          42.000    27361164.191   107371118.056          41.900    27361164.258   108771610.329          45.500  
E15  24782491.070   130232954.629          45.800    24782490.555    99788929.950          49.300    24782490.316    97251926.494          49.800    24782491.137    98520431.325          53.100  
> 2021 03 19 12 00 47.0000000  0 24                     
G17  20343279.781   106904744.198          51.000    20343279.258    83302390.311          56.400    20343279.172    83302380.062          51.400                                                  
G03  21952852.352   115363064.230          46.000    21952854.434    89893358.231          35.300    21952854.602    89893333.975          46.700    21952854.523    86147782.484          52.500  
G09  22630322.906   118923185.370          42.000    22630324.563    92667418.710          32.600    22630324.199    92667406.486          44.600    22630324.508    88806267.044          49.600  
G28  22480087.664   118133693.762          42.200    22480086.523    92052239.699          29.100                                                                                                  
G04  22413426.648   117783404.791          43.200    22413428.078    91779260.826          31.300    22413427.488    91779252.557          45.500    22413429.891    87955117.476          48.800  
G06  21963420.266   115418567.752          43.800    21963423.145    89936610.449          47.100    21963423.293    89936591.199          47.100    21963422.832    86189236.083          50.900  
G01  23899331.172   125592008.397          37.400    23899334.961    97864009.115          22.000    23899334.652    97863953.899          39.400    23899333.164    93786298.498          45.100  
J07  37283216.203   195924650.611          39.200    37283216.102   195924644.859          42.300    37283210.508   195924674.832          45.400    37283215.047   152668560.865          47.900    37283217.785   146307371.754          51.500  
J01  37092438.555   194922163.179          45.000    37092438.801   194922131.420          47.900    37092436.461   194922113.665          45.200    37092437.051   151887386.353          45.700    37092440.285   145558747.332          50.900  
J02  37500346.750   197065674.765          37.000    37500346.898   197065659.045          41.200    37500343.324   197065641.359          37.800    37500346.441   153557658.132          39.200    37500349.492   147159423.721          45.300  
J03  38332571.367   201439070.170          47.400    38332571.563   201439058.427          51.600    38332567.754   201439038.050          50.100    38332570.711   156965504.994          52.500    38332573.613   150425276.117          55.300  
G19  20539620.227   107936465.466          47.000    20539617.875    84106359.062          41.800                                                                                                  
G02  25191818.438   132383917.903          34.000    25191817.008   103156295.323          16.300                                                                                                  
G14  23186162.625   121844163.692          39.000    23186163.113    94943502.231          28.100    23186162.793    94943492.993          42.400    23186166.949    90987515.432          47.200  
G22  24514634.969   128825346.492          35.800    24514631.059   100383411.580          21.700                                                                                                  
E01  27661551.563   145362439.096          38.000    27661549.605   111381611.955          42.600    27661550.809   108549873.824          43.200    27661550.625   109965744.496          46.700  
E26  26322171.055   138323946.073          38.800    26322170.660   105988479.115          43.000    26322170.855   103293857.265          43.200    26322171.828   104641168.297          46.900  
E03  25804946.758   135605937.668          44.400    25804945.762   103905856.372          46.900    25804945.438   101264185.323          46.800    25804946.305   102585022.953          50.700  
E07  27112657.242   142477972.892          38.800    27112656.488   109171433.651          42.300    27112655.766   106395888.143          40.800    27112657.242   107783661.493          45.000  
E21  26295737.594   138185057.635          42.200    26295737.293   105882063.753          46.300    26295736.273   103190150.052          44.600    26295737.250   104536109.004          49.100  
E13  23758378.875   124851160.112          48.200    23758376.672    95665184.493          53.300    23758376.840    93233020.388          52.800    23758377.426    94449102.542          56.600  
E08  22684486.703   119207801.672          48.000    22684484.059    91341041.001          51.100    22684484.375    89018814.180          51.000    22684484.719    90179929.691          54.700  
E27  27361700.344   143786734.434          38.200    27361698.910   110174259.600          42.100    27361699.863   107373220.407          42.300    27361699.984   108773740.108          45.600  
E15  24782709.023   130234101.793          46.200    24782708.852    99789808.943          49.600    24782708.539    97252783.132          50.000    24782709.434    98521299.146          53.100  
> 2021 03 19 12 00 48.0000000  0 24                     
G17  20343198.867   106904317.821          51.000    20343198.109    83302058.063          56.100    20343198.070    83302047.814          51.500                                                  
G03  21953372.648   115365797.007          46.200    21953374.492    89895487.668          35.500    21953374.617    89895463.432          46.400    21953374.551    86149823.199          52.500  
G09  22629804.789   118920462.915          41.800    22629806.406    92665297.316          32.800    22629806.410    92665285.063          44.500    22629806.297    88804234.015          49.600  
G28  22480590.977   118136340.308          42.200    22480590.172    92054301.948          28.900                                                                                                  
G04  22413226.578   117782353.561          43.800    22413228.133    91778441.683          31.000    22413227.555    91778433.438          45.000    22413229.949    87954332.476          48.900  
G06  21963107.289   115416922.334          44.200    21963109.934    89935328.306          47.200    21963110.355    89935309.054          47.000    21963109.742    86188007.353          51.000  
G01  23899822.711   125594588.491          37.400    23899825.957    97866019.588          21.800    23899825.531    97865964.335          39.200    23899824.195    93788225.175          45.200  
J07  37283215.938   195924652.016          39.400    37283216.113   195924646.301          42.200    37283210.688   195924676.230          45.500    37283215.184   152668561.963          47.700    37283218.063   146307372.824          51.500  
J01  37092469.586   194922328.019          44.600    37092470.141   194922296.262          47.900    37092467.848   194922278.506          44.900    37092468.602   151887514.789          46.000    37092471.613   145558870.427          51.200  
J02  37500444.047   197066186.758          37.400    37500444.145   197066171.026          41.100    37500440.957   197066153.352          37.500    37500443.754   153558057.082          39.000    37500446.883   147159806.031          45.100  
J03  38332450.555   201438436.115          47.600    38332450.941   201438424.364          51.600    38332447.199   201438404.002          49.700    38332450.219   156965010.920          52.300    38332453.012   150424802.638          55.600  
G19  20539294.266   107934750.333          46.600    20539291.520    84105022.596          42.000                                                                                                  
G02  25191415.039   132381793.277          34.000    25191412.574   103154639.813          16.300                                                                                                  
G14  23186777.359   121847391.188          38.800    23186777.301    94946017.168          24.700    23186776.773    94946007.923          42.000    23186781.172    90989925.573          47.300  
G22  24515249.273   128828576.203          36.400    24515245.664   100385928.234          21.500                                                                                                  
E01  27661463.531   145361976.187          38.200    27661461.410   111381257.278          42.700    27661462.727   108549528.151          43.000    27661462.523   109965394.318          46.500  
E26  26321816.164   138322080.323          39.000    26321815.484   105987049.508          43.000    26321815.781   103292464.010          43.400    26321816.777   104639756.862          47.000  
E03  25805131.000   135606904.929          44.000    25805129.668   103906597.520          46.900    25805129.395   101264907.640          46.800    25805130.375   102585754.690          50.300  
E07  27112076.656   142474923.264          38.800    27112076.184   109169096.901          42.500    27112075.359   106393610.843          41.000    27112076.910   107781354.475          45.600  
E21  26296059.656   138186750.037          42.000    26296059.430   105883360.543          46.200    26296058.379   103191413.871          44.600    26296059.309   104537389.303          49.200  
E13  23758261.836   124850545.450          48.600    23758259.621    95664713.519          52.900    23758259.797    93232561.392          52.700    23758260.445    94448637.563          56.500  
E08  22684167.445   119206123.528          48.200    22684164.707    91339755.154          51.300    22684165.051    89017561.019          51.000    22684165.375    90178660.185          54.600  
E27  27362236.031   143789549.741          38.600    27362234.469   110176416.781          41.900    27362235.449   107375322.754          41.800    27362235.730   108775869.867          45.600  
E15  24782927.570   130235249.080          46.000    24782927.051    99790688.046          49.400    24782926.832    97253639.878          50.000    24782927.758    98522167.065          53.100  
> 2021 03 19 12 00 49.0000000  0 24                     
G17  20343117.797   106903891.936          50.600    20343117.078    83301726.211          55.900    20343116.984    83301715.955          51.700                                                  
G03  21953892.195   115368530.088          46.000    21953894.457    89897617.340          36.200    21953894.512    89897593.100          46.400    21953894.586    86151864.136          52.100  
G09  22629286.414   118917740.732          42.000    22629288.410    92663176.140          32.700    22629288.402    92663163.891          44.900    22629288.340    88802201.232          49.600  
G28  22481094.320   118138987.137          42.000    22481093.699    92056364.397          27.600                                                                                                  
G04  22413026.805   117781302.911          43.600    22413028.266    91777622.998          31.500    22413027.602    91777614.743          45.000    22413029.957    87953547.896          48.500  
G06  21962794.227   115415277.078          44.200    21962796.945    89934046.288          47.200    21962796.969    89934027.043          46.900    21962796.586    86186778.750          51.400  
G01  23900313.484   125597168.570          36.800    23900317.148    97868030.053          22.000    23900317.020    97867974.808          39.300    23900315.074    93790151.885          45.100  
J07  37283216.469   195924653.430          39.000    37283216.500   195924647.690          42.300    37283210.473   195924677.651          45.900    37283215.117   152668563.069          47.500    37283218.383   146307373.878          51.500  
J01  37092501.016   194922492.936          44.400    37092501.691   194922461.194          47.900    37092499.047   194922443.430          44.600    37092499.742   151887643.312          46.200    37092503.070   145558993.588          51.200  
J02  37500542.047   197066698.736          37.800    37500541.727   197066683.001          41.100    37500538.328   197066665.330          37.900    37500541.262   153558456.041          38.800    37500544.363   147160188.361          45.100  
J03  38332330.227   201437802.025          48.000    38332330.367   201437790.295          51.600    38332326.879   201437769.905          49.500    38332329.438   156964516.839          52.100    38332332.313   150424329.134          55.400  
G19  20538968.109   107933035.649          47.200    20538965.219    84103686.480          42.100                                                                                                  
G02  25191010.344   132379668.571          34.400    25191008.305   103152984.195          15.600                                                                                                  
G14  23187391.289   121850618.868          38.800    23187391.535    94948532.243          25.800    23187391.242    94948522.979          42.100    23187395.273    90992335.823          47.300  
G22  24515864.383   128831805.940          36.600    24515860.402   100388444.927          20.900                                                                                                  
E01  27661375.844   145361513.728          38.000    27661373.461   111380902.917          42.700    27661374.559   108549182.813          43.400    27661374.559   109965044.468          46.800  
E26  26321461.031   138320214.517          39.000    26321460.379   105985619.878          43.100    26321460.832   103291070.730          43.300    26321461.730   104638345.409          46.800  
E03  25805315.164   135607872.616          43.600    25805313.961   103907338.999          47.200    25805313.637   101265630.271          47.300    25805314.516   102586486.739          50.700  
E07  27111496.352   142471873.713          39.200    27111495.848   109166760.210          43.000    27111495.215   106391333.549          40.900    27111496.625   107779047.479          45.700  
E21  26296382.023   138188442.835          42.000    26296381.547   105884657.602          45.900    26296380.652   103192677.946          44.600    26296381.430   104538669.877          48.800  
E13  23758144.898   124849930.877          48.600    23758142.656    95664242.615          52.700    23758142.910    93232102.460          52.900    23758143.504    94448172.643          56.200  
E08  22683848.211   119204445.767          48.000    22683845.371    91338469.602          51.200    22683845.832    89016308.151          51.000    22683846.098    90177390.978          54.600  
E27  27362772.148   143792365.027          38.400    27362770.438   110178573.948          42.300    27362771.129   107377425.071          42.000    27362771.465   108777999.606          45.900  
E15  24783145.977   130236396.489          45.600    24783145.461    99791567.223          49.300    24783145.113    97254496.704          49.900    24783146.098    98523035.063          53.200  
> 2021 03 19 12 00 50.0000000  0 24                     
G17  20343036.477   106903466.475          50.200    20343036.090    83301394.680          56.100    20343036.176    83301384.439          51.600                                                  
G03  21954412.805   115371263.404          46.000    21954414.648    89899747.200          35.900    21954414.855    89899722.961          46.700    21954414.629    86153905.249          51.900  
G09  22628768.688   118915018.801          42.000    22628770.422    92661055.153          33.100    22628770.293    92661042.921          45.000    22628770.430    88800168.640          49.600  
G28  22481598.211   118141634.206          42.400    22481597.324    92058427.052          28.300                                                                                                  
G04  22412826.633   117780252.782          42.800    22412828.371    91776804.710          31.700    22412827.895    91776796.462          45.300    22412830.055    87952763.713          48.500  
G06  21962481.188   115413631.863          44.400    21962483.801    89932764.302          47.100    21962484.145    89932745.059          47.200    21962483.617    86185550.187          51.200  
G01  23900804.914   125599748.707          37.400    23900808.105    97870040.539          21.500    23900807.930    97869985.293          39.100    23900806.105    93792078.586          45.400  
J07  37283216.789   195924654.803          39.200    37283216.746   195924649.071          42.200    37283211.023   195924679.016          46.000    37283215.398   152668564.129          47.500    37283218.570   146307374.907          51.700  
J01  37092532.797   194922657.916          44.400    37092532.945   194922626.167          47.900    37092530.523   194922608.403          44.200    37092531.121   151887771.855          45.500    37092534.516   145559116.782          50.900  
J02  37500639.414   197067210.699          37.800    37500638.996   197067194.932          41.300    37500635.652   197067177.300          37.900    37500638.434   153558854.941          38.500    37500641.797   147160570.647          45.100  
J03  38332209.531   201437167.879          48.000    38332209.645   201437156.128          51.500    38332205.855   201437135.759          49.900    38332208.719   156964022.690          52.200    38332211.660   150423855.574          55.600  
G19  20538641.836   107931321.387          46.800    20538639.027    84102350.694          42.300                                                                                                  
G02  25190605.984   132377543.922          33.600    25190604.043   103151328.598          15.600                                                                                                  
G14  23188006.008   121853846.599          39.000    23188005.906    94951047.355          26.200    23188005.617    94951038.082          41.800    23188009.465    90994746.152          47.500  
G22  24516478.641   128835035.717          36.200    24516475.000   100390961.619          21.300                                                                                                  
E01  27661287.734   145361051.669          38.200    27661285.309   111380548.876          42.600    27661286.641   108548837.761          43.800    27661286.617   109964694.933          46.900  
E26  26321106.016   138318348.657          38.400    26321105.270   105984190.185          43.300    26321105.664   103289677.395          43.400    26321106.680   104636933.899          47.300  
E03  25805499.242   135608840.736          43.600    25805497.961   103908080.796          47.600    25805497.953   101266353.204          47.600    25805498.730   102587219.101          50.700  
E07  27110916.250   142468824.070          39.200    27110915.617   109164423.498          43.000    27110914.891   106389056.235          41.100    27110916.270   107776740.470          45.900  
E21  26296704.078   138190135.862          42.200    26296703.766   105885954.868          45.700    26296702.770   103193942.240          44.800    26296703.633   104539950.661          48.700  
E13  23758027.898   124849316.353          48.000    23758025.746    95663771.739          52.600    23758025.965    93231643.552          52.900    23758026.559    94447707.747          56.500  
E08  22683528.836   119202768.340          47.800    22683526.125    91337184.298          51.600    22683526.551    89015055.525          50.900    22683526.891    90176122.018          54.900  
E27  27363307.406   143795180.221          38.600    27363306.043   110180731.047          42.100    27363306.957   107379527.314          41.900    27363307.195   108780129.285          46.100  
E15  24783364.102   130237543.954          46.200    24783363.867    99792446.445          49.100    24783363.578    97255353.573          49.900    24783364.465    98523903.103          53.300  
> 2021 03 19 12 00 51.0000000  0 24                     
G17  20342955.875   106903041.534          50.400    20342955.273    83301063.559          55.800    20342955.176    83301053.302          51.400                                                  
G03  21954933.000   115373997.036          46.000    21954934.867    89901877.301          36.000    21954935.086    89901853.054          46.700    21954934.910    86155946.597          51.800  
G09  22628250.945   118912297.234          42.000    22628252.516    92658934.448          32.700    22628252.430    92658922.214          45.000    22628252.492    88798136.290          49.600  
G28  22482102.375   118144281.559          42.400    22482101.137    92060489.925          28.500                                                                                                  
G04  22412627.336   117779203.259          42.400    22412628.523    91775986.897          30.800    22412628.199    91775978.632          45.300    22412630.340    87951979.965          48.600  
G06  21962167.273   115411986.857          44.600    21962170.793    89931482.485          47.000    21962170.891    89931463.229          47.500    21962170.547    86184321.762          51.200  
G01  23901295.313   125602328.851          37.200    23901299.102    97872051.068          22.000    23901298.629    97871995.786          39.400    23901297.320    93794005.319          45.300  
J07  37283216.914   195924656.187          38.600    37283217.117   195924650.459          42.100    37283211.648   195924680.401          46.200    37283216.055   152668565.215          47.700    37283218.875   146307375.945          51.800  
J01  37092564.102   194922822.994          44.400    37092564.316   194922791.243          48.000    37092561.902   194922773.488          44.900    37092562.324   151887900.494          45.600    37092565.957   145559240.053          50.900  
J02  37500736.469   197067722.642          37.800    37500736.480   197067706.917          41.200    37500733.117   197067689.235          38.300    37500735.844   153559253.880          38.600    37500739.258   147160952.972          44.700  
J03  38332089.109   201436533.702          48.400    38332088.914   201436521.958          51.600    38332085.676   201436501.582          49.800    38332088.309   156963528.528          52.300    38332090.934   150423382.005          55.400  
G19  20538315.711   107929607.586          46.800    20538312.902    84101015.258          42.000                                                                                                  
G02  25190201.344   132375419.245          33.400    25190199.676   103149672.975          16.300                                                                                                  
G14  23188619.344   121857074.532          39.200    23188620.223    94953562.628          26.000    23188619.875    94953553.364          41.900    23188623.672    90997156.624          47.800  
G22  24517093.180   128838265.502          36.200    24517089.570   100393478.372          21.100                                                                                                  
E01  27661199.898   145360590.127          38.000    27661197.664   111380195.222          43.000    27661198.961   108548493.093          43.800    27661198.785   109964345.753          47.100  
E26  26320750.945   138316482.810          38.400    26320750.410   105982760.512          42.900    26320750.758   103288284.053          43.500    26320751.625   104635522.388          47.300  
E03  25805683.484   135609809.277          43.600    25805682.414   103908822.935          47.600    25805682.305   101267076.476          47.300    25805683.051   102587951.808          50.700  
E07  27110335.953   142465774.500          39.000    27110335.305   109162086.823          43.000    27110334.633   106386778.949          41.200    27110335.965   107774433.496          45.900  
E21  26297026.359   138191829.274          42.400    26297026.047   105887252.420          45.800    26297024.813   103195206.786          44.500    26297025.855   104541231.713          48.500  
E13  23757911.148   124848701.890          48.200    23757908.895    95663300.928          52.400    23757908.957    93231184.719          52.400    23757909.641    94447242.927          56.200  
E08  22683209.828   119201091.334          47.800    22683207.031    91335899.306          51.400    22683207.402    89013803.207          51.000    22683207.762    90174853.362          54.700  
E27  27363843.070   143797995.420          38.600    27363841.574   110182888.118          41.900    27363842.414   107381629.557          42.100    27363842.891   108782258.941          46.000  
E15  24783582.633   130238691.518          46.000    24783582.188    99793325.750          49.000    24783581.945    97256210.527          49.800    24783582.836    98524771.247          53.300  
> 2021 03 19 12 00 52.0000000  0 24                     
G17  20342875.055   106902617.073          50.600    20342874.488    83300732.807          55.800    20342874.457    83300722.551          51.600                                                  
G03  21955453.297   115376730.974          45.600    21955455.199    89904007.640          35.800    21955455.152    89903983.380          46.800    21955455.133    86157988.165          51.900  
G09  22627732.789   118909576.011          42.000    22627734.613    92656814.019          32.600    22627734.418    92656801.773          45.000    22627734.680    88796104.198          49.700  
G28  22482606.172   118146929.269          42.400    22482604.965    92062553.077          28.400                                                                                                  
G04  22412427.375   117778154.269          42.400    22412428.855    91775169.508          30.800    22412428.293    91775161.252          45.200    22412430.754    87951196.634          48.700  
G06  21961855.070   115410341.963          44.600    21961857.844    89930200.744          47.100    21961858.000    89930181.492          47.300    21961857.445    86183093.445          51.100  
G01  23901785.938   125604909.076          37.200    23901790.082    97874061.610          22.000    23901789.902    97874006.361          39.700    23901788.016    93795932.094          45.200  
J07  37283217.078   195924657.615          38.800    37283217.156   195924651.857          42.200    37283211.629   195924681.829          45.800    37283216.355   152668566.319          47.500    37283219.098   146307376.996          51.900  
J01  37092595.625   194922988.171          43.800    37092595.816   194922956.414          47.900    37092593.492   194922938.657          44.800    37092594.203   151888029.212          45.300    37092597.336   145559363.412          50.800  
J02  37500834.352   197068234.674          38.200    37500833.641   197068218.899          41.100    37500830.688   197068201.268          38.200    37500833.227   153559652.843          38.700    37500836.602   147161335.299          44.600  
J03  38331967.945   201435899.522          47.600    38331968.160   201435887.757          51.700    38331964.750   201435867.402          49.100    38331967.512   156963034.348          52.300    38331970.391   150422908.419          55.300  
G19  20537989.453   107927894.265          46.800    20537986.938    84099680.206          42.000                                                                                                  
G02  25189797.172   132373294.592          33.400    25189795.184   103148017.444          14.800                                                                                                  
G14  23189233.430   121860302.595          38.800    23189234.605    94956078.005          25.000    23189233.863    94956068.763          41.900    23189237.918    90999567.195          47.600  
G22  24517707.953   128841495.350          35.800    24517704.320   100395995.127          21.300                                                                                                  
E01  27661112.023   145360129.024          38.000    27661109.719   111379841.914          42.800    27661111.227   108548148.774          43.500    27661111.043   109963996.944          47.000  
E26  26320395.914   138314616.940          38.600    26320395.387   105981330.808          42.600    26320395.711   103286890.702          43.600    26320396.531   104634110.853          47.300  
E03  25805868.055   135610778.298          43.600    25805866.785   103909565.436          47.100    25805866.688   101267800.081          47.300    25805867.457   102588684.862          50.700  
E07  27109755.797   142462724.986          38.800    27109755.039   109159750.166          43.200    27109754.336   106384501.728          41.600    27109755.656   107772126.558          46.400  
E21  26297348.641   138193523.018          42.400    26297348.398   105888550.219          46.200    26297347.219   103196471.597          44.600    26297348.168   104542513.009          48.900  
E13  23757794.172   124848087.556          48.200    23757791.930    95662830.205          52.500    23757792.094    93230725.957          52.800    23757792.727    94446778.180          56.100  
E08  22682890.789   119199414.697          48.200    22682887.965    91334614.619          51.400    22682888.488    89012551.184          51.000    22682888.715    90173585.005          54.500  
E27  27364378.813   143800810.535          38.800    27364377.477   110185045.162          41.600    27364378.363   107383731.782          42.000    27364378.598   108784388.579          46.100  
E15  24783801.023   130239839.223          46.600    24783800.469    99794205.158          49.100    24783800.289    97257067.572          50.000    24783801.234    98525639.468          53.600  
> 2021 03 19 12 00 53.0000000  0 24                     
G17  20342794.617   106902193.097          50.000    20342793.781    83300402.435          56.000    20342793.520    83300392.186          51.500                                                  
G03  21955973.500   115379465.212          45.600    21955975.395    89906138.215          36.200    21955975.656    89906113.960          46.400    21955975.414    86160029.968          51.800  
G09  22627215.500   118906855.082          42.000    22627216.816    92654693.823          33.100    22627216.863    92654681.579          44.900    22627216.961    88794072.342          49.700  
G28  22483109.906   118149577.236          42.400    22483108.992    92064616.430          28.500                                                                                                  
G04  22412228.148   117777105.900          42.600    22412229.355    91774352.597          30.400    22412228.797    91774344.332          45.100    22412231.344    87950413.752          48.400  
G06  21961541.797   115408697.240          44.400    21961544.926    89928919.148          47.200    21961544.965    89928899.883          47.200    21961544.473    86181865.226          51.000  
G01  23902276.953   125607489.270          37.400    23902281.168    97876072.133          21.300    23902280.930    97876016.899          39.800    23902278.945    93797858.895          45.500  
J07  37283217.383   195924659.022          38.600    37283217.426   195924653.276          42.200    37283212.063   195924683.243          45.600    37283216.547   152668567.421          47.600    37283219.438   146307378.056          52.100  
J01  37092627.086   194923153.473          43.600    37092627.266   194923121.722          48.000    37092624.820   194923103.959          44.600    37092625.453   151888158.012          45.400    37092628.754   145559486.836          50.700  
J02  37500931.938   197068746.675          38.200    37500931.289   197068730.914          40.900    37500927.738   197068713.275          38.400    37500930.883   153560051.810          39.200    37500934.152   147161717.673          44.600  
J03  38331847.273   201435265.306          46.800    38331847.547   201435253.547          51.600    38331844.145   201435233.185          49.100    38331846.699   156962540.159          52.400    38331849.598   150422434.820          55.200  
G19  20537663.586   107926181.429          46.800    20537660.895    84098345.527          42.100                                                                                                  
G02  25189393.266   132371169.990          33.400    25189390.895   103146361.900          15.600                                                                                                  
G14  23189848.313   121863530.869          39.000    23189848.891    94958593.547          25.600    23189848.578    94958584.279          41.700    23189852.250    91001977.898          47.600  
G22  24518322.445   128844725.209          36.200    24518319.051   100398511.889          21.100                                                                                                  
E01  27661024.289   145359668.427          38.000    27661022.184   111379488.982          42.600    27661023.391   108547804.807          43.500    27661023.402   109963648.495          46.900  
E26  26320041.078   138312751.090          38.400    26320039.930   105979901.118          42.900    26320040.547   103285497.365          43.200    26320041.488   104632699.347          47.100  
E03  25806052.297   135611747.767          43.600    25806051.313   103910308.257          47.300    25806051.164   101268524.048          46.800    25806051.945   102589418.252          50.300  
E07  27109175.391   142459675.532          38.600    27109174.629   109157413.556          43.000    27109174.223   106382224.524          41.700    27109175.383   107769819.636          46.300  
E21  26297670.883   138195217.086          42.400    26297670.660   105889848.283          46.200    26297669.637   103197736.665          44.800    26297670.543   104543794.574          48.800  
E13  23757677.336   124847473.321          48.600    23757675.078    95662359.553          52.600    23757675.121    93230267.273          52.900    23757675.836    94446313.516          56.200  
E08  22682571.750   119197738.472          48.400    22682569.086    91333330.238          51.300    22682569.422    89011299.459          50.900    22682569.730    90172316.952          54.500  
E27  27364914.422   143803625.634          38.800    27364913.082   110187202.185          41.700    27364913.863   107385833.950          41.800    27364914.301   108786518.183          45.600  
E15  24784019.391   130240987.027          46.000    24784019.055    99795084.650          49.200    24784018.789    97257924.704          50.000    24784019.668    98526507.781          53.500  
> 2021 03 19 12 00 54.0000000  0 24                     
G17  20342713.703   106901769.560          49.600    20342713.172    83300072.408          56.000    20342713.063    83300062.154          51.300                                                  
G03  21956494.008   115382199.681          45.800    21956495.770    89908268.970          36.500    21956495.938    89908244.708          46.400    21956495.789    86162071.937          52.000  
G09  22626697.336   118904134.437          42.200    22626699.234    92652573.836          32.500    22626698.973    92652561.588          45.000    22626699.168    88792040.688          49.600  
G28  22483614.047   118152225.434          42.600    22483612.949    92066679.965          28.200                                                                                                  
G04  22412028.172   117776058.006          42.400    22412029.926    91773536.063          30.800    22412029.250    91773527.805          45.200    22412031.805    87949631.244          48.800  
G06  21961228.953   115407052.575          45.000    21961231.813    89927637.586          47.300    21961231.988    89927618.348          47.100    21961231.551    86180637.084          50.800  
G01  23902768.273   125610069.491          37.400    23902772.199    97878082.706          21.500    23902771.715    97878027.450          39.900    23902770.023    93799785.683          45.800  
J07  37283217.773   195924660.380          38.400    37283217.504   195924654.652          42.300    37283212.184   195924684.601          45.600    37283216.586   152668568.484          47.900    37283219.602   146307379.070          52.300  
J01  37092658.555   194923318.787          44.200    37092658.730   194923287.043          48.000    37092656.070   194923269.273          44.100    37092656.898   151888286.829          45.800    37092660.246   145559610.291          50.900  
J02  37501028.672   197069258.645          37.600    37501028.629   197069242.887          40.900    37501025.715   197069225.246          38.100    37501028.133   153560450.749          38.800    37501031.328   147162099.975          44.400  
J03  38331726.836   201434630.993          47.200    38331726.789   201434619.242          51.500    38331723.484   201434598.872          49.100    38331726.023   156962045.900          52.300    38331728.891   150421961.148          55.600  
G19  20537337.180   107924468.981          46.800    20537335.207    84097011.156          42.000                                                                                                  
G02  25188988.953   132369045.214          33.600    25188986.578   103144706.210          17.400                                                                                                  
G14  23190462.789   121866759.209          38.400    23190463.336    94961109.133          27.000    23190462.609    94961099.875          41.800    23190466.633    91004388.688          47.800  
G22  24518937.375   128847955.029          35.800    24518933.684   100401028.635          20.900                                                                                                  
E01  27660937.172   145359208.182          38.000    27660934.477   111379136.327          42.500    27660936.000   108547461.132          43.600    27660935.828   109963300.344          46.700  
E26  26319685.555   138310885.101          38.600    26319685.219   105978471.357          43.000    26319685.492   103284103.938          43.300    26319686.406   104631287.762          47.000  
E03  25806236.859   135612717.588          43.800    25806235.824   103911051.390          47.500    25806235.707   101269248.268          46.900    25806236.496   102590151.933          50.200  
E07  27108594.906   142456625.982          39.400    27108594.500   109155076.912          43.400    27108593.836   106379947.272          41.600    27108595.066   107767512.695          46.300  
E21  26297993.391   138196911.462          42.400    26297993.199   105891146.563          46.000    26297991.922   103199001.933          44.700    26297992.957   104545076.348          48.900  
E13  23757560.391   124846859.087          48.200    23757558.180    95661888.918          52.500    23757558.363    93229808.600          52.900    23757558.961    94445848.863          56.000  
E08  22682252.703   119196062.568          48.600    22682250.078    91332046.105          51.400    22682250.465    89010047.964          50.900    22682250.813    90171049.133          54.600  
E27  27365450.469   143806440.631          39.000    27365448.832   110189359.137          41.700    27365449.617   107387936.068          41.900    27365449.996   108788647.699          45.700  
E15  24784237.945   130242134.891          46.200    24784237.625    99795964.168          49.000    24784237.117    97258781.869          49.800    24784238.098    98527376.124          53.100  
> 2021 03 19 12 00 55.0000000  0 24                     
G17  20342633.398   106901346.547          49.600    20342632.758    83299742.788          55.700    20342632.621    83299732.533          50.900                                                  
G03  21957014.367   115384934.479          45.800    21957016.184    89910399.981          36.300    21957016.156    89910375.727          46.600    21957016.180    86164114.162          51.800  
G09  22626180.156   118901414.129          42.000    22626181.574    92650454.112          32.200    22626181.559    92650441.892          44.900    22626181.621    88790009.301          49.700  
G28  22484117.828   118154873.938          42.400    22484117.004    92068743.738          28.300                                                                                                  
G04  22411828.859   117775010.736          42.800    22411830.453    91772720.002          31.500    22411830.281    91772711.751          44.700    22411832.625    87948849.205          48.900  
G06  21960916.164   115405408.109          44.800    21960918.961    89926356.185          47.200    21960919.094    89926336.935          47.000    21960918.668    86179409.069          51.000  
G01  23903259.227   125612649.863          37.800    23903263.105    97880093.385          20.900    23903262.828    97880038.096          39.400    23903261.070    93801712.525          45.700  
J07  37283217.883   195924661.794          38.200    37283217.887   195924656.059          42.300    37283212.477   195924686.015          45.700    37283216.965   152668569.593          48.100    37283219.934   146307380.131          52.200  
J01  37092689.969   194923484.244          44.600    37092690.254   194923452.485          48.000    37092687.750   194923434.730          44.100    37092688.711   151888415.741          45.700    37092691.789   145559733.843          50.800  
J02  37501125.820   197069770.698          37.000    37501126.004   197069754.915          40.900    37501123.125   197069737.299          38.200    37501125.664   153560849.724          39.300    37501129.098   147162482.320          44.700  
J03  38331605.891   201433996.710          47.400    38331605.898   201433984.966          51.600    38331602.539   201433964.590          49.300    38331605.574   156961551.652          52.700    38331608.156   150421487.495          55.500  
G19  20537011.570   107922757.034          46.800    20537009.406    84095677.168          42.000                                                                                                  
G02  25188584.734   132366920.605          33.200    25188582.402   103143050.684          16.300                                                                                                  
G14  23191077.375   121869987.731          38.800    23191077.508    94963624.863          25.600    23191076.672    94963615.597          42.000    23191081.004    91006799.593          47.600  
G22  24519551.563   128851184.957          36.200    24519548.348   100403545.467          20.400                                                                                                  
E01  27660849.500   145358748.489          38.400    27660847.137   111378784.100          42.700    27660848.375   108547117.849          43.400    27660848.336   109962952.578          46.700  
E26  26319330.648   138309019.143          38.800    26319330.148   105977041.607          42.800    26319330.297   103282710.554          43.600    26319331.313   104629876.188          47.200  
E03  25806421.898   135613687.957          44.000    25806420.480   103911794.898          47.200    25806420.406   101269972.889          46.800    25806421.141   102590885.994          50.200  
E07  27108014.883   142453576.538          39.000    27108014.273   109152740.322          43.400    27108013.691   106377670.095          42.100    27108014.816   107765205.808          46.500  
E21  26298315.719   138198606.186          42.400    26298315.727   105892445.115          45.700    26298314.484   103200267.476          44.600    26298315.453   104546358.396          48.700  
E13  23757443.477   124846245.011          48.800    23757441.336    95661418.377          52.700    23757441.379    93229350.027          52.700    23757442.098    94445384.302          56.000  
E08  22681933.867   119194387.090          48.400    22681931.410    91330762.310          51.500    22681931.574    89008796.802          50.800    22681931.984    90169781.659          54.600  
E27  27365986.023   143809255.643          39.200    27365984.398   110191516.091          41.300    27365985.238   107390038.174          42.200    27365985.672   108790777.248          45.500  
E15  24784456.313   130243282.897          45.800    24784455.957    99796843.815          49.200    24784455.637    97259639.153          49.200    24784456.555    98528244.582          52.900  
> 2021 03 19 12 00 56.0000000  0 24                     
G17  20342552.719   106900924.005          49.600    20342552.238    83299413.531          55.900    20342552.238    83299403.283          51.000                                                  
G03  21957534.836   115387669.560          45.600    21957536.816    89912531.211          36.600    21957536.730    89912506.966          46.500    21957536.590    86166156.602          51.900  
G09  22625662.500   118898694.165          42.200    22625663.961    92648334.668          32.500    22625663.734    92648322.434          44.600    22625663.992    88787978.152          49.800  
G28  22484621.602   118157522.759          42.600    22484620.883    92070807.747          28.700                                                                                                  
G04  22411630.117   117773964.022          42.400    22411631.363    91771904.386          30.600    22411631.160    91771896.143          44.300    22411633.359    87948067.577          48.800  
G06  21960603.109   115403763.769          44.200    21960605.977    89925074.880          47.200    21960606.051    89925055.632          47.200    21960605.672    86178181.154          50.900  
G01  23903750.477   125615230.116          37.800    23903754.051    97882103.975          20.900    23903753.941    97882048.723          39.900    23903752.098    93803639.373          45.600  
J07  37283218.172   195924663.202          38.400    37283217.914   195924657.460          42.300    37283212.527   195924687.414          45.800    37283217.211   152668570.682          47.800    37283220.172   146307381.174          52.300  
J01  37092721.594   194923649.767          45.000    37092721.762   194923618.032          47.900    37092719.566   194923600.253          44.300    37092719.855   151888544.742          45.600    37092723.203   145559857.468          50.700  
J02  37501223.984   197070282.688          37.000    37501223.434   197070266.944          41.100    37501220.129   197070249.288          38.300    37501223.363   153561248.733          39.300    37501226.371   147162864.687          45.000  
J03  38331485.320   201433362.385          47.600    38331485.355   201433350.648          51.600    38331481.875   201433330.265          49.400    38331484.730   156961057.371          52.800    38331487.465   150421013.821          55.500  
G19  20536686.273   107921045.563          47.400    20536683.746    84094343.558          41.800                                                                                                  
G02  25188180.578   132364795.971          34.000    25188177.906   103141395.135          15.600                                                                                                  
G14  23191691.500   121873216.398          38.800    23191691.723    94966140.711          25.600    23191691.371    94966131.456          42.200    23191695.414    91009210.617          47.600  
G22  24520166.500   128854414.833          36.200    24520163.055   100406062.247          20.600                                                                                                  
E01  27660761.945   145358289.198          37.800    27660759.672   111378432.184          42.600    27660761.012   108546774.886          43.600    27660760.953   109962605.139          46.700  
E26  26318975.758   138307153.196          39.000    26318974.922   105975611.855          43.200    26318975.309   103281317.151          43.500    26318976.227   104628464.600          47.000  
E03  25806606.258   135614658.729          44.800    25806605.289   103912538.736          47.000    25806605.164   101270697.816          47.200    25806605.875   102591620.380          50.400  
E07  27107434.281   142450527.116          39.200    27107433.883   109150403.754          43.400    27107433.406   106375392.920          42.100    27107434.500   107762898.936          46.500  
E21  26298638.516   138200301.254          42.400    26298638.301   105893743.935          46.100    26298636.863   103201533.272          44.400    26298638.008   104547640.704          48.600  
E13  23757326.742   124845630.985          48.800    23757324.410    95660947.899          52.500    23757324.563    93228891.503          52.800    23757325.254    94444919.804          55.900  
E08  22681615.227   119192711.997          48.600    22681612.559    91329478.793          51.500    22681612.848    89007545.924          51.400    22681613.215    90168514.460          54.900  
E27  27366521.547   143812070.582          39.000    27366520.004   110193673.015          41.300    27366520.867   107392140.274          42.200    27366521.320   108792906.745          45.500  
E15  24784674.766   130244431.007          45.800    24784674.441    99797723.536          49.300    24784674.000    97260496.504          49.400    24784675.004    98529113.124          52.900  
> 2021 03 19 12 00 57.0000000  0 24                     
G17  20342472.391   106900501.914          50.000    20342472.004    83299084.628          55.800    20342471.898    83299074.387          50.800                                                  
G03  21958055.328   115390404.902          46.200    21958057.371    89914662.647          36.600    21958057.352    89914638.399          46.500    21958057.180    86168199.226          51.900  
G09  22625145.164   118895974.489          42.400    22625146.426    92646215.437          32.100    22625146.352    92646203.186          44.700    22625146.379    88785947.227          49.600  
G28  22485126.328   118160171.813          42.400    22485125.000    92072871.951          29.100                                                                                                  
G04  22411430.984   117772917.875          42.200    22411432.445    91771089.204          30.900    22411431.863    91771080.950          44.900    22411434.332    87947286.351          49.100  
G06  21960290.078   115402119.541          44.200    21960293.156    89923793.670          47.300    21960293.086    89923774.413          47.300    21960292.852    86176953.315          51.300  
G01  23904241.359   125617810.467          37.000    23904245.102    97884114.637          20.900    23904244.801    97884059.360          39.400    23904243.082    93805566.252          45.500  
J07  37283218.633   195924664.600          38.200    37283218.313   195924658.855          42.300    37283213.016   195924688.813          46.300    37283217.434   152668571.771          47.400    37283220.480   146307382.210          51.800  
J01  37092752.797   194923815.376          44.600    37092753.270   194923783.641          47.900    37092750.871   194923765.870          44.300    37092751.605   151888673.782          45.700    37092754.691   145559981.123          50.600  
J02  37501321.234   197070794.749          37.400    37501321.227   197070778.931          40.900    37501317.457   197070761.343          37.900    37501320.281   153561647.703          39.100    37501324.016   147163247.031          45.200  
J03  38331364.477   201432728.010          47.800    38331364.758   201432716.259          51.600    38331360.777   201432695.891          49.500    38331364.098   156960563.050          53.000    38331366.691   150420540.089          55.400  
G19  20536360.609   107919334.508          46.800    20536358.055    84093010.266          41.900                                                                                                  
G02  25187775.797   132362671.284          34.200    25187773.688   103139739.535          16.900                                                                                                  
G14  23192306.719   121876445.182          38.400    23192306.152    94968656.629          25.900    23192306.121    94968647.419          41.800    23192309.848    91011621.732          47.800  
G22  24520780.617   128857644.753          35.400    24520777.598   100408579.052          20.400                                                                                                  
E01  27660674.992   145357830.366          38.000    27660672.305   111378080.616          42.500    27660673.625   108546432.248          43.600    27660673.645   109962258.039          46.800  
E26  26318620.484   138305287.210          39.000    26318619.855   105974182.056          43.100    26318620.207   103279923.713          43.300    26318621.148   104627052.986          46.700  
E03  25806791.250   135615629.899          44.800    25806790.207   103913282.894          46.600    25806789.934   101271423.039          46.900    25806790.707   102592355.068          50.400  
E07  27106853.813   142447477.677          39.000    27106853.711   109148067.175          43.100    27106853.074   106373115.733          42.100    27106854.227   107760592.068          46.500  
E21  26298961.258   138201996.644          42.200    26298960.949   105895042.970          46.100    26298959.535   103202799.274          44.600    26298960.637   104548923.225          49.000  
E13  23757209.750   124845017.031          48.400    23757207.672    95660477.453          52.600    23757207.766    93228433.031          52.800    23757208.430    94444455.343          55.900  
E08  22681296.563   119191037.263          48.600    22681293.941    91328195.546          51.300    22681294.152    89006295.306          51.200    22681294.531    90167247.527          54.500  
E27  27367057.422   143814885.502          38.800    27367055.648   110195829.868          41.500    27367056.441   107394242.280          42.300    27367056.996   108795036.185          45.600  
E15  24784893.320   130245579.195          46.000    24784892.879    99798603.300          49.200    24784892.566    97261353.906          49.400    24784893.508    98529981.713          52.800  
> 2021 03 19 12 00 58.0000000  0 24                     
G17  20342392.273   106900080.370          50.000    20342391.734    83298756.157          55.800    20342391.598    83298745.909          51.000                                                  
G03  21958576.109   115393140.594          46.200    21958577.973    89916794.358          36.900    21958577.668    89916770.116          46.400    21958577.781    86170242.111          51.800  
G09  22624627.414   118893255.175          42.200    22624629.113    92644096.490          32.400    22624628.656    92644084.232          44.600    22624629.047    88783916.570          49.600  
G28  22485630.242   118162821.213          42.200    22485629.156    92074936.416          29.100                                                                                                  
G04  22411232.102   117771872.326          42.600    22411233.406    91770274.496          30.600    22411233.082    91770266.248          45.000    22411235.504    87946505.593          48.600  
G06  21959977.883   115400475.507          43.800    21959980.199    89922512.599          47.200    21959980.422    89922493.347          47.000    21959979.977    86175725.628          51.000  
G01  23904732.313   125620390.854          37.200    23904736.016    97886125.324          21.300    23904735.699    97886070.090          39.400    23904734.242    93807493.176          45.300  
J07  37283219.031   195924666.054          38.200    37283218.836   195924660.276          42.300    37283212.945   195924690.275          45.800    37283217.391   152668572.889          47.600    37283220.723   146307383.288          51.700  
J01  37092784.570   194923981.123          44.600    37092784.707   194923949.374          47.900    37092782.168   194923931.617          44.600    37092782.930   151888802.933          45.500    37092786.246   145560104.897          50.700  
J02  37501418.453   197071306.786          37.000    37501418.781   197071291.027          41.100    37501415.055   197071273.388          37.600    37501417.902   153562046.705          39.200    37501421.344   147163629.421          45.200  
J03  38331243.648   201432093.649          47.600    38331244.004   201432081.904          51.600    38331240.773   201432061.528          49.100    38331243.301   156960068.743          52.500    38331246.055   150420066.379          55.400  
G19  20536035.016   107917623.971          47.000    20536032.695    84091677.383          41.800                                                                                                  
G02  25187371.578   132360546.720          33.800    25187369.445   103138084.041          15.600                                                                                                  
G14  23192920.242   121879674.206          38.600    23192920.625    94971172.779          25.400    23192920.289    94971163.514          42.200    23192924.348    91014033.010          47.400  
G22  24521395.461   128860874.769          35.800    24521392.328   100411095.985          19.600                                                                                                  
E01  27660587.977   145357372.075          38.000    27660584.992   111377729.449          42.800    27660586.484   108546090.017          43.500    27660586.434   109961911.355          47.000  
E26  26318265.188   138303421.200          38.600    26318264.793   105972752.277          43.100    26318265.211   103278530.275          43.000    26318266.090   104625641.384          46.500  
E03  25806975.984   135616601.598          44.600    25806974.938   103914027.430          47.000    25806974.836   101272148.654          46.700    25806975.578   102593090.149          50.500  
E07  27106273.531   142444428.354          39.400    27106273.301   109145730.676          43.100    27106272.750   106370838.650          42.100    27106273.922   107758285.252          46.600  
E21  26299283.742   138203692.375          42.000    26299283.453   105896342.319          45.800    26299282.270   103204065.591          44.800    26299283.336   104550206.056          48.900  
E13  23757093.055   124844403.212          48.200    23757090.789    95660007.126          52.400    23757090.965    93227974.654          53.000    23757091.613    94443990.993          55.900  
E08  22680977.953   119189362.962          48.000    22680975.250    91326912.640          51.400    22680975.555    89005045.016          50.900    22680975.914    90165980.933          54.500  
E27  27367592.984   143817700.375          39.000    27367591.262   110197986.750          41.700    27367592.219   107396344.307          42.100    27367592.629   108797165.633          45.300  
E15  24785111.859   130246727.526          46.000    24785111.297    99799483.203          49.400    24785111.145    97262211.437          49.800    24785112.031    98530850.425          53.300  
> 2021 03 19 12 00 59.0000000  0 24                     
G17  20342312.336   106899659.251          50.000    20342311.641    83298428.011          55.800    20342311.293    83298417.763          51.300                                                  
G03  21959096.445   115395876.498          46.000    21959098.492    89918926.234          36.900    21959098.637    89918901.970          46.400    21959098.254    86172285.158          52.000  
G09  22624109.898   118890536.081          42.000    22624111.434    92641977.712          32.300    22624111.313    92641965.470          44.300    22624111.656    88781886.084          49.500  
G28  22486135.055   118165470.830          42.000    22486133.336    92077001.057          28.800                                                                                                  
G04  22411033.695   117770827.287          42.600    22411034.621    91769460.176          31.500    22411034.137    91769451.915          45.100    22411036.574    87945725.194          48.500  
G06  21959664.680   115398831.530          44.400    21959667.375    89921231.581          47.200    21959667.535    89921212.331          46.800    21959667.184    86174497.980          51.100  
G01  23905223.414   125622971.227          37.400    23905227.203    97888136.010          21.500    23905226.672    97888080.743          39.200    23905225.301    93809420.075          44.900  
J07  37283219.844   195924667.390          38.600    37283219.129   195924661.652          42.300    37283213.762   195924691.603          46.000    37283218.387   152668573.954          47.500    37283220.965   146307384.306          51.700  
J01  37092816.016   194924146.892          45.200    37092816.148   194924115.144          47.900    37092813.984   194924097.378          44.600    37092814.559   151888932.103          45.500    37092817.797   145560228.681          50.700  
J02  37501515.664   197071818.788          36.800    37501516.020   197071803.054          40.900    37501512.559   197071785.388          37.700    37501515.293   153562445.680          39.200    37501518.566   147164011.769          45.100  
J03  38331123.164   201431459.196          47.200    38331123.234   201431447.445          51.700    38331119.754   201431427.076          49.300    38331122.457   156959574.360          52.600    38331125.305   150419592.595          55.600  
G19  20535709.594   107915913.828          46.800    20535707.188    84090344.804          42.200                                                                                                  
G02  25186967.289   132358421.975          34.200    25186964.945   103136428.406          16.300                                                                                                  
G14  23193534.758   121882903.268          38.800    23193534.930    94973688.933          25.800    23193534.473    94973679.683          42.000    23193538.711    91016444.333          47.300  
G22  24522010.094   128864104.713          35.800    24522006.855   100413612.799          19.300                                                                                                  
E01  27660500.477   145356914.142          37.800    27660497.902   111377378.572          42.600    27660499.211   108545748.064          43.500    27660499.297   109961564.917          46.800  
E26  26317910.359   138301555.127          39.000    26317909.730   105971322.407          43.100    26317910.023   103277136.770          42.800    26317910.957   104624229.700          46.600  
E03  25807161.008   135617573.626          45.000    25807159.762   103914772.244          47.400    25807159.820   101272874.531          46.600    25807160.555   102593825.491          50.500  
E07  27105693.438   142441378.919          39.000    27105693.336   109143394.104          43.200    27105692.688   106368561.500          42.000    27105693.641   107755978.412          46.800  
E21  26299606.492   138205388.337          42.200    26299606.484   105897641.849          46.000    26299604.977   103205332.083          44.900    26299606.082   104551489.066          49.200  
E13  23756976.242   124843789.396          48.400    23756974.066    95659536.806          52.400    23756974.121    93227516.285          53.100    23756974.813    94443526.647          55.900  
E08  22680659.281   119187688.981          48.200    22680656.734    91325629.977          51.100    22680657.082    89003794.964          51.000    22680657.371    90164714.575          54.800  
E27  27368128.555   143820515.150          38.600    27368127.055   110200143.513          42.100    27368127.813   107398446.245          41.800    27368128.297   108799294.975          45.300  
E15  24785330.406   130247875.919          45.800    24785329.984    99800363.134          49.500    24785329.590    97263068.993          49.700    24785330.566    98531719.169          53.500  
