     3.04           OBSERVATION DATA    M: Mixed            RINEX VERSION / TYPE
RTKCONV 2.4.3 b34                       20210923 065755 UTC PGM / RUN BY / DATE 
format: BINEX                                               COMMENT             
log: C:\work\gps\cssrlib\cssrlib\data\30342650.bnx          COMMENT             
                                                            MARKER NAME         
                                                            MARKER NUMBER       
                                                            MARKER TYPE         
                                                            OBSERVER / AGENCY   
                    TRIMBLE NetR9       5.37,21/SEP/2018    REC # / TYPE / VERS 
                                                            ANT # / TYPE        
 -3959403.8133  3385705.8562  3667525.8580                  APPROX POSITION XYZ 
        0.0000        0.0000        0.0000                  ANTENNA: DELTA H/E/N
G   16 C1C L1C D1C S1C C2W L2W D2W S2W C2X L2X D2X S2X C5X  SYS / # / OBS TYPES 
       L5X D5X S5X                                          SYS / # / OBS TYPES 
E   12 C1X L1X D1X S1X C7X L7X D7X S7X C5X L5X D5X S5X      SYS / # / OBS TYPES 
J   20 C1C L1C D1C S1C C1X L1X D1X S1X C1Z L1Z D1Z S1Z C2X  SYS / # / OBS TYPES 
       L2X D2X S2X C5X L5X D5X S5X                          SYS / # / OBS TYPES 
  2021    09    22    06    30   00.0000000     GPS         TIME OF FIRST OBS   
  2021    09    22    08    35   59.0000000     GPS         TIME OF LAST OBS    
G L1C                                                       SYS / PHASE SHIFT   
G L2W  0.00000                                              SYS / PHASE SHIFT   
G L2X -0.25000                                              SYS / PHASE SHIFT   
G L5X  0.00000                                              SYS / PHASE SHIFT   
E L1X  0.00000                                              SYS / PHASE SHIFT   
E L7X  0.00000                                              SYS / PHASE SHIFT   
E L5X  0.00000                                              SYS / PHASE SHIFT   
J L1C                                                       SYS / PHASE SHIFT   
J L1X  0.25000                                              SYS / PHASE SHIFT   
J L1Z  0.00000                                              SYS / PHASE SHIFT   
J L2X  0.00000                                              SYS / PHASE SHIFT   
J L5X  0.00000                                              SYS / PHASE SHIFT   
  0                                                         GLONASS SLOT / FRQ #
                                                            GLONASS COD/PHS/BIS 
                                                            END OF HEADER       
> 2021 09 22 06 30 00.0000000  0 18                     
G13  21530120.094   113141646.139       -1980.211          46.200    21530120.688    88162378.515       -1543.020          34.400                                                                                                                                  
G20  23499918.969   123492909.742       -3326.402          38.400    23499922.594    96228203.321       -2592.000          19.600                                                                                                                                  
G15  20324479.914   106805954.209        -312.074          50.000    20324480.723    83225433.092        -243.176          53.400    20324480.238    83225414.840        -243.176          49.100                                                                  
G24  20627561.602   108398821.185        2167.184          46.600    20627565.863    84466700.783        1688.715          51.600    20627565.852    84466664.532        1688.715          50.000    20627566.109    80947232.197        1618.352          55.200  
J01  38891487.367   204376141.402         226.969          46.800    38891488.020   204376143.639         226.969          49.600    38891485.707   204376165.413         226.969          47.000    38891487.484   159254137.218         176.859          49.300    38891491.227   152618547.448         169.488          54.100  
J02  37122118.172   195078192.322         342.660          42.000    37122118.031   195078226.585         342.660          44.900    37122115.379   195078216.708         342.660          42.600    37122121.582   152009053.425         267.008          44.100    37122124.426   145675352.631         255.883          47.300  
J07  37265858.133   195833369.374          -0.555          37.600    37265856.980   195833366.652          -0.555          42.100    37265852.305   195833418.591          -0.555          44.900    37265858.523   152597416.888          -0.434          47.700    37265862.250   146239189.740          -0.414          51.600  
J03  37512030.453   197126990.090        -458.383          38.400    37512030.250   197126970.327        -458.383          41.000    37512027.598   197126953.410        -458.383          37.900    37512036.883   153605412.240        -357.184          38.400    37512041.895   147205181.748        -342.301          43.400  
G18  21621309.742   113620773.674          56.832          44.600    21621311.898    88535674.891          44.285          35.900    21621311.762    88535670.634          44.285          47.900    21621315.199    84846684.606          42.438          51.900  
G05  21359990.664   112247504.568       -2084.363          46.200    21359992.137    87465633.407       -1624.180          39.400    21359992.348    87465623.157       -1624.180          46.700                                                                  
G14  24105284.664   126674150.500        -354.949          36.800    24105287.109    98707121.229        -276.586          21.700    24105287.617    98707132.976        -276.586          39.500    24105290.758    94594336.884        -265.059          44.700  
G23  22735697.805   119476921.149        2998.672          41.600    22735699.406    93098939.049        2336.629          29.600    22735699.926    93098925.809        2336.629          44.200    22735703.344    89219806.129        2239.270          48.800  
E27  25781318.789   135481794.415        2544.141          43.600    25781321.297   103810761.471        1949.406          47.400    25781321.754   101171509.854        1899.848          46.600  
E33  25420857.398   133587515.744        -723.051          44.000    25420856.906   102359267.354        -554.027          48.000    25420857.918    99756912.734        -539.941          48.800  
E26  25410752.797   133534373.840       -2685.473          43.800    25410755.465   102318543.369       -2057.699          46.700    25410756.785    99717224.808       -2005.387          46.500  
E30  24902237.273   130862183.820         249.684          45.400    24902237.473   100271035.230         191.316          47.000    24902238.805    97721774.094         186.453          46.900  
E07  24559167.391   129059334.667        -988.652          47.800    24559167.988    98889642.317        -757.539          51.500    24559168.207    96375503.523        -738.277          51.200  
E08  26367787.992   138563622.616       -1880.164          35.400    26367789.512   106172112.276       -1440.645          34.200    26367790.570   103472822.383       -1404.020          34.600  
> 2021 09 22 06 30 01.0000000  0 18                     
G13  21530496.469   113143626.189       -1980.258          46.000    21530497.414    88163921.416       -1543.059          34.900                                                                                                                                  
G20  23500551.977   123496236.040       -3326.473          39.000    23500555.484    96230795.248       -2592.055          19.600                                                                                                                                  
G15  20324538.930   106806266.202        -312.137          49.600    20324540.082    83225676.204        -243.223          53.400    20324539.613    83225657.959        -243.223          49.100                                                                  
G24  20627148.766   108396654.174        2166.711          46.400    20627153.559    84465012.201        1688.348          51.500    20627153.711    84464975.957        1688.348          50.300    20627153.699    80945613.973        1618.000          55.000  
J01  38891444.945   204375914.182         227.234          46.400    38891444.820   204375916.421         227.234          49.500    38891442.297   204375938.187         227.234          47.000    38891444.230   159253960.163         177.066          49.500    38891447.945   152618377.779         169.688          53.900  
J02  37122053.313   195077849.659         342.594          42.000    37122052.930   195077883.882         342.594          44.800    37122050.160   195077874.044         342.594          42.500    37122056.246   152008786.419         266.957          43.800    37122059.141   145675096.732         255.836          47.000  
J07  37265857.281   195833369.841          -0.551          37.800    37265857.094   195833367.088          -0.551          42.000    37265851.988   195833419.058          -0.551          44.900    37265858.867   152597417.232          -0.430          47.700    37265862.363   146239190.071          -0.410          51.500  
J03  37512117.211   197127448.318        -458.402          38.400    37512117.473   197127428.545        -458.402          41.100    37512115.039   197127411.638        -458.402          37.300    37512124.074   153605769.281        -357.195          38.400    37512129.090   147205523.919        -342.313          43.100  
G18  21621298.992   113620717.018          56.363          44.600    21621301.191    88535630.736          43.922          35.500    21621300.961    88535626.502          43.922          47.800    21621304.465    84846642.311          42.090          52.000  
G05  21360386.859   112249588.979       -2084.680          46.000    21360388.852    87467257.616       -1624.426          39.800    21360389.031    87467247.374       -1624.426          46.500                                                                  
G14  24105352.586   126674505.530        -355.305          37.000    24105354.691    98707397.878        -276.859          22.200    24105355.289    98707409.607        -276.859          39.400    24105358.379    94594601.988        -265.324          44.500  
G23  22735127.320   119473922.519        2998.504          40.800    22735128.828    93096602.449        2336.496          29.800    22735128.750    93096589.195        2336.496          44.100    22735132.648    89217566.892        2239.141          49.000  
E27  25780835.047   135479250.325        2543.953          43.000    25780837.133   103808812.108        1949.262          46.900    25780837.625   101169610.037        1899.707          46.800  
E33  25420995.055   133588238.930        -723.465          44.600    25420994.785   102359821.466        -554.344          48.500    25420995.391    99757452.772        -540.250          49.000  
E26  25411263.969   133537059.201       -2685.516          43.200    25411266.426   102320600.974       -2057.730          46.200    25411267.895    99719230.100       -2005.418          46.200  
E30  24902189.594   130861934.225         249.313          45.000    24902190.012   100270843.987         191.031          46.600    24902191.219    97721587.720         186.176          46.700  
E07  24559355.500   129060323.198        -988.582          47.800    24559356.176    98890399.771        -757.484          51.800    24559356.340    96376241.710        -738.227          51.000  
E08  26368145.391   138565502.440       -1879.859          35.000    26368147.406   106173552.615       -1440.414          34.500    26368148.262   103474226.121       -1403.793          35.100  
> 2021 09 22 06 30 02.0000000  0 18                     
G13  21530873.641   113145606.460       -1980.414          46.200    21530874.293    88165464.479       -1543.180          34.700                                                                                                                                  
G20  23501184.773   123499562.638       -3326.805          38.400    23501188.570    96233387.408       -2592.316          20.100                                                                                                                                  
G15  20324598.156   106806578.541        -312.633          49.800    20324599.496    83225919.590        -243.609          53.300    20324599.117    83225901.338        -243.609          49.100                                                                  
G24  20626736.922   108394487.730        2166.047          46.200    20626741.242    84463324.070        1687.828          51.700    20626741.426    84463287.820        1687.828          50.000    20626741.387    80943996.170        1617.500          55.000  
J01  38891401.234   204375686.922         227.230          46.600    38891401.484   204375689.174         227.230          49.700    38891399.453   204375710.934         227.230          47.000    38891400.969   159253783.083         177.063          49.300    38891404.801   152618208.069         169.688          53.900  
J02  37121987.398   195077507.073         342.441          41.800    37121987.914   195077541.307         342.441          45.100    37121984.605   195077531.460         342.441          43.000    37121990.988   152008519.455         266.836          43.800    37121993.898   145674840.914         255.719          47.100  
J07  37265857.805   195833370.306          -0.570          38.000    37265857.457   195833367.560          -0.570          42.100    37265852.621   195833419.523          -0.570          44.900    37265858.785   152597417.607          -0.445          47.500    37265862.422   146239190.427          -0.426          51.400  
J03  37512204.664   197127906.531        -458.281          38.400    37512204.234   197127886.771        -458.281          40.900    37512202.066   197127869.851        -458.281          37.600    37512211.742   153606126.333        -357.102          38.500    37512216.465   147205866.086        -342.223          43.500  
G18  21621287.828   113620661.101          55.480          44.400    21621290.469    88535587.168          43.230          35.800    21621290.504    88535582.907          43.230          47.200    21621293.727    84846600.535          41.430          51.900  
G05  21360783.766   112251673.854       -2085.160          46.000    21360785.684    87468882.196       -1624.801          39.600    21360785.598    87468871.946       -1624.801          46.700                                                                  
G14  24105419.508   126674861.132        -355.844          37.000    24105422.305    98707674.959        -277.281          23.900    24105422.496    98707686.740        -277.281          39.400    24105425.996    94594867.557        -265.727          44.500  
G23  22734557.242   119470924.051        2998.336          41.400    22734558.223    93094265.983        2336.363          30.300    22734558.254    93094252.753        2336.363          43.900    22734562.156    89215327.780        2239.016          48.900  
E27  25780350.859   135476706.471        2543.648          43.400    25780353.039   103806862.904        1949.027          46.800    25780353.617   101167710.402        1899.477          47.000  
E33  25421132.875   133588962.603        -723.992          44.800    25421132.207   102360375.981        -554.750          48.300    25421133.043    99757993.169        -540.645          49.200  
E26  25411774.938   133539744.773       -2685.738          43.600    25411777.398   102322658.740       -2057.902          46.300    25411778.801    99721235.561       -2005.582          46.100  
E30  24902142.188   130861685.163         248.660          45.200    24902142.617   100270653.126         190.535          46.700    24902143.902    97721401.720         185.688          46.500  
E07  24559543.594   129061311.860        -988.766          47.600    24559544.199    98891157.312        -757.625          51.500    24559544.492    96376979.998        -738.363          51.200  
E08  26368503.336   138567382.287       -1880.102          34.800    26368504.934   106174993.056       -1440.598          34.600    26368506.168   103475629.923       -1403.973          35.200  
> 2021 09 22 06 30 03.0000000  0 18                     
G13  21531250.461   113147586.890       -1980.621          46.600    21531251.227    88167007.672       -1543.340          35.400                                                                                                                                  
G20  23501817.563   123502889.474       -3327.008          39.000    23501821.539    96235979.738       -2592.473          20.400                                                                                                                                  
G15  20324657.875   106806891.172        -312.867          49.600    20324658.988    83226163.195        -243.793          53.400    20324658.539    83226144.950        -243.793          49.100                                                                  
G24  20626324.461   108392321.814        2165.508          46.400    20626328.949    84461636.346        1687.406          51.400    20626329.316    84461600.094        1687.406          49.800    20626329.270    80942378.773        1617.098          55.000  
J01  38891358.086   204375459.586         227.324          46.200    38891358.258   204375461.838         227.324          49.500    38891356.156   204375483.590         227.324          46.800    38891357.555   159253605.931         177.137          49.000    38891361.543   152618038.319         169.754          53.800  
J02  37121922.375   195077164.554         342.395          41.800    37121922.781   195077198.802         342.395          44.900    37121919.438   195077188.939         342.395          42.800    37121926.199   152008252.555         266.801          43.700    37121928.855   145674585.149         255.688          47.600  
J07  37265857.766   195833370.820          -0.676          38.400    37265857.617   195833368.053          -0.676          42.000    37265852.586   195833420.045          -0.676          45.000    37265858.832   152597417.982          -0.527          47.500    37265862.297   146239190.797          -0.504          51.500  
J03  37512291.930   197128364.769        -458.336          38.400    37512291.551   197128345.028        -458.336          40.900    37512288.992   197128328.082        -458.336          38.200    37512298.621   153606483.398        -357.145          37.900    37512303.465   147206208.280        -342.266          43.600  
G18  21621277.547   113620605.827          54.844          44.600    21621279.855    88535544.096          42.734          36.000    21621279.934    88535539.862          42.734          47.400    21621283.313    84846559.275          40.953          51.900  
G05  21361180.609   112253759.135       -2085.582          46.400    21361182.379    87470507.090       -1625.129          40.100    21361182.539    87470496.848       -1625.129          46.700                                                                  
G14  24105487.906   126675217.369        -356.621          37.800    24105490.094    98707952.552        -277.887          22.500    24105490.699    98707964.306        -277.887          38.900    24105493.746    94595133.555        -266.309          44.100  
G23  22733985.781   119467925.747        2998.152          41.800    22733987.750    93091929.646        2336.223          29.800    22733987.961    93091916.414        2336.223          44.500    22733991.492    89213088.795        2238.883          48.800  
E27  25779866.953   135474162.797        2543.457          43.400    25779869.020   103804913.871        1948.883          47.200    25779869.602   101165810.912        1899.332          46.800  
E33  25421270.602   133589686.754        -724.449          44.200    25421270.199   102360930.853        -555.098          48.500    25421270.836    99758533.942        -540.984          49.200  
E26  25412286.063   133542430.551       -2685.945          43.600    25412288.461   102324716.675       -2058.063          46.300    25412289.969    99723241.162       -2005.738          45.900  
E30  24902094.945   130861436.563         248.281          45.000    24902095.352   100270462.661         190.242          47.000    24902096.395    97721216.076         185.402          46.600  
E07  24559731.648   129062300.609        -988.887          47.600    24559732.398    98891914.907        -757.719          51.400    24559732.637    96377718.338        -738.457          51.500  
E08  26368861.430   138569262.142       -1880.031          35.000    26368862.707   106176433.443       -1440.543          34.700    26368863.672   103477033.740       -1403.918          35.100  
> 2021 09 22 06 30 04.0000000  0 18                     
G13  21531627.391   113149567.432       -1980.594          46.800    21531628.164    88168550.955       -1543.320          35.200                                                                                                                                  
G20  23502451.328   123506216.469       -3327.020          39.200    23502454.723    96238572.215       -2592.484          19.900                                                                                                                                  
G15  20324717.703   106807204.075        -313.070          49.600    20324718.469    83226407.018        -243.949          53.300    20324718.254    83226388.780        -243.949          48.800                                                                  
G24  20625912.344   108390156.405        2165.184          46.200    20625916.984    84459949.010        1687.156          51.600    20625917.262    84459912.759        1687.156          50.100    20625917.168    80940761.751        1616.859          54.900  
J01  38891314.523   204375232.136         227.492          45.800    38891314.789   204375234.374         227.492          49.600    38891312.754   204375256.148         227.492          46.900    38891314.469   159253428.708         177.266          48.700    38891318.172   152617868.450         169.879          53.800  
J02  37121857.711   195076822.068         342.516          41.600    37121857.539   195076856.314         342.516          44.900    37121854.336   195076846.455         342.516          42.600    37121860.719   152007985.707         266.895          43.700    37121863.656   145674329.389         255.777          47.500  
J07  37265857.258   195833371.214          -0.465          38.400    37265857.375   195833368.496          -0.465          42.100    37265852.363   195833420.424          -0.465          45.000    37265859.195   152597418.336          -0.363          47.300    37265862.652   146239191.128          -0.348          51.900  
J03  37512379.133   197128822.947        -458.180          38.400    37512378.863   197128803.204        -458.180          40.900    37512376.004   197128786.268        -458.180          38.100    37512385.742   153606840.418        -357.023          38.300    37512390.742   147206550.442        -342.148          43.700  
G18  21621267.305   113620551.208          54.398          44.600    21621269.566    88535501.532          42.387          35.800    21621269.336    88535497.283          42.387          47.800    21621272.785    84846518.485          40.621          51.800  
G05  21361577.430   112255844.804       -2085.848          46.600    21361579.367    87472132.285       -1625.336          39.900    21361579.285    87472122.036       -1625.336          46.300                                                                  
G14  24105555.313   126675574.121        -356.902          37.800    24105557.934    98708230.536        -278.105          22.500    24105558.395    98708242.273        -278.105          38.700    24105561.777    94595399.973        -266.520          44.500  
G23  22733415.242   119464927.562        2998.172          41.600    22733417.207    93089593.393        2336.238          29.600    22733417.000    93089580.153        2336.238          44.100    22733420.992    89210849.872        2238.895          48.800  
E27  25779382.586   135471619.309        2543.348          43.600    25779385.164   103802964.956        1948.797          47.300    25779385.629   101163911.551        1899.254          47.000  
E33  25421408.516   133590411.334        -724.758          44.000    25421408.051   102361486.052        -555.336          48.500    25421408.723    99759075.031        -541.215          49.200  
E26  25412797.094   133545116.451       -2686.047          43.600    25412799.594   102326774.710       -2058.141          45.900    25412801.133    99725246.869       -2005.816          46.100  
E30  24902047.664   130861188.399         247.938          45.000    24902048.195   100270272.503         189.977          46.200    24902049.367    97721030.760         185.148          46.500  
E07  24559919.883   129063289.364        -988.793          47.600    24559920.633    98892672.541        -757.645          51.500    24559920.891    96378456.701        -738.383          51.500  
E08  26369218.992   138571141.971       -1879.840          34.800    26369220.566   106177873.856       -1440.398          34.600    26369221.707   103478437.484       -1403.777          34.800  
> 2021 09 22 06 30 05.0000000  0 18                     
G13  21532004.078   113151548.159       -1980.809          46.400    21532005.035    88170094.376       -1543.488          34.800                                                                                                                                  
G20  23503084.906   123509543.820       -3327.508          38.800    23503087.805    96241164.930       -2592.863          19.000                                                                                                                                  
G15  20324776.570   106807517.312        -313.289          50.000    20324778.137    83226651.104        -244.121          53.300    20324777.707    83226632.852        -244.121          49.000                                                                  
G24  20625500.477   108387991.582        2164.660          46.200    20625505.070    84458262.138        1686.746          51.600    20625505.289    84458225.894        1686.746          50.200    20625505.270    80939145.161        1616.465          54.900  
J01  38891271.570   204375004.640         227.625          45.600    38891271.715   204375006.886         227.625          49.500    38891269.371   204375028.645         227.625          46.500    38891271.391   159253251.433         177.367          48.700    38891274.840   152617698.567         169.977          53.800  
J02  37121792.563   195076479.672         342.477          42.200    37121792.402   195076513.926         342.477          44.800    37121789.320   195076504.059         342.477          42.700    37121795.551   152007718.901         266.863          43.900    37121798.430   145674073.719         255.746          47.500  
J07  37265857.828   195833371.741          -0.496          38.000    37265857.406   195833368.999          -0.496          41.900    37265852.633   195833420.959          -0.496          44.800    37265858.996   152597418.728          -0.387          47.500    37265862.730   146239191.499          -0.371          51.500  
J03  37512466.047   197129281.173        -458.094          38.400    37512466.117   197129261.446        -458.094          41.000    37512462.672   197129244.493        -458.094          38.500    37512473.160   153607197.502        -356.957          38.200    37512477.793   147206892.608        -342.082          43.700  
G18  21621256.875   113620497.292          53.664          44.000    21621259.293    88535459.521          41.816          35.700    21621259.340    88535455.272          41.816          47.700    21621262.555    84846478.226          40.074          51.700  
G05  21361974.516   112257930.918       -2086.258          46.400    21361976.352    87473757.825       -1625.656          40.100    21361976.184    87473747.590       -1625.656          46.400                                                                  
G14  24105623.430   126675931.524        -357.738          37.800    24105625.961    98708509.045        -278.758          23.600    24105626.344    98708520.759        -278.758          39.000    24105629.840    94595666.838        -267.141          44.500  
G23  22732845.234   119461929.569        2997.984          41.000    22732846.773    93087257.298        2336.090          30.200    22732846.648    93087244.041        2336.090          44.000    22732850.352    89208611.112        2238.754          49.000  
E27  25778898.867   135469076.052        2543.246          44.000    25778901.352   103801016.225        1948.723          47.100    25778901.555   101162012.368        1899.180          46.500  
E33  25421546.617   133591136.443        -725.254          44.000    25421546.039   102362041.645        -555.715          48.600    25421546.742    99759616.489        -541.586          49.100  
E26  25413307.984   133547802.564       -2686.098          43.600    25413310.836   102328832.902       -2058.180          45.900    25413312.355    99727252.751       -2005.852          46.100  
E30  24902000.688   130860940.746         247.461          44.800    24902001.039   100270082.749         189.613          46.500    24902002.137    97720845.837         184.793          46.700  
E07  24560108.055   129064278.256        -988.773          47.600    24560108.801    98893430.259        -757.633          51.100    24560108.953    96379195.162        -738.371          51.300  
E08  26369576.422   138573021.839       -1879.813          35.600    26369578.594   106179314.255       -1440.375          33.500    26369579.340   103479841.233       -1403.758          35.100  
> 2021 09 22 06 30 06.0000000  0 18                     
G13  21532381.156   113153529.045       -1981.008          46.200    21532381.918    88171637.928       -1543.641          34.900                                                                                                                                  
G20  23503717.992   123512871.359       -3327.852          39.000    23503720.957    96243757.813       -2593.133          19.600                                                                                                                                  
G15  20324836.695   106807830.873        -313.809          49.800    20324837.770    83226895.433        -244.527          53.400    20324837.598    83226877.181        -244.527          48.900                                                                  
G24  20625088.883   108385827.321        2163.824          46.200    20625093.141    84456575.704        1686.098          51.700    20625093.223    84456539.446        1686.098          50.500    20625093.477    80937528.979        1615.840          55.000  
J01  38891227.945   204374777.088         227.480          46.000    38891228.395   204374779.318         227.480          49.600    38891226.082   204374801.092         227.480          46.000    38891227.758   159253074.119         177.258          49.000    38891231.637   152617528.645         169.871          53.800  
J02  37121726.898   195076137.385         342.156          41.600    37121727.223   195076171.640         342.156          44.900    37121723.711   195076161.766         342.156          42.800    37121730.266   152007452.187         266.617          43.900    37121733.266   145673818.112         255.508          47.500  
J07  37265858.320   195833372.275          -0.676          37.800    37265857.695   195833369.523          -0.676          42.000    37265853.004   195833421.493          -0.676          45.000    37265859.438   152597419.125          -0.523          47.600    37265862.641   146239191.884          -0.504          51.600  
J03  37512553.211   197129739.411        -458.164          38.400    37512553.406   197129719.672        -458.164          40.800    37512550.316   197129702.724        -458.164          38.600    37512560.367   153607554.544        -357.012          37.400    37512564.941   147207234.794        -342.137          43.700  
G18  21621246.625   113620444.080          52.777          44.400    21621249.176    88535418.059          41.125          35.200    21621249.129    88535413.810          41.125          47.700    21621252.430    84846438.484          39.414          51.800  
G05  21362371.641   112260017.474       -2086.855          46.200    21362373.285    87475383.713       -1626.121          40.200    21362373.281    87475373.471       -1626.121          46.400                                                                  
G14  24105691.539   126676289.487        -358.477          37.600    24105694.176    98708787.959        -279.332          22.600    24105694.465    98708799.721        -279.332          39.200    24105697.813    94595934.167        -267.695          44.700  
G23  22732274.461   119458931.720        2997.781          41.000    22732276.496    93084921.313        2335.934          30.500    22732276.195    93084908.063        2335.934          43.800    22732279.980    89206372.462        2238.605          48.800  
E27  25778414.938   135466532.988        2542.910          44.000    25778417.242   103799067.662        1948.465          47.300    25778417.711   101160113.344        1898.926          46.900  
E33  25421684.563   133591862.044        -725.922          44.200    25421684.063   102362597.616        -556.227          49.000    25421684.797    99760158.345        -542.086          49.000  
E26  25413819.500   133550488.894       -2686.477          43.400    25413822.113   102330891.260       -2058.469          46.000    25413823.621    99729258.770       -2006.133          46.100  
E30  24901953.563   130860693.593         246.871          44.400    24901953.938   100269893.365         189.160          46.800    24901955.098    97720661.268         184.352          46.900  
E07  24560296.211   129065267.245        -989.133          47.200    24560296.945    98894188.041        -757.906          51.500    24560297.176    96379933.680        -738.637          51.500  
E08  26369934.195   138574901.720       -1880.023          35.200    26369936.199   106180754.692       -1440.539          34.100    26369937.145   103481245.063       -1403.914          35.100  
> 2021 09 22 06 30 07.0000000  0 18                     
G13  21532757.875   113155510.044       -1981.168          46.200    21532759.000    88173181.561       -1543.770          35.400                                                                                                                                  
G20  23504351.734   123516199.041       -3327.875          38.600    23504354.145    96246350.797       -2593.148          19.300                                                                                                                                  
G15  20324896.516   106808144.667        -314.070          50.000    20324897.441    83227139.948        -244.730          53.400    20324897.168    83227121.689        -244.730          49.100                                                                  
G24  20624676.953   108383663.509        2163.480          46.400    20624681.461    84454889.620        1685.828          51.700    20624681.594    84454853.369        1685.828          50.400    20624681.719    80935913.155        1615.586          55.000  
J01  38891184.984   204374549.360         227.707          45.800    38891184.980   204374551.612         227.707          49.700    38891182.742   204374573.364         227.707          46.300    38891184.387   159252896.673         177.434          48.900    38891188.289   152617358.590         170.043          53.900  
J02  37121661.961   195075795.076         342.145          41.800    37121662.070   195075829.326         342.145          44.700    37121658.926   195075819.455         342.145          42.800    37121665.414   152007185.452         266.605          44.200    37121668.242   145673562.501         255.500          47.300  
J07  37265857.930   195833372.708          -0.395          38.200    37265857.836   195833369.971          -0.395          42.100    37265852.820   195833421.925          -0.395          45.000    37265859.320   152597419.491          -0.305          47.600    37265862.902   146239192.223          -0.293          51.400  
J03  37512640.031   197130197.600        -458.246          38.000    37512640.438   197130177.857        -458.246          41.100    37512636.957   197130160.921        -458.246          38.900    37512647.094   153607911.561        -357.074          37.600    37512652.387   147207576.943        -342.195          43.600  
G18  21621237.367   113620391.453          52.215          44.600    21621239.188    88535377.052          40.688          35.900    21621238.875    88535372.804          40.688          47.500    21621242.340    84846399.193          38.992          51.900  
G05  21362769.023   112262104.363       -2087.125          46.000    21362770.465    87477009.854       -1626.332          39.900    21362770.551    87476999.612       -1626.332          46.400                                                                  
G14  24105759.523   126676647.980        -358.918          38.000    24105762.262    98709067.300        -279.676          22.200    24105762.699    98709079.064        -279.676          39.200    24105766.117    94596201.865        -268.023          44.500  
G23  22731703.906   119455933.966        2997.648          41.200    22731706.168    93082585.405        2335.832          29.200    22731705.664    93082572.155        2335.832          43.900    22731709.516    89204133.890        2238.504          48.600  
E27  25777930.805   135463990.077        2542.758          44.200    25777933.301   103797119.206        1948.344          47.400    25777933.996   101158214.418        1898.813          46.700  
E33  25421822.727   133592588.045        -726.352          44.400    25421822.313   102363153.908        -556.555          48.600    25421822.984    99760700.471        -542.406          48.700  
E26  25414330.680   133553175.357       -2686.586          43.600    25414333.289   102332949.704       -2058.551          46.100    25414334.602    99731264.883       -2006.215          46.500  
E30  24901906.641   130860446.835         246.434          44.600    24901907.031   100269704.295         188.824          46.800    24901908.098    97720477.003         184.023          46.500  
E07  24560484.469   129066256.220        -989.109          46.800    24560485.105    98894945.838        -757.891          51.200    24560485.426    96380672.204        -738.621          50.800  
E08  26370291.789   138576781.560       -1879.758          34.200    26370293.844   106182195.065       -1440.336          33.900    26370294.867   103482648.887       -1403.715          34.900  
> 2021 09 22 06 30 08.0000000  0 18                     
G13  21533134.578   113157491.252       -1981.191          46.400    21533135.984    88174725.360       -1543.785          35.400                                                                                                                                  
G20  23504984.945   123519527.063       -3328.113          38.400    23504987.344    96248944.077       -2593.336          20.100                                                                                                                                  
G15  20324956.133   106808458.797        -314.242          50.000    20324957.234    83227384.726        -244.863          53.600    20324957.004    83227366.482        -244.863          49.600                                                                  
G24  20624265.406   108381500.294        2163.059          46.200    20624269.816    84453203.999        1685.500          51.800    20624269.852    84453167.749        1685.500          50.300    20624270.008    80934297.778        1615.270          54.900  
J01  38891141.656   204374321.646         227.797          45.600    38891141.793   204374323.876         227.797          49.600    38891139.617   204374345.650         227.797          46.400    38891141.383   159252719.226         177.504          49.100    38891144.965   152617188.542         170.109          54.100  
J02  37121597.063   195075452.899         342.258          41.800    37121597.059   195075487.154         342.258          44.800    37121593.293   195075477.286         342.258          42.900    37121600.066   152006918.818         266.695          44.300    37121603.035   145673306.976         255.582          46.900  
J07  37265857.563   195833373.229          -0.453          38.200    37265857.859   195833370.477          -0.453          42.000    37265852.848   195833422.446          -0.453          45.200    37265859.316   152597419.893          -0.352          47.700    37265862.980   146239192.608          -0.340          51.400  
J03  37512727.813   197130655.818        -458.004          37.800    37512727.516   197130636.113        -458.004          40.800    37512724.777   197130619.140        -458.004          38.700    37512734.234   153608268.622        -356.883          37.800    37512739.402   147207919.117        -342.016          43.400  
G18  21621226.867   113620339.599          51.523          44.600    21621229.375    88535336.641          40.148          35.700    21621229.332    88535332.386          40.148          47.800    21621232.430    84846360.452          38.477          51.800  
G05  21363165.938   112264191.749       -2087.527          46.400    21363167.637    87478636.385       -1626.645          39.900    21363167.887    87478626.148       -1626.645          46.200                                                                  
G14  24105827.875   126677007.065        -359.234          38.000    24105830.648    98709347.125        -279.922          22.600    24105830.723    98709358.881        -279.922          39.400    24105834.676    94596470.044        -268.258          44.400  
G23  22731133.297   119452936.423        2997.578          41.200    22731135.777    93080249.658        2335.777          29.600    22731135.711    93080236.425        2335.777          44.300    22731139.129    89201895.464        2238.453          48.700  
E27  25777446.898   135461447.439        2542.668          44.000    25777449.543   103795170.945        1948.277          47.400    25777450.004   101156315.685        1898.746          46.900  
E33  25421960.914   133593314.581        -726.707          44.200    25421960.555   102363710.591        -556.828          48.600    25421961.172    99761243.021        -542.672          48.800  
E26  25414841.898   133555862.067       -2686.707          43.600    25414844.496   102335008.328       -2058.645          46.400    25414845.914    99733271.179       -2006.309          46.300  
E30  24901859.898   130860200.615         246.094          44.600    24901860.191   100269515.647         188.566          46.400    24901861.273    97720293.152         183.773          46.500  
E07  24560672.648   129067245.345        -989.086          47.200    24560673.457    98895703.740        -757.871          51.400    24560673.660    96381410.846        -738.602          51.200  
E08  26370649.281   138578661.442       -1879.750          34.800    26370651.664   106183635.571       -1440.328          33.100    26370652.418   103484052.677       -1403.711          35.100  
> 2021 09 22 06 30 09.0000000  0 18                     
G13  21533512.461   113159472.588       -1981.410          46.400    21533512.973    88176269.255       -1543.957          34.900                                                                                                                                  
G20  23505618.125   123522855.314       -3328.277          38.400    23505620.723    96251537.499       -2593.461          19.600                                                                                                                                  
G15  20325016.023   106808773.225        -314.453          50.200    20325016.980    83227629.736        -245.027          53.300    20325016.797    83227611.493        -245.027          48.900                                                                  
G24  20623853.828   108379337.631        2162.457          46.600    20623858.297    84451518.804        1685.031          51.600    20623858.270    84451482.561        1685.031          50.100    20623858.496    80932682.796        1614.820          55.000  
J01  38891097.578   204374093.813         227.867          45.600    38891098.332   204374096.058         227.867          49.500    38891096.094   204374117.818         227.867          46.700    38891097.672   159252541.699         177.559          48.700    38891101.504   152617018.411         170.160          53.900  
J02  37121532.148   195075110.771         342.246          42.200    37121531.813   195075145.013         342.246          44.800    37121528.844   195075135.158         342.246          42.700    37121535.191   152006652.230         266.688          44.100    37121537.988   145673051.491         255.574          47.200  
J07  37265858.203   195833373.781          -0.563          38.400    37265857.961   195833371.013          -0.563          42.100    37265853.039   195833422.998          -0.563          45.100    37265859.641   152597420.287          -0.438          47.700    37265863.168   146239192.999          -0.418          51.400  
J03  37512815.328   197131114.043        -458.242          38.000    37512814.930   197131094.285        -458.242          40.900    37512812.148   197131077.356        -458.242          38.600    37512821.863   153608625.674        -357.070          38.100    37512826.680   147208261.294        -342.195          43.500  
G18  21621217.344   113620288.373          50.902          44.600    21621219.625    88535296.724          39.664          35.900    21621219.289    88535292.483          39.664          48.000    21621222.820    84846322.210          38.012          51.800  
G05  21363563.477   112266279.530       -2087.938          46.600    21363564.945    87480263.233       -1626.965          40.000    21363565.027    87480252.984       -1626.965          46.300                                                                  
G14  24105896.625   126677366.795        -359.902          38.200    24105899.250    98709627.452        -280.441          21.500    24105899.328    98709639.197        -280.441          39.600    24105902.941    94596738.659        -268.758          44.100  
G23  22730562.977   119449939.027        2997.402          41.000    22730565.477    93077914.029        2335.641          29.800    22730565.391    93077900.782        2335.641          44.500    22730568.703    89199657.152        2238.320          48.800  
E27  25776963.281   135458904.970        2542.438          43.200    25776965.754   103793222.833        1948.102          47.200    25776966.234   101154417.114        1898.574          47.000  
E33  25422099.289   133594041.574        -727.207          44.200    25422098.941   102364267.639        -557.211          48.200    25422099.480    99761785.900        -543.043          48.800  
E26  25415353.102   133558548.917       -2686.895          43.200    25415356.055   102337067.098       -2058.789          46.400    25415357.191    99735277.591       -2006.445          46.400  
E30  24901812.867   130859954.860         245.559          44.400    24901813.352   100269327.336         188.152          46.700    24901814.508    97720109.632         183.371          46.400  
E07  24560861.039   129068234.537        -989.219          47.800    24560861.500    98896461.690        -757.973          51.300    24560861.820    96382149.517        -738.703          51.200  
E08  26371007.242   138580541.353       -1879.867          34.200    26371009.527   106185075.969       -1440.418          33.800    26371010.293   103485456.497       -1403.797          35.300  
> 2021 09 22 06 30 10.0000000  0 18                     
G13  21533889.078   113161453.993       -1981.473          46.200    21533890.059    88177813.205       -1544.004          34.300                                                                                                                                  
G20  23506251.344   123526183.693       -3328.449          38.800    23506253.852    96254131.063       -2593.598          19.300                                                                                                                                  
G15  20325075.945   106809087.870        -314.773          50.000    20325076.984    83227874.910        -245.277          53.400    20325076.617    83227856.666        -245.277          48.900                                                                  
G24  20623442.125   108377175.400        2161.910          46.200    20623446.863    84449833.952        1684.605          51.600    20623446.832    84449797.708        1684.605          50.100    20623447.066    80931068.157        1614.414          54.900  
J01  38891054.438   204373865.825         228.012          46.200    38891055.004   204373868.064         228.012          49.600    38891052.926   204373889.830         228.012          46.900    38891054.309   159252364.037         177.672          48.800    38891058.188   152616848.156         170.266          53.900  
J02  37121466.430   195074768.611         342.211          42.200    37121466.641   195074802.872         342.211          44.900    37121463.977   195074792.990         342.211          42.800    37121469.922   152006385.635         266.656          44.500    37121472.949   145672795.991         255.547          47.200  
J07  37265857.820   195833374.164          -0.324          38.200    37265858.383   195833371.446          -0.324          42.100    37265852.809   195833423.389          -0.324          45.000    37265859.668   152597420.633          -0.254          47.700    37265863.168   146239193.323          -0.242          51.400  
J03  37512902.195   197131572.176        -458.172          37.800    37512902.258   197131552.420        -458.172          41.100    37512899.832   197131535.489        -458.172          38.200    37512909.262   153608982.634        -357.016          37.900    37512913.910   147208603.383        -342.141          43.700  
G18  21621208.070   113620237.745          50.367          44.600    21621209.898    88535257.279          39.250          35.800    21621209.789    88535253.030          39.250          47.800    21621213.137    84846284.400          37.613          51.800  
G05  21363960.492   112268367.649       -2088.422          47.200    21363962.414    87481890.339       -1627.340          40.200    21363962.520    87481880.096       -1627.340          46.600                                                                  
G14  24105965.117   126677726.985        -360.578          38.600    24105967.715    98709908.124        -280.969          22.500    24105967.684    98709919.858        -280.969          40.300    24105971.484    94597007.639        -269.262          44.100  
G23  22729992.305   119446941.706        2997.242          41.000    22729995.168    93075578.450        2335.516          28.700    22729994.605    93075565.190        2335.516          44.400    22729998.266    89197418.878        2238.203          48.900  
E27  25776479.445   135456362.617        2542.273          43.200    25776481.965   103791274.799        1947.977          46.800    25776482.414   101152518.606        1898.449          47.000  
E33  25422237.781   133594768.967        -727.672          44.400    25422237.293   102364824.987        -557.566          47.800    25422237.902    99762329.065        -543.391          48.300  
E26  25415864.563   133561235.861       -2686.980          43.400    25415867.109   102339125.921       -2058.855          45.800    25415868.449    99737284.079       -2006.512          46.100  
E30  24901766.461   130859709.490         245.211          44.000    24901766.699   100269139.324         187.891          46.300    24901767.934    97719926.396         183.113          46.400  
E07  24561049.094   129069223.712        -989.234          47.200    24561049.984    98897219.618        -757.984          50.900    24561050.113    96382888.183        -738.715          50.800  
E08  26371365.180   138582421.153       -1879.719          34.400    26371367.133   106186516.369       -1440.305          33.700    26371368.211   103486860.269       -1403.688          35.100  
> 2021 09 22 06 30 11.0000000  0 18                     
G13  21534266.539   113163435.617       -1981.586          46.400    21534267.105    88179357.323       -1544.094          34.600                                                                                                                                  
G20  23506884.703   123529512.358       -3328.688          39.400    23506887.324    96256724.823       -2593.781          19.600                                                                                                                                  
G15  20325135.734   106809402.876        -315.016          49.800    20325136.828    83228120.369        -245.465          53.400    20325136.715    83228102.117        -245.465          48.800                                                                  
G24  20623031.188   108375013.768        2161.430          46.400    20623035.391    84448149.563        1684.230          51.600    20623035.512    84448113.320        1684.230          49.900    20623035.719    80929453.948        1614.055          54.900  
J01  38891011.328   204373637.796         228.152          46.400    38891011.398   204373640.041         228.152          49.600    38891009.164   204373661.800         228.152          47.200    38891011.020   159252186.370         177.781          48.500    38891014.770   152616677.882         170.375          53.900  
J02  37121401.719   195074426.586         342.191          42.000    37121401.715   195074460.828         342.191          44.900    37121398.648   195074450.964         342.191          43.100    37121405.117   152006119.103         266.645          44.500    37121407.801   145672540.580         255.531          47.300  
J07  37265858.953   195833374.685          -0.484          39.000    37265858.379   195833371.941          -0.484          42.100    37265853.020   195833423.909          -0.484          44.700    37265859.758   152597421.011          -0.375          48.000    37265863.285   146239193.676          -0.359          51.500  
J03  37512989.602   197132030.362        -458.129          38.400    37512989.344   197132010.582        -458.129          41.100    37512986.883   197131993.682        -458.129          39.100    37512995.996   153609339.680        -356.984          38.300    37513001.070   147208945.523        -342.109          43.700  
G18  21621198.117   113620187.833          49.715          44.600    21621200.488    88535218.389          38.738          35.500    21621200.477    88535214.136          38.738          47.800    21621203.605    84846247.134          37.125          51.800  
G05  21364357.945   112270456.224       -2088.633          47.000    21364359.891    87483517.796       -1627.508          39.500    21364360.137    87483507.555       -1627.508          46.300                                                                  
G14  24106033.555   126678087.815        -361.145          39.000    24106036.273    98710189.279        -281.410          23.200    24106036.250    98710201.030        -281.410          39.800    24106040.020    94597277.098        -269.684          44.100  
G23  22729422.664   119443944.572        2997.152          40.800    22729424.813    93073243.027        2335.445          29.600    22729424.188    93073229.771        2335.445          44.300    22729428.070    89195180.769        2238.133          48.500  
E27  25775995.641   135453820.536        2542.047          43.600    25775998.238   103789326.952        1947.801          46.600    25775998.625   101150620.279        1898.281          47.200  
E33  25422376.297   133595496.856        -728.000          44.200    25422375.883   102365382.732        -557.816          48.500    25422376.508    99762872.648        -543.637          48.000  
E26  25416375.906   133563923.076       -2687.246          43.400    25416378.375   102341184.952       -2059.059          45.900    25416379.859    99739290.743       -2006.711          46.100  
E30  24901719.609   130859464.648         244.715          44.600    24901720.074   100268951.719         187.512          46.400    24901721.172    97719743.572         182.742          46.600  
E07  24561237.422   129070213.016        -989.230          47.600    24561238.156    98897977.658        -757.980          51.400    24561238.371    96383626.943        -738.711          51.000  
E08  26371723.164   138584301.048       -1879.863          35.400    26371724.918   106187956.765       -1440.414          34.100    26371726.035   103488264.054       -1403.793          35.700  
> 2021 09 22 06 30 12.0000000  0 18                     
G13  21534643.516   113165417.381       -1981.672          46.600    21534644.242    88180901.556       -1544.160          34.900                                                                                                                                  
G20  23507517.797   123532841.266       -3328.859          39.200    23507520.867    96259318.766       -2593.918          20.100                                                                                                                                  
G15  20325196.133   106809718.158        -315.289          50.000    20325196.797    83228366.045        -245.680          53.400    20325196.477    83228347.801        -245.680          48.800                                                                  
G24  20622619.852   108372852.667        2160.988          46.200    20622624.117    84446465.594        1683.887          51.700    20622624.281    84446429.343        1683.887          49.400    20622624.445    80927840.131        1613.727          55.000  
J01  38890967.906   204373409.701         228.273          46.200    38890968.102   204373411.932         228.273          49.700    38890965.824   204373433.705         228.273          47.400    38890967.688   159252008.608         177.875          48.600    38890971.340   152616507.538         170.465          53.800  
J02  37121336.617   195074084.596         342.074          42.000    37121336.539   195074118.845         342.074          44.900    37121333.180   195074108.975         342.074          43.300    37121339.883   152005852.617         266.551          44.400    37121342.840   145672285.197         255.445          47.200  
J07  37265858.344   195833375.149          -0.059          38.200    37265858.219   195833372.399          -0.059          42.100    37265853.297   195833424.366          -0.059          45.000    37265859.754   152597421.376          -0.047          48.100    37265863.227   146239194.040          -0.043          51.400  
J03  37513076.328   197132488.514        -458.023          38.400    37513076.445   197132468.741        -458.023          40.800    37513073.566   197132451.834        -458.023          38.500    37513083.227   153609696.651        -356.902          38.500    37513088.184   147209287.650        -342.031          43.700  
G18  21621188.461   113620138.595          49.086          44.400    21621190.973    88535180.020          38.250          35.800    21621190.906    88535175.770          38.250          47.800    21621194.180    84846210.363          36.656          51.700  
G05  21364755.648   112272545.218       -2089.070          46.600    21364757.422    87485145.582       -1627.848          39.900    21364757.465    87485135.347       -1627.848          46.700                                                                  
G14  24106102.422   126678449.203        -361.473          39.200    24106105.082    98710470.891        -281.664          25.000    24106105.527    98710482.639        -281.664          39.900    24106108.957    94597546.958        -269.930          44.100  
G23  22728852.023   119440947.572        2997.094          41.000    22728854.461    93070907.697        2335.398          29.600    22728854.000    93070894.454        2335.398          44.500    22728857.609    89192942.749        2238.090          48.500  
E27  25775511.773   135451278.617        2541.918          43.600    25775514.430   103787379.265        1947.703          46.700    25775515.066   101148722.105        1898.184          47.300  
E33  25422514.984   133596225.225        -728.449          44.400    25422514.434   102365940.835        -558.160          48.400    25422515.066    99763416.555        -543.973          48.200  
E26  25416887.250   133566610.400       -2687.223          43.600    25416889.523   102343244.088       -2059.043          46.100    25416891.234    99741297.533       -2006.691          46.200  
E30  24901673.141   130859220.259         244.340          45.000    24901673.648   100268764.464         187.223          46.500    24901674.863    97719561.059         182.461          47.000  
E07  24561425.789   129071202.363        -989.195          47.200    24561426.379    98898735.742        -757.957          51.000    24561426.668    96384365.764        -738.684          50.600  
E08  26372080.906   138586180.871       -1879.719          35.600    26372082.855   106189397.169       -1440.305          34.200    26372083.703   103489667.813       -1403.688          35.600  
> 2021 09 22 06 30 13.0000000  0 18                     
G13  21535020.227   113167399.330       -1982.293          46.400    21535021.285    88182445.936       -1544.645          34.800                                                                                                                                  
G20  23508152.180   123536170.432       -3329.422          39.000    23508154.309    96261912.924       -2594.355          20.400                                                                                                                                  
G15  20325256.000   106810033.777        -315.914          49.600    20325256.871    83228611.984        -246.168          53.400    20325256.801    83228593.724        -246.168          48.900                                                                  
G24  20622208.688   108370692.148        2160.012          46.600    20622213.047    84444782.073        1683.125          51.600    20622213.352    84444745.815        1683.125          49.700    20622213.414    80926226.751        1612.996          55.000  
J01  38890924.695   204373181.532         228.020          46.200    38890924.816   204373183.778         228.020          49.700    38890922.539   204373205.544         228.020          47.300    38890924.176   159251830.833         177.676          48.500    38890927.996   152616337.169         170.273          54.100  
J02  37121271.953   195073742.722         341.734          42.200    37121271.613   195073776.974         341.734          45.000    37121268.590   195073767.108         341.734          42.800    37121274.844   152005586.228         266.289          44.400    37121277.680   145672029.901         255.191          47.200  
J07  37265858.570   195833375.713          -0.750          38.200    37265858.152   195833372.925          -0.750          41.900    37265852.926   195833424.929          -0.750          44.800    37265859.832   152597421.789          -0.586          47.800    37265863.316   146239194.443          -0.559          51.500  
J03  37513164.094   197132946.681        -458.355          38.400    37513163.613   197132926.930        -458.355          40.900    37513160.809   197132910.002        -458.355          38.900    37513169.922   153610053.689        -357.160          37.900    37513175.457   147209629.815        -342.281          43.400  
G18  21621179.844   113620090.073          48.031          44.600    21621181.605    88535142.211          37.426          35.800    21621181.801    88535137.952          37.426          47.800    21621184.969    84846174.132          35.867          51.700  
G05  21365153.227   112274634.675       -2089.828          46.600    21365155.086    87486773.728       -1628.438          40.200    21365155.141    87486763.485       -1628.438          46.800                                                                  
G14  24106171.461   126678811.235        -362.445          39.200    24106173.953    98710752.995        -282.426          22.300    24106174.422    98710764.735        -282.426          40.000    24106177.832    94597817.305        -270.656          44.600  
G23  22728282.070   119437950.771        2996.633          41.600    22728284.168    93068572.536        2335.039          29.600    22728284.059    93068559.283        2335.039          44.600    22728287.328    89190704.884        2237.746          48.800  
E27  25775028.273   135448736.955        2541.379          43.200    25775030.816   103785431.762        1947.289          47.200    25775031.266   101146824.119        1897.785          47.000  
E33  25422653.563   133596954.116        -729.301          44.400    25422653.215   102366499.337        -558.813          48.600    25422653.816    99763960.856        -544.605          48.600  
E26  25417398.484   133569298.004       -2687.859          43.600    25417401.277   102345303.409       -2059.527          45.700    25417402.695    99743304.509       -2007.168          46.000  
E30  24901626.883   130858976.400         243.543          44.400    24901627.332   100268577.611         186.609          46.500    24901628.418    97719378.970         181.867          47.000  
E07  24561613.977   129072191.867        -989.676          47.000    24561614.664    98899493.930        -758.324          51.200    24561614.914    96385104.660        -739.043          50.800  
E08  26372438.656   138588060.772       -1880.086          35.200    26372440.633   106190837.635       -1440.586          34.800    26372441.188   103491071.648       -1403.961          35.500  
> 2021 09 22 06 30 14.0000000  0 18                     
G13  21535397.484   113169381.380       -1982.105          46.600    21535398.527    88183990.389       -1544.500          35.000                                                                                                                                  
G20  23508786.250   123539499.775       -3329.461          39.600    23508787.828    96264507.185       -2594.383          20.100                                                                                                                                  
G15  20325315.969   106810349.644        -316.043          49.600    20325316.934    83228858.117        -246.266          53.400    20325316.578    83228839.865        -246.266          48.900                                                                  
G24  20621797.695   108368532.100        2159.734          46.400    20621802.109    84443098.918        1682.910          51.600    20621802.129    84443062.674        1682.910          49.900    20621802.309    80924613.743        1612.789          54.900  
J01  38890880.859   204372953.245         228.402          46.200    38890881.313   204372955.498         228.402          49.600    38890878.949   204372977.250         228.402          47.100    38890880.629   159251652.945         177.977          48.800    38890884.516   152616166.688         170.559          53.900  
J02  37121206.672   195073400.853         341.922          41.800    37121206.531   195073435.104         341.922          44.800    37121203.258   195073425.232         341.922          42.400    37121209.465   152005319.839         266.434          44.800    37121212.789   145671774.616         255.332          47.400  
J07  37265858.820   195833376.133          -0.379          38.400    37265858.355   195833373.408          -0.379          42.200    37265853.465   195833425.351          -0.379          44.900    37265860.113   152597422.173          -0.293          48.100    37265863.520   146239194.792          -0.281          51.600  
J03  37513250.953   197133404.848        -458.188          37.800    37513250.820   197133385.067        -458.188          40.700    37513247.879   197133368.168        -458.188          37.500    37513257.047   153610410.691        -357.027          37.900    37513262.508   147209971.921        -342.152          43.400  
G18  21621170.531   113620042.153          47.629          45.000    21621172.582    88535104.867          37.113          35.700    21621172.508    88535100.640          37.113          47.900    21621175.863    84846138.356          35.566          51.800  
G05  21365551.023   112276724.468       -2089.992          47.000    21365552.840    87488402.141       -1628.566          40.100    21365552.922    87488391.899       -1628.566          47.000                                                                  
G14  24106240.609   126679173.776        -362.816          39.200    24106243.094    98711035.488        -282.715          22.300    24106243.262    98711047.262        -282.715          39.900    24106246.961    94598088.058        -270.934          44.600  
G23  22727712.055   119434954.065        2996.773          41.800    22727713.875    93066237.438        2335.148          29.400    22727713.477    93066224.183        2335.148          44.900    22727717.215    89188467.086        2237.852          48.500  
E27  25774544.625   135446195.435        2541.492          43.200    25774547.145   103783484.373        1947.375          47.500    25774547.711   101144926.226        1897.867          47.200  
E33  25422792.289   133597683.429        -729.613          43.600    25422791.996   102367058.150        -559.055          48.400    25422792.609    99764505.453        -544.840          48.500  
E26  25417910.141   133571985.731       -2687.840          43.400    25417912.766   102347362.815       -2059.512          45.600    25417914.223    99745311.554       -2007.152          45.800  
E30  24901580.391   130858732.967         243.227          45.000    24901581.016   100268391.081         186.367          46.700    24901581.930    97719197.175         181.629          47.200  
E07  24561802.391   129073181.379        -989.496          47.200    24561802.934    98900252.128        -758.184          51.300    24561803.297    96385843.585        -738.910          50.800  
E08  26372796.602   138589940.646       -1879.781          35.600    26372798.477   106192278.038       -1440.352          35.100    26372798.984   103492475.414       -1403.734          35.800  
> 2021 09 22 06 30 15.0000000  0 18                     
G13  21535775.039   113171363.638       -1982.328          46.400    21535775.785    88185535.002       -1544.672          35.200                                                                                                                                  
G20  23509418.883   123542829.430       -3329.766          39.600    23509421.477    96267101.738       -2594.621          19.900                                                                                                                                  
G15  20325375.992   106810665.882        -316.391          50.000    20325377.238    83229104.536        -246.539          53.400    20325376.883    83229086.278        -246.539          48.700                                                                  
G24  20621386.570   108366372.677        2159.117          46.600    20621390.949    84441416.257        1682.430          51.600    20621391.211    84441379.991        1682.430          49.700    20621391.414    80923001.185        1612.328          55.000  
J01  38890837.164   204372724.936         228.328          46.200    38890837.871   204372727.188         228.328          49.600    38890835.500   204372748.940         228.328          46.900    38890837.234   159251475.047         177.918          48.600    38890841.102   152615996.211         170.504          53.900  
J02  37121141.477   195073059.105         341.930          41.600    37121141.387   195073093.366         341.930          44.800    37121138.148   195073083.492         341.930          42.600    37121144.746   152005053.563         266.438          44.600    37121147.621   145671519.428         255.336          47.300  
J07  37265859.063   195833376.680          -0.551          38.600    37265858.414   195833373.947          -0.551          42.100    37265853.516   195833425.898          -0.551          44.900    37265860.348   152597422.585          -0.430          47.700    37265863.754   146239195.207          -0.410          51.600  
J03  37513338.430   197133863.030        -458.117          38.400    37513337.992   197133843.259        -458.117          40.900    37513334.980   197133826.343        -458.117          38.400    37513344.742   153610767.737        -356.977          38.500    37513349.844   147210314.094        -342.102          43.200  
G18  21621161.602   113619995.004          46.824          44.600    21621163.461    88535068.127          36.484          36.000    21621163.535    88535063.885          36.484          47.500    21621166.848    84846103.133          34.965          51.800  
G05  21365948.617   112278814.768       -2090.516          47.400    21365950.574    87490030.946       -1628.973          39.800    21365950.430    87490020.703       -1628.973          47.300                                                                  
G14  24106309.164   126679536.968        -363.406          39.200    24106312.270    98711318.486        -283.176          23.200    24106312.410    98711330.246        -283.176          39.400    24106315.914    94598359.268        -271.375          44.300  
G23  22727141.508   119431957.598        2996.480          42.000    22727143.754    93063902.535        2334.922          29.400    22727143.289    93063889.278        2334.922          44.600    22727146.918    89186229.448        2237.633          48.400  
E27  25774060.977   135443654.200        2541.031          43.000    25774063.625   103781537.177        1947.023          47.600    25774064.199   101143028.549        1897.523          47.600  
E33  25422931.156   133598413.248        -730.000          43.200    25422930.910   102367617.373        -559.348          48.500    25422931.387    99765050.471        -545.129          48.200  
E26  25418421.617   133574673.684       -2687.969          43.600    25418424.109   102349422.439       -2059.609          45.700    25418425.785    99747318.811       -2007.250          46.200  
E30  24901534.016   130858490.058         242.586          44.400    24901534.660   100268204.956         185.875          47.100    24901535.883    97719015.782         181.152          47.000  
E07  24561990.641   129074171.015        -989.680          46.800    24561991.387    98901010.422        -758.328          51.500    24561991.648    96386582.610        -739.047          50.700  
E08  26373154.406   138591820.552       -1879.906          35.400    26373155.871   106193718.446       -1440.445          34.900    26373156.813   103493879.289       -1403.824          35.300  
> 2021 09 22 06 30 16.0000000  0 18                     
G13  21536152.406   113173346.000       -1982.418          46.000    21536153.004    88187079.698       -1544.742          34.800                                                                                                                                  
G20  23510052.719   123546159.247       -3329.914          39.400    23510055.234    96269696.410       -2594.738          19.900                                                                                                                                  
G15  20325436.328   106810982.356        -316.730          50.200    20325437.480    83229351.135        -246.805          53.400    20325437.137    83229332.883        -246.805          48.800                                                                  
G24  20620975.820   108364213.706        2158.684          46.400    20620980.180    84439733.940        1682.094          51.600    20620980.508    84439697.697        1682.094          49.200    20620980.699    80921388.978        1612.004          55.000  
J01  38890794.008   204372496.497         228.398          46.200    38890794.281   204372498.742         228.398          49.500    38890792.180   204372520.502         228.398          46.900    38890793.563   159251297.044         177.973          48.800    38890797.633   152615825.608         170.555          53.800  
J02  37121075.969   195072717.373         341.691          41.800    37121076.410   195072751.619         341.691          44.900    37121073.055   195072741.759         341.691          42.800    37121079.660   152004787.257         266.254          44.700    37121082.707   145671264.231         255.160          47.000  
J07  37265858.695   195833377.175          -0.605          38.200    37265858.348   195833374.427          -0.605          42.200    37265853.684   195833426.399          -0.605          44.700    37265860.109   152597422.963          -0.473          47.800    37265863.770   146239195.560          -0.453          51.600  
J03  37513425.141   197134321.213        -458.160          37.800    37513424.988   197134301.478        -458.160          41.100    37513422.316   197134284.534        -458.160          38.700    37513432.012   153611124.738        -357.008          38.300    37513436.949   147210656.204        -342.133          43.600  
G18  21621152.672   113619948.446          46.117          44.800    21621154.688    88535031.855          35.934          36.600    21621154.680    88535027.597          35.934          47.900    21621157.980    84846068.366          34.438          51.700  
G05  21366346.602   112280905.416       -2090.918          47.200    21366348.453    87491660.019       -1629.289          39.700    21366348.762    87491649.777       -1629.289          47.000                                                                  
G14  24106378.789   126679900.680        -363.973          39.200    24106381.402    98711601.926        -283.613          23.300    24106381.184    98711613.681        -283.613          39.600    24106385.320    94598630.874        -271.797          44.600  
G23  22726571.289   119428961.179        2996.203          41.400    22726573.793    93061567.664        2334.703          29.300    22726573.004    93061554.432        2334.703          44.300    22726576.793    89183991.889        2237.426          48.800  
E27  25773577.586   135441113.084        2540.938          43.400    25773579.965   103779590.097        1946.949          47.600    25773580.699   101141130.958        1897.453          47.700  
E33  25423070.000   133599143.489        -730.457          43.600    25423069.680   102368176.913        -559.699          48.300    25423070.445    99765595.790        -545.469          48.600  
E26  25418933.039   133577361.782       -2688.332          43.800    25418935.629   102351482.119       -2059.891          45.800    25418937.430    99749326.122       -2007.520          46.000  
E30  24901487.852   130858247.575         242.199          44.200    24901488.766   100268019.152         185.582          46.900    24901489.656    97718834.696         180.863          46.500  
E07  24562178.766   129075160.685        -989.762          47.200    24562179.621    98901768.728        -758.391          51.400    24562179.977    96387321.635        -739.109          50.700  
E08  26373511.766   138593700.408       -1879.832          34.800    26373513.746   106195158.856       -1440.391          34.300    26373514.391   103495283.069       -1403.770          35.200  
> 2021 09 22 06 30 17.0000000  0 18                     
G13  21536529.094   113175328.458       -1982.527          45.600    21536530.324    88188624.469       -1544.828          34.600                                                                                                                                  
G20  23510686.539   123549489.232       -3329.922          39.000    23510688.977    96272291.204       -2594.742          20.400                                                                                                                                  
G15  20325496.648   106811299.067        -316.852          50.000    20325497.668    83229597.925        -246.895          53.400    20325497.352    83229579.674        -246.895          48.700                                                                  
G24  20620565.039   108362055.232        2158.281          46.800    20620569.438    84438052.009        1681.777          51.600    20620569.605    84438015.772        1681.777          49.300    20620569.867    80919777.133        1611.703          54.900  
J01  38890750.734   204372267.908         228.707          46.400    38890751.008   204372270.168         228.707          49.600    38890748.723   204372291.913         228.707          46.600    38890750.414   159251118.923         178.215          48.700    38890754.078   152615654.927         170.789          53.800  
J02  37121010.883   195072375.638         341.777          41.400    37121011.500   195072409.893         341.777          44.900    37121007.789   195072400.021         341.777          43.000    37121014.941   152004520.977         266.320          44.500    37121017.621   145671009.040         255.223          47.300  
J07  37265859.758   195833377.634          -0.496          38.000    37265858.543   195833374.893          -0.496          42.000    37265853.859   195833426.850          -0.496          44.900    37265860.262   152597423.304          -0.387          47.600    37265863.711   146239195.890          -0.371          51.400  
J03  37513512.531   197134779.348        -458.051          37.800    37513512.074   197134759.580        -458.051          40.800    37513509.168   197134742.661        -458.051          38.700    37513518.875   153611481.722        -356.922          38.000    37513524.242   147210998.292        -342.051          43.800  
G18  21621143.820   113619902.503          45.684          44.400    21621145.875    88534996.050          35.598          36.100    21621145.840    88534991.810          35.598          47.900    21621149.129    84846034.061          34.113          52.100  
G05  21366744.344   112282996.434       -2091.180          47.400    21366746.207    87493289.382       -1629.492          39.800    21366746.375    87493279.140       -1629.492          46.800                                                                  
G14  24106447.531   126680264.964        -364.516          39.200    24106450.793    98711885.772        -284.039          22.000    24106450.613    98711897.528        -284.039          39.400    24106454.766    94598902.877        -272.203          44.900  
G23  22726001.063   119425964.878        2996.316          41.000    22726003.586    93059232.879        2334.789          29.300    22726003.035    93059219.649        2334.789          44.200    22726006.512    89181754.393        2237.508          48.600  
E27  25773093.914   135438572.113        2540.840          43.600    25773096.637   103777643.117        1946.879          47.300    25773097.207   101139233.493        1897.383          47.300  
E33  25423209.156   133599874.186        -730.859          43.600    25423208.777   102368736.782        -560.008          48.600    25423209.469    99766141.417        -545.770          48.500  
E26  25419444.719   133580049.980       -2688.281          43.600    25419447.301   102353541.921       -2059.852          45.700    25419448.785    99751333.571       -2007.480          46.200  
E30  24901441.938   130858005.491         241.891          44.000    24901442.500   100267833.666         185.344          47.300    24901443.520    97718653.932         180.633          46.600  
E07  24562367.242   129076150.364        -989.684          47.200    24562367.992    98902527.055        -758.328          51.500    24562368.258    96388060.677        -739.047          51.100  
E08  26373869.734   138595580.247       -1879.742          35.600    26373871.434   106196599.270       -1440.320          34.900    26373871.945   103496686.837       -1403.703          35.600  
> 2021 09 22 06 30 18.0000000  0 18                     
G13  21536907.344   113177311.121       -1982.555          45.800    21536907.707    88190169.398       -1544.848          34.700                                                                                                                                  
G20  23511320.078   123552819.544       -3330.398          39.400    23511322.719    96274886.249       -2595.117          19.900                                                                                                                                  
G15  20325557.008   106811616.141        -317.078          49.800    20325558.066    83229844.995        -247.074          53.400    20325557.625    83229826.750        -247.074          49.100                                                                  
G24  20620154.055   108359897.367        2157.777          46.200    20620158.781    84436370.557        1681.387          51.600    20620159.016    84436334.313        1681.387          49.500    20620159.352    80918165.743        1611.328          54.900  
J01  38890707.227   204372039.302         228.852          46.400    38890707.348   204372041.555         228.852          49.700    38890705.090   204372063.307         228.852          46.100    38890706.719   159250940.794         178.328          48.800    38890710.648   152615484.210         170.898          53.800  
J02  37120946.414   195072034.045         341.754          41.000    37120946.352   195072068.300         341.754          44.700    37120943.059   195072058.431         341.754          42.700    37120949.480   152004254.798         266.301          44.300    37120952.688   145670753.960         255.207          47.500  
J07  37265859.273   195833378.099          -0.223          38.400    37265858.938   195833375.386          -0.223          42.000    37265853.746   195833427.316          -0.223          44.700    37265860.160   152597423.690          -0.176          47.500    37265863.824   146239196.258          -0.168          51.400  
J03  37513599.297   197135237.513        -458.023          37.200    37513599.645   197135217.758        -458.023          40.900    37513596.680   197135200.827        -458.023          38.600    37513605.949   153611838.732        -356.898          38.400    37513611.117   147211340.441        -342.031          43.400  
G18  21621135.555   113619857.314          44.914          44.600    21621137.395    88534960.837          34.996          35.500    21621137.191    88534956.582          34.996          47.800    21621140.609    84846000.305          33.539          51.700  
G05  21367142.859   112285087.913       -2091.508          46.400    21367144.258    87494919.105       -1629.746          39.900    21367144.309    87494908.862       -1629.746          46.500                                                                  
G14  24106516.828   126680629.813        -364.918          39.000    24106520.176    98712170.079        -284.352          24.100    24106520.016    98712181.836        -284.352          39.200    24106524.035    94599175.363        -272.504          44.700  
G23  22725430.906   119422968.801        2996.156          41.000    22725433.289    93056898.275        2334.668          29.600    22725433.070    93056885.038        2334.668          44.500    22725436.469    89179517.055        2237.391          48.500  
E27  25772610.664   135436031.408        2540.738          43.600    25772613.125   103775696.349        1946.801          46.800    25772613.609   101137336.205        1897.305          47.000  
E33  25423348.281   133600605.374        -731.336          44.000    25423347.953   102369297.053        -560.375          48.500    25423348.582    99766687.444        -546.129          48.300  
E26  25419956.461   133582738.443       -2688.438          43.800    25419958.809   102355601.901       -2059.973          45.700    25419960.387    99753341.169       -2007.598          46.000  
E30  24901396.234   130857763.956         241.406          44.400    24901396.672   100267648.578         184.973          47.200    24901397.641    97718473.559         180.270          46.700  
E07  24562555.539   129077140.173        -989.688          47.800    24562556.379    98903285.483        -758.332          52.100    24562556.664    96388799.830        -739.051          51.000  
E08  26374227.523   138597460.116       -1879.750          35.400    26374229.230   106198039.621       -1440.328          33.800    26374229.945   103498090.600       -1403.711          35.600  
> 2021 09 22 06 30 19.0000000  0 18                     
G13  21537283.953   113179293.911       -1982.777          45.600    21537284.945    88191714.430       -1545.020          34.100                                                                                                                                  
G20  23511953.750   123556150.062       -3330.613          39.600    23511956.457    96277481.459       -2595.285          20.400                                                                                                                                  
G15  20325617.141   106811933.499        -317.422          49.800    20325618.457    83230092.289        -247.340          53.400    20325618.352    83230074.028        -247.340          49.000                                                                  
G24  20619743.750   108357740.018        2157.238          46.200    20619748.277    84434689.508        1680.965          51.600    20619748.551    84434653.264        1680.965          49.300    20619748.691    80916554.735        1610.926          55.000  
J01  38890663.203   204371810.629         228.781          46.800    38890664.027   204371812.860         228.781          49.600    38890661.637   204371834.634         228.781          46.300    38890663.172   159250762.586         178.270          48.800    38890667.063   152615313.435         170.844          53.800  
J02  37120881.781   195071692.497         341.578          40.800    37120881.656   195071726.744         341.578          44.800    37120878.016   195071716.882         341.578          42.900    37120884.586   152003988.652         266.164          44.300    37120887.535   145670498.902         255.074          47.300  
J07  37265859.883   195833378.598          -0.336          38.600    37265859.008   195833375.857          -0.336          42.100    37265853.801   195833427.815          -0.336          45.200    37265860.285   152597424.071          -0.262          47.300    37265863.797   146239196.630          -0.250          51.500  
J03  37513686.695   197135695.658        -458.078          37.400    37513686.352   197135675.924        -458.078          40.800    37513683.727   197135658.979        -458.078          38.800    37513693.477   153612195.723        -356.945          37.400    37513698.434   147211682.571        -342.074          43.200  
G18  21621126.617   113619812.750          44.355          44.400    21621128.973    88534926.118          34.563          35.500    21621128.941    88534921.876          34.563          47.900    21621132.121    84845967.045          33.125          52.000  
G05  21367540.477   112287179.794       -2091.922          46.400    21367542.355    87496549.141       -1630.070          39.700    21367542.273    87496538.906       -1630.070          46.600                                                                  
G14  24106586.539   126680995.284        -365.711          38.800    24106589.809    98712454.851        -284.969          22.900    24106589.902    98712466.609        -284.969          39.900    24106593.590    94599448.266        -273.098          44.700  
G23  22724861.016   119419972.858        2996.086          41.200    22724863.082    93054563.776        2334.613          30.000    22724862.797    93054550.568        2334.613          44.500    22724866.320    89177279.852        2237.336          48.600  
E27  25772127.180   135433490.875        2540.430          43.600    25772129.582   103773749.715        1946.563          47.000    25772130.227   101135439.073        1897.074          46.900  
E33  25423487.570   133601337.032        -731.875          44.200    25423487.277   102369857.672        -560.785          48.600    25423487.852    99767233.813        -546.527          48.200  
E26  25420467.938   133585427.059       -2688.715          43.600    25420470.477   102357662.021       -2060.184          45.700    25420472.168    99755348.912       -2007.805          46.200  
E30  24901350.305   130857522.859         241.023          44.400    24901350.711   100267463.847         184.680          47.100    24901351.684    97718293.533         179.984          46.700  
E07  24562744.055   129078130.048        -989.805          46.800    24562744.805    98904043.958        -758.422          52.000    24562745.016    96389539.024        -739.141          51.300  
E08  26374585.500   138599339.976       -1879.668          35.400    26374587.043   106199480.069       -1440.266          34.800    26374587.895   103499494.427       -1403.648          35.400  
> 2021 09 22 06 30 20.0000000  0 18                     
G13  21537661.859   113181276.808       -1983.012          45.800    21537662.313    88193259.552       -1545.203          34.600                                                                                                                                  
G20  23512587.789   123559480.737       -3330.699          39.400    23512590.383    96280076.785       -2595.352          21.300                                                                                                                                  
G15  20325677.523   106812251.081        -317.707          49.800    20325678.895    83230339.759        -247.563          53.400    20325678.516    83230321.507        -247.563          49.100                                                                  
G24  20619333.664   108355583.132        2156.684          46.000    20619337.859    84433008.824        1680.535          51.600    20619337.980    84432972.587        1680.535          49.800    20619338.344    80914944.086        1610.512          55.000  
J01  38890620.156   204371581.779         228.887          46.800    38890620.320   204371584.025         228.887          49.600    38890618.031   204371605.784         228.887          46.300    38890619.863   159250584.272         178.352          49.300    38890623.570   152615142.541         170.922          53.900  
J02  37120816.500   195071350.932         341.547          40.400    37120816.559   195071385.185         341.547          44.900    37120813.000   195071375.319         341.547          42.600    37120819.645   152003722.515         266.141          44.100    37120822.559   145670243.840         255.051          47.000  
J07  37265858.914   195833379.041          -0.406          38.400    37265859.039   195833376.312          -0.406          41.900    37265853.848   195833428.259          -0.406          45.100    37265860.488   152597424.412          -0.316          47.600    37265864.055   146239196.950          -0.305          51.600  
J03  37513773.688   197136153.749        -458.078          37.000    37513773.953   197136133.994        -458.078          40.800    37513771.051   197136117.063        -458.078          38.300    37513780.945   153612552.662        -356.941          37.700    37513785.820   147212024.648        -342.070          43.100  
G18  21621118.414   113619768.830          43.598          44.400    21621120.492    88534891.888          33.973          36.000    21621120.648    88534887.632          33.973          48.100    21621123.801    84845934.230          32.559          51.700  
G05  21367938.891   112289272.050       -2092.426          46.600    21367940.523    87498179.468       -1630.461          39.600    21367940.746    87498169.218       -1630.461          46.800                                                                  
G14  24106656.672   126681361.269        -366.230          38.800    24106659.418    98712740.042        -285.375          23.300    24106659.367    98712751.794        -285.375          39.600    24106663.180    94599721.559        -273.484          44.600  
G23  22724290.523   119416976.994        2995.809          41.200    22724293.063    93052229.331        2334.398          29.900    22724293.031    93052216.086        2334.398          44.500    22724296.273    89175042.651        2237.133          48.700  
E27  25771643.766   135430950.503        2540.313          43.600    25771646.156   103771803.185        1946.473          46.800    25771646.719   101133542.037        1896.988          46.800  
E33  25423626.953   133602069.105        -732.230          44.000    25423626.660   102370418.607        -561.063          48.300    25423627.203    99767780.481        -546.797          48.500  
E26  25420979.742   133588115.806       -2688.824          43.800    25420982.156   102359722.211       -2060.266          46.000    25420983.719    99757356.723       -2007.887          46.400  
E30  24901304.281   130857282.188         240.477          44.400    24901304.793   100267279.455         184.262          47.000    24901306.039    97718113.810         179.578          46.400  
E07  24562932.414   129079119.941        -989.855          47.200    24562933.148    98904802.443        -758.461          52.000    24562933.367    96390278.231        -739.176          51.300  
E08  26374943.016   138601219.808       -1879.824          35.600    26374944.984   106200920.468       -1440.387          35.100    26374945.434   103500898.144       -1403.766          35.800  
> 2021 09 22 06 30 21.0000000  0 18                     
G13  21538038.867   113183259.870       -1983.117          46.200    21538039.477    88194804.790       -1545.285          35.200                                                                                                                                  
G20  23513220.609   123562811.702       -3331.063          39.200    23513224.211    96282672.322       -2595.633          21.500                                                                                                                                  
G15  20325738.219   106812568.986        -317.984          50.000    20325739.414    83230587.475        -247.781          53.400    20325739.160    83230569.229        -247.781          49.000                                                                  
G24  20618923.016   108353426.829        2156.105          46.200    20618927.570    84431328.584        1680.082          51.500    20618927.820    84431292.340        1680.082          49.800    20618927.941    80913333.854        1610.082          55.000  
J01  38890576.570   204371352.894         228.938          46.200    38890576.754   204371355.140         228.938          49.600    38890574.719   204371376.899         228.938          46.500    38890576.324   159250405.917         178.395          49.000    38890579.988   152614971.626         170.961          53.900  
J02  37120751.406   195071009.485         341.453          41.000    37120751.539   195071043.717         341.453          44.800    37120747.961   195071033.864         341.453          42.700    37120754.617   152003456.448         266.066          43.600    37120757.641   145669988.859         254.980          47.000  
J07  37265859.234   195833379.515          -0.352          38.600    37265859.168   195833376.775          -0.352          42.000    37265854.254   195833428.731          -0.352          45.100    37265860.551   152597424.777          -0.273          47.600    37265864.160   146239197.296          -0.262          51.700  
J03  37513860.594   197136611.808        -457.879          37.000    37513860.988   197136592.074        -457.879          40.600    37513858.238   197136575.121        -457.879          37.300    37513867.602   153612909.650        -356.789          38.000    37513872.980   147212366.712        -341.922          43.400  
G18  21621110.570   113619725.605          42.898          44.600    21621112.301    88534858.203          33.430          35.300    21621112.285    88534853.952          33.430          48.100    21621115.461    84845901.946          32.035          52.000  
G05  21368336.891   112291364.738       -2092.898          46.800    21368338.707    87499810.134       -1630.828          39.800    21368338.727    87499799.898       -1630.828          46.500                                                                  
G14  24106726.844   126681727.832        -366.809          39.200    24106729.410    98713025.669        -285.824          22.500    24106729.410    98713037.428        -285.824          39.500    24106733.117    94599995.309        -273.914          44.600  
G23  22723720.109   119413981.310        2995.652          41.000    22723722.961    93049895.035        2334.273          29.100    22723722.840    93049881.803        2334.273          44.700    22723726.246    89172805.617        2237.016          48.800  
E27  25771160.234   135428410.352        2540.066          44.000    25771162.781   103769856.844        1946.285          46.600    25771163.469   101131645.173        1896.805          47.100  
E33  25423766.523   133602801.669        -732.750          44.600    25423765.961   102370979.922        -561.457          48.500    25423766.551    99768327.538        -547.184          48.600  
E26  25421491.492   133590804.782       -2689.195          44.000    25421493.801   102361782.577       -2060.551          46.000    25421495.500    99759364.703       -2008.164          46.400  
E30  24901258.703   130857042.014         240.031          44.000    24901259.242   100267095.428         183.922          47.000    24901260.156    97717934.460         179.246          46.600  
E07  24563120.852   129080109.938        -989.969          47.600    24563121.555    98905561.021        -758.547          52.000    24563121.820    96391017.511        -739.262          51.600  
E08  26375300.664   138603099.631       -1879.781          35.600    26375302.719   106202360.861       -1440.352          35.300    26375303.020   103502301.900       -1403.734          35.800  
> 2021 09 22 06 30 22.0000000  0 18                     
G13  21538415.898   113185243.147       -1983.336          45.800    21538416.855    88196350.200       -1545.457          34.700                                                                                                                                  
G20  23513855.563   123566142.897       -3331.234          39.400    23513858.070    96285268.055       -2595.770          20.900                                                                                                                                  
G15  20325798.836   106812887.265        -318.395          50.200    20325799.902    83230835.487        -248.098          53.300    20325799.730    83230817.235        -248.098          49.400                                                                  
G24  20618513.242   108351271.122        2155.602          46.400    20618517.496    84429648.820        1679.688          51.600    20618517.754    84429612.569        1679.688          49.900    20618517.777    80911724.067        1609.703          54.900  
J01  38890532.742   204371123.965         229.137          46.400    38890533.105   204371126.218         229.137          49.600    38890530.844   204371147.969         229.137          46.200    38890532.867   159250227.540         178.547          49.400    38890536.418   152614800.670         171.109          53.900  
J02  37120686.516   195070668.127         341.441          41.000    37120686.301   195070702.375         341.441          44.800    37120683.074   195070692.513         341.441          42.600    37120689.633   152003190.452         266.059          43.600    37120692.695   145669733.957         254.973          47.000  
J07  37265858.695   195833380.025          -0.410          39.000    37265859.336   195833377.283          -0.410          42.000    37265854.266   195833429.242          -0.410          45.100    37265860.680   152597425.178          -0.320          47.800    37265864.254   146239197.688          -0.305          51.500  
J03  37513947.938   197137069.988        -458.023          37.400    37513948.391   197137050.215        -458.023          40.900    37513945.324   197137033.307        -458.023          37.700    37513955.195   153613266.613        -356.902          38.100    37513960.070   147212708.831        -342.031          43.100  
G18  21621102.094   113619683.092          42.313          44.600    21621104.148    88534825.079          32.973          36.100    21621104.238    88534820.830          32.973          47.700    21621107.461    84845870.211          31.598          51.900  
G05  21368735.469   112293457.898       -2093.238          47.000    21368737.152    87501441.164       -1631.094          40.200    21368737.074    87501430.930       -1631.094          46.400                                                                  
G14  24106796.539   126682095.041        -367.406          39.200    24106799.281    98713311.808        -286.293          22.800    24106798.750    98713323.575        -286.293          39.900    24106802.879    94600269.522        -274.363          44.600  
G23  22723150.844   119410985.851        2995.395          41.800    22723152.750    93047560.913        2334.074          29.700    22723152.605    93047547.669        2334.074          44.600    22723156.340    89170568.729        2236.820          48.800  
E27  25770677.031   135425870.454        2539.801          43.600    25770679.512   103767910.693        1946.082          46.700    25770680.152   101129748.492        1896.602          46.900  
E33  25423905.820   133603534.769        -733.223          44.600    25423905.504   102371541.641        -561.820          48.500    25423905.961    99768874.969        -547.535          48.600  
E26  25422003.109   133593493.948       -2689.289          43.400    25422005.473   102363843.133       -2060.621          45.500    25422007.375    99761372.871       -2008.234          46.700  
E30  24901213.133   130856802.387         239.500          44.000    24901213.656   100266911.798         183.516          47.200    24901214.582    97717755.505         178.848          46.600  
E07  24563309.195   129081100.060        -990.102          47.600    24563309.957    98906319.686        -758.648          51.500    24563310.199    96391756.881        -739.363          51.600  
E08  26375658.336   138604979.542       -1879.809          35.800    26375660.273   106203801.280       -1440.375          35.100    26375660.793   103503705.733       -1403.754          35.600  
> 2021 09 22 06 30 23.0000000  0 18                     
G13  21538793.406   113187226.526       -1983.500          46.400    21538794.328    88197895.688       -1545.586          34.500                                                                                                                                  
G20  23514488.922   123569474.353       -3331.586          39.600    23514491.980    96287863.989       -2596.043          21.500                                                                                                                                  
G15  20325859.266   106813205.775        -318.734          50.400    20325860.449    83231083.675        -248.363          53.300    20325860.344    83231065.422        -248.363          49.200                                                                  
G24  20618102.945   108349115.894        2154.992          46.600    20618107.160    84427969.419        1679.215          51.600    20618107.258    84427933.183        1679.215          49.100    20618107.578    80910114.654        1609.246          55.000  
J01  38890489.805   204370894.926         229.004          46.800    38890489.426   204370897.171         229.004          49.600    38890487.359   204370918.930         229.004          46.600    38890489.121   159250049.072         178.445          49.100    38890492.887   152614629.635         171.008          53.900  
J02  37120621.461   195070326.807         341.293          41.200    37120621.691   195070361.055         341.293          44.900    37120618.410   195070351.194         341.293          43.200    37120624.637   152002924.492         265.945          43.900    37120627.816   145669479.075         254.863          47.300  
J07  37265859.375   195833380.514          -0.488          38.600    37265859.379   195833377.743          -0.488          42.000    37265854.137   195833429.731          -0.488          45.200    37265861.121   152597425.566          -0.379          47.700    37265864.387   146239198.047          -0.363          51.500  
J03  37514035.461   197137528.030        -458.102          37.200    37514035.656   197137508.300        -458.102          40.900    37514032.363   197137491.351        -458.102          37.700    37514042.090   153613623.515        -356.961          37.900    37514047.344   147213050.897        -342.090          43.000  
G18  21621093.969   113619641.221          41.480          44.400    21621096.262    88534792.451          32.320          35.800    21621096.133    88534788.205          32.320          47.400    21621099.523    84845838.931          30.977          51.700  
G05  21369133.805   112295551.440       -2093.750          47.400    21369135.508    87503072.499       -1631.492          39.900    21369135.344    87503062.249       -1631.492          46.500                                                                  
G14  24106866.477   126682462.787        -368.148          38.800    24106869.191    98713598.369        -286.871          23.000    24106868.996    98713610.121        -286.871          39.400    24106872.949    94600544.140        -274.918          44.700  
G23  22722580.773   119407990.470        2995.168          41.400    22722582.770    93045226.855        2333.895          29.100    22722582.512    93045213.610        2333.895          44.600    22722586.133    89168331.946        2236.648          48.800  
E27  25770193.594   135423330.694        2539.590          43.400    25770196.164   103765964.666        1945.918          47.200    25770196.859   101127851.948        1896.445          46.800  
E33  25424045.328   133604268.296        -733.797          44.800    25424045.008   102372103.698        -562.262          48.300    25424045.555    99769422.722        -547.965          48.700  
E26  25422515.164   133596183.270       -2689.539          43.600    25422517.141   102365903.770       -2060.816          45.600    25422519.094    99763381.123       -2008.422          46.700  
E30  24901167.586   130856563.174         238.906          44.400    24901168.133   100266728.519         183.059          47.300    24901169.047    97717576.880         178.402          46.400  
E07  24563497.875   129082090.221        -990.301          48.000    24563498.223    98907078.363        -758.805          51.300    24563498.637    96392496.283        -739.512          51.500  
E08  26376015.945   138606859.391       -1880.000          35.200    26376018.020   106205241.711       -1440.520          35.100    26376018.426   103505109.534       -1403.895          35.700  
> 2021 09 22 06 30 24.0000000  0 18                     
G13  21539170.859   113189210.088       -1983.473          46.400    21539171.895    88199441.321       -1545.566          34.100                                                                                                                                  
G20  23515123.195   123572806.006       -3331.695          39.800    23515126.074    96290460.078       -2596.129          20.600                                                                                                                                  
G15  20325919.883   106813524.635        -318.859          49.800    20325921.219    83231332.142        -248.461          53.300    20325921.109    83231313.883        -248.461          49.100                                                                  
G24  20617693.188   108346961.245        2154.582          46.600    20617697.258    84426290.474        1678.895          51.700    20617697.480    84426254.239        1678.895          49.500    20617697.621    80908505.665        1608.941          55.300  
J01  38890445.789   204370665.833         229.281          46.400    38890446.008   204370668.079         229.281          49.600    38890443.609   204370689.837         229.281          46.400    38890445.277   159249870.561         178.660          49.200    38890449.277   152614458.569         171.215          53.800  
J02  37120556.383   195069985.591         341.281          41.200    37120556.621   195070019.840         341.281          44.900    37120553.457   195070009.977         341.281          43.000    37120559.918   152002658.610         265.934          44.100    37120562.793   145669224.266         254.852          47.500  
J07  37265859.359   195833381.025          -0.348          38.200    37265859.262   195833378.285          -0.348          41.800    37265854.016   195833430.249          -0.348          45.200    37265860.906   152597425.960          -0.273          48.000    37265864.473   146239198.425          -0.262          51.500  
J03  37514122.984   197137986.136        -457.934          37.600    37514122.816   197137966.393        -457.934          40.900    37514120.027   197137949.449        -457.934          38.000    37514129.523   153613980.520        -356.832          38.100    37514134.371   147213392.974        -341.961          43.300  
G18  21621085.977   113619600.061          40.949          44.200    21621088.516    88534760.380          31.910          35.000    21621088.168    88534756.126          31.910          47.300    21621091.773    84845808.202          30.578          51.800  
G05  21369532.234   112297645.441       -2094.066          47.400    21369534.008    87504704.185       -1631.738          40.200    21369534.188    87504693.942       -1631.738          46.300                                                                  
G14  24106935.930   126682831.181        -368.531          39.200    24106939.262    98713885.423        -287.168          25.100    24106938.809    98713897.178        -287.168          39.700    24106943.246    94600819.238        -275.203          44.400  
G23  22722011.383   119404995.295        2995.168          41.600    22722012.750    93042892.956        2333.898          30.900    22722012.953    93042879.716        2333.898          44.500    22722016.266    89166095.280        2236.652          48.600  
E27  25769710.523   135420791.209        2539.484          43.400    25769712.941   103764018.807        1945.840          47.000    25769713.461   101125955.563        1896.367          47.300  
E33  25424185.070   133605002.346        -734.234          44.600    25424184.816   102372666.137        -562.598          48.400    25424185.406    99769970.876        -548.293          48.900  
E26  25423026.813   133598872.822       -2689.578          44.000    25423029.020   102367964.589       -2060.844          45.700    25423030.895    99765389.536       -2008.449          46.600  
E30  24901122.063   130856324.455         238.605          44.400    24901122.695   100266545.606         182.828          47.100    24901123.555    97717398.635         178.180          46.600  
E07  24563686.094   129083080.489        -990.199          47.800    24563686.871    98907837.151        -758.723          51.500    24563687.027    96393235.770        -739.434          51.500  
E08  26376373.836   138608739.260       -1879.781          34.800    26376376.043   106206682.120       -1440.352          35.100    26376376.254   103506513.373       -1403.734          35.300  
> 2021 09 22 06 30 25.0000000  0 18                     
G13  21539548.617   113191193.688       -1983.551          46.400    21539549.406    88200986.985       -1545.625          35.200                                                                                                                                  
G20  23515757.148   123576137.840       -3331.797          39.600    23515760.289    96293056.302       -2596.207          20.900                                                                                                                                  
G15  20325980.734   106813843.681        -319.156          49.600    20325981.855    83231580.744        -248.691          53.400    20325981.516    83231562.506        -248.691          49.100                                                                  
G24  20617282.766   108344807.066        2153.941          46.200    20617287.402    84424611.896        1678.395          51.600    20617287.387    84424575.638        1678.395          49.200    20617287.703    80906897.003        1608.461          55.000  
J01  38890402.188   204370436.569         229.375          45.800    38890402.359   204370438.799         229.375          49.600    38890399.871   204370460.572         229.375          46.700    38890401.797   159249691.895         178.734          49.100    38890405.586   152614287.352         171.285          53.900  
J02  37120491.563   195069644.324         341.324          41.600    37120491.742   195069678.551         341.324          45.000    37120488.250   195069668.703         341.324          42.700    37120495.078   152002392.697         265.965          44.100    37120497.770   145668969.425         254.883          47.400  
J07  37265859.414   195833381.428          -0.074          38.400    37265859.215   195833378.701          -0.074          42.100    37265854.242   195833430.643          -0.074          45.000    37265861.090   152597426.284          -0.059          48.400    37265864.520   146239198.743          -0.055          51.600  
J03  37514210.336   197138444.145        -457.887          37.200    37514209.629   197138424.362        -457.887          40.800    37514206.402   197138407.458        -457.887          38.200    37514216.738   153614337.369        -356.793          37.600    37514221.695   147213734.981        -341.930          43.600  
G18  21621078.578   113619559.444          40.379          44.200    21621080.738    88534728.735          31.465          34.700    21621080.410    88534724.486          31.465          47.300    21621084.016    84845777.876          30.156          51.800  
G05  21369930.633   112299739.732       -2094.449          47.400    21369932.570    87506336.095       -1632.039          40.400    21369932.578    87506325.845       -1632.039          46.700                                                                  
G14  24107007.164   126683200.011        -368.965          39.200    24107009.484    98714172.826        -287.504          23.000    24107009.082    98714184.588        -287.504          39.700    24107013.457    94601094.669        -275.527          44.600  
G23  22721441.445   119402000.180        2995.180          41.400    22721442.828    93040559.104        2333.906          30.400    22721442.363    93040545.849        2333.906          44.900    22721446.266    89163858.651        2236.660          48.600  
E27  25769227.273   135418251.782        2539.414          43.200    25769229.648   103762073.030        1945.785          47.000    25769230.496   101124059.250        1896.316          47.300  
E33  25424324.984   133605736.725        -734.555          44.400    25424324.496   102373228.858        -562.840          48.200    25424325.152    99770519.289        -548.531          48.800  
E26  25423538.531   133601562.425       -2689.641          43.600    25423541.016   102370025.446       -2060.891          45.900    25423542.770    99767398.015       -2008.496          46.200  
E30  24901076.711   130856086.151         238.184          44.400    24901077.387   100266362.994         182.504          46.600    24901078.242    97717220.650         177.863          46.600  
E07  24563874.469   129084070.722        -990.207          47.600    24563875.273    98908595.901        -758.730          51.300    24563875.496    96393975.226        -739.438          51.400  
E08  26376731.242   138610619.050       -1879.602          35.200    26376733.852   106208122.500       -1440.211          35.000    26376734.008   103507917.105       -1403.598          35.000  
> 2021 09 22 06 30 26.0000000  0 18                     
G13  21539926.164   113193177.552       -1984.027          46.400    21539926.980    88202532.852       -1545.996          34.800                                                                                                                                  
G20  23516391.195   123579469.961       -3332.340          39.200    23516394.395    96295652.769       -2596.629          21.300                                                                                                                                  
G15  20326041.531   106814163.119        -319.734          49.600    20326042.660    83231829.661        -249.145          53.400    20326042.555    83231811.401        -249.145          49.100                                                                  
G24  20616873.203   108342653.466        2153.246          46.200    20616877.496    84422933.761        1677.852          51.700    20616877.590    84422897.517        1677.852          49.200    20616877.840    80905288.815        1607.941          55.000  
J01  38890358.453   204370207.287         229.266          45.800    38890358.793   204370209.546         229.266          49.600    38890356.504   204370231.298         229.266          46.800    38890358.418   159249513.253         178.648          49.300    38890361.961   152614116.149         171.203          53.800  
J02  37120427.109   195069303.209         341.039          41.800    37120426.957   195069337.439         341.039          44.900    37120423.500   195069327.595         341.039          42.700    37120429.996   152002126.894         265.742          43.800    37120432.906   145668714.708         254.672          47.200  
J07  37265859.156   195833381.958          -0.570          38.400    37265859.301   195833379.223          -0.570          42.000    37265854.391   195833431.175          -0.570          44.900    37265861.195   152597426.688          -0.445          48.300    37265864.711   146239199.121          -0.426          51.500  
J03  37514297.258   197138902.198        -458.031          37.200    37514296.941   197138882.451        -458.031          40.700    37514293.906   197138865.518        -458.031          38.300    37514303.566   153614694.287        -356.906          37.700    37514308.742   147214077.020        -342.035          43.900  
G18  21621071.430   113619519.612          39.441          44.600    21621073.199    88534697.695          30.734          35.000    21621073.156    88534693.446          30.734          48.000    21621076.293    84845748.133          29.453          51.900  
G05  21370329.273   112301834.530       -2095.043          47.000    21370331.168    87507968.405       -1632.500          39.700    21370331.047    87507958.169       -1632.500          46.800                                                                  
G14  24107077.328   126683569.534        -369.930          39.400    24107079.684    98714460.754        -288.258          22.600    24107079.656    98714472.539        -288.258          39.600    24107083.578    94601370.611        -276.246          44.900  
G23  22720871.016   119399005.273        2994.801          41.200    22720872.934    93038225.410        2333.613          29.800    22720872.781    93038212.166        2333.613          44.600    22720876.371    89161622.219        2236.379          48.600  
E27  25768744.063   135415712.662        2538.980          43.800    25768746.418   103760127.466        1945.453          47.000    25768747.195   101122163.163        1895.992          47.400  
E33  25424464.758   133606471.686        -735.230          44.000    25424464.410   102373792.003        -563.359          48.200    25424465.020    99771068.118        -549.035          48.800  
E26  25424050.469   133604252.290       -2689.953          44.000    25424052.758   102372086.532       -2061.133          45.600    25424054.738    99769406.694       -2008.730          46.300  
E30  24901031.547   130855848.360         237.484          44.400    24901032.285   100266180.799         181.969          46.800    24901032.949    97717043.101         177.340          46.300  
E07  24564063.094   129085061.128        -990.551          48.000    24564063.695    98909354.780        -758.992          51.500    24564063.953    96394714.818        -739.695          51.200  
E08  26377089.125   138612498.937       -1879.887          35.200    26377091.719   106209562.921       -1440.434          35.300    26377091.555   103509320.914       -1403.813          35.500  
> 2021 09 22 06 30 27.0000000  0 18                     
G13  21540303.438   113195161.492       -1983.957          46.400    21540304.453    88204078.784       -1545.941          34.200                                                                                                                                  
G20  23517025.688   123582802.283       -3332.648          39.600    23517028.617    96298249.406       -2596.871          21.100                                                                                                                                  
G15  20326102.383   106814482.787        -319.902          50.000    20326103.559    83232078.754        -249.273          53.400    20326103.250    83232060.494        -249.273          49.100                                                                  
G24  20616463.430   108340500.371        2152.844          46.200    20616467.652    84421256.031        1677.539          51.600    20616467.711    84421219.781        1677.539          49.300    20616468.160    80903680.983        1607.645          54.900  
J01  38890314.844   204369977.877         229.348          45.800    38890314.941   204369980.123         229.348          49.600    38890313.055   204370001.882         229.348          46.900    38890314.680   159249334.475         178.711          48.900    38890318.305   152613944.831         171.266          53.800  
J02  37120361.898   195068962.070         341.070          41.600    37120361.703   195068996.325         341.070          44.900    37120358.680   195068986.455         341.070          43.000    37120365.102   152001861.073         265.770          43.700    37120367.988   145668459.979         254.695          46.800  
J07  37265859.375   195833382.413          -0.684          38.400    37265859.711   195833379.661          -0.684          42.100    37265854.582   195833431.629          -0.684          44.800    37265861.348   152597427.045          -0.531          47.800    37265864.641   146239199.463          -0.508          51.400  
J03  37514383.773   197139360.183        -457.957          37.400    37514384.320   197139340.435        -457.957          40.800    37514381.336   197139323.505        -457.957          38.500    37514390.758   153615051.171        -356.852          37.700    37514395.793   147214419.039        -341.980          43.800  
G18  21621063.375   113619480.376          38.914          44.400    21621065.609    88534667.115          30.320          35.200    21621065.828    88534662.879          30.320          48.000    21621068.828    84845718.838          29.059          51.900  
G05  21370727.984   112303929.682       -2095.414          46.600    21370729.977    87509600.986       -1632.789          40.100    21370730.160    87509590.743       -1632.789          46.900                                                                  
G14  24107147.250   126683939.564        -370.266          39.800    24107149.996    98714749.110        -288.520          24.000    24107149.715    98714760.880        -288.520          39.800    24107154.078    94601646.931        -276.496          45.000  
G23  22720300.625   119396010.474        2994.668          40.800    22720302.996    93035891.797        2333.508          29.100    22720302.723    93035878.538        2333.508          44.800    22720306.441    89159385.834        2236.281          49.100  
E27  25768260.805   135413173.691        2538.848          44.200    25768263.547   103758182.013        1945.352          46.900    25768264.102   101120267.161        1895.895          47.300  
E33  25424604.586   133607207.056        -735.711          44.400    25424604.363   102374355.462        -563.727          48.300    25424605.047    99771617.260        -549.395          48.500  
E26  25424562.266   133606942.310       -2690.141          44.000    25424564.582   102374147.706       -2061.277          45.600    25424566.590    99771415.451       -2008.871          46.800  
E30  24900986.180   130855610.995         237.082          45.000    24900986.883   100265998.930         181.660          46.800    24900987.746    97716865.833         177.043          46.600  
E07  24564251.477   129086051.538        -990.512          47.800    24564252.164    98910113.658        -758.965          51.700    24564252.473    96395454.407        -739.668          51.200  
E08  26377446.828   138614378.774       -1879.836          36.400    26377449.363   106211003.321       -1440.395          35.100    26377449.172   103510724.637       -1403.773          35.600  
> 2021 09 22 06 30 28.0000000  0 18                     
G13  21540681.063   113197145.603       -1984.230          46.200    21540681.852    88205624.838       -1546.152          34.500                                                                                                                                  
G20  23517660.430   123586134.822       -3332.465          38.800    23517662.613    96300846.153       -2596.727          21.500                                                                                                                                  
G15  20326163.172   106814802.770        -320.133          50.200    20326164.391    83232328.090        -249.457          53.400    20326164.363    83232309.838        -249.457          49.300                                                                  
G24  20616053.648   108338347.808        2152.379          46.200    20616058.035    84419578.710        1677.180          51.700    20616058.047    84419542.466        1677.180          49.500    20616058.508    80902073.549        1607.297          55.000  
J01  38890271.313   204369748.395         229.520          45.600    38890271.520   204369750.633         229.520          49.600    38890269.199   204369772.400         229.520          46.800    38890270.734   159249155.664         178.844          49.300    38890274.684   152613773.458         171.395          54.100  
J02  37120296.625   195068621.047         341.090          41.600    37120296.855   195068655.292         341.090          44.900    37120293.621   195068645.426         341.090          43.200    37120300.324   152001595.336         265.785          43.600    37120302.934   145668205.302         254.711          47.000  
J07  37265860.039   195833382.867          -0.375          38.400    37265859.973   195833380.139          -0.375          42.100    37265854.797   195833432.084          -0.375          44.700    37265861.098   152597427.404          -0.293          47.900    37265864.699   146239199.815          -0.277          51.500  
J03  37514471.266   197139818.195        -457.805          37.800    37514471.234   197139798.449        -457.805          40.600    37514468.645   197139781.507        -457.805          38.400    37514478.051   153615408.062        -356.730          38.200    37514483.281   147214761.046        -341.867          43.900  
G18  21621056.258   113619441.851          38.246          44.400    21621058.188    88534637.097          29.801          35.500    21621058.281    88534632.848          29.801          47.800    21621061.559    84845690.051          28.559          52.100  
G05  21371127.352   112306025.278       -2095.719          47.000    21371128.680    87511233.916       -1633.027          40.400    21371128.629    87511223.665       -1633.027          46.700                                                                  
G14  24107217.820   126684310.208        -371.039          39.600    24107220.605    98715037.926        -289.121          24.300    24107220.746    98715049.665        -289.121          39.600    24107224.754    94601923.708        -277.074          44.300  
G23  22719731.039   119393015.837        2994.520          41.600    22719733.039    93033558.313        2333.391          29.900    22719733.098    93033545.073        2333.391          44.700    22719736.668    89157149.584        2236.168          48.800  
E27  25767777.758   135410634.926        2538.668          44.000    25767780.191   103756236.732        1945.215          46.600    25767781.012   101118371.343        1895.758          47.400  
E33  25424744.563   133607942.912        -736.098          44.400    25424744.148   102374919.308        -564.023          48.500    25424744.926    99772166.754        -549.684          48.900  
E26  25425074.273   133609632.506       -2690.246          44.000    25425076.641   102376209.025       -2061.359          46.000    25425078.426    99773424.366       -2008.949          47.200  
E30  24900941.133   130855374.104         236.773          44.800    24900941.867   100265817.424         181.426          47.300    24900942.652    97716688.960         176.813          46.800  
E07  24564440.031   129087042.031        -990.418          47.600    24564440.637    98910872.621        -758.891          52.000    24564441.066    96396194.069        -739.598          51.400  
E08  26377804.695   138616258.625       -1879.887          36.200    26377806.629   106212443.743       -1440.434          34.900    26377807.145   103512128.446       -1403.813          35.800  
> 2021 09 22 06 30 29.0000000  0 18                     
G13  21541058.773   113199129.864       -1984.254          45.600    21541059.527    88207171.013       -1546.172          34.500                                                                                                                                  
G20  23518294.125   123589467.631       -3332.945          38.800    23518296.879    96303443.147       -2597.102          21.300                                                                                                                                  
G15  20326224.234   106815123.065        -320.379          50.000    20326225.313    83232577.670        -249.645          53.400    20326225.020    83232559.412        -249.645          48.700                                                                  
G24  20615644.531   108336195.801        2151.789          46.200    20615648.609    84417901.818        1676.719          51.700    20615648.801    84417865.582        1676.719          49.200    20615649.016    80900466.538        1606.855          55.000  
J01  38890227.609   204369518.822         229.613          45.600    38890227.754   204369521.068         229.613          49.600    38890225.258   204369542.827         229.613          46.900    38890227.047   159248976.785         178.918          49.500    38890230.996   152613602.031         171.465          53.800  
J02  37120231.977   195068280.065         341.063          41.800    37120231.988   195068314.325         341.063          44.900    37120228.703   195068304.445         341.063          42.900    37120235.074   152001329.647         265.762          43.500    37120238.250   145667950.688         254.688          47.100  
J07  37265860.078   195833383.351          -0.320          38.600    37265859.672   195833380.604          -0.320          41.900    37265854.816   195833432.575          -0.320          44.700    37265861.355   152597427.778          -0.250          47.700    37265864.793   146239200.170          -0.238          51.700  
J03  37514558.672   197140276.219        -457.941          37.800    37514558.590   197140256.450        -457.941          40.700    37514555.309   197140239.532        -457.941          38.600    37514565.059   153615764.939        -356.840          37.800    37514570.172   147215103.053        -341.969          44.000  
G18  21621048.820   113619403.978          37.641          44.000    21621051.020    88534607.591          29.328          34.600    21621050.859    88534603.345          29.328          47.500    21621054.410    84845661.778          28.105          51.900  
G05  21371525.594   112308121.287       -2096.180          47.400    21371527.527    87512867.170       -1633.387          40.500    21371527.539    87512856.920       -1633.387          47.000                                                                  
G14  24107289.227   126684681.420        -371.434          38.800    24107291.270    98715327.174        -289.430          22.500    24107291.250    98715338.944        -289.430          39.500    24107295.508    94602200.916        -277.367          44.500  
G23  22719161.219   119390021.338        2994.520          41.600    22719163.270    93031224.947        2333.391          29.300    22719162.781    93031211.707        2333.391          44.500    22719166.688    89154913.449        2236.168          48.800  
E27  25767294.773   135408096.368        2538.422          44.000    25767296.965   103754291.605        1945.023          46.800    25767298.023   101116475.662        1895.574          47.700  
E33  25424884.719   133608679.233        -736.555          44.400    25424884.254   102375483.502        -564.375          48.300    25424885.180    99772716.608        -550.023          48.900  
E26  25425586.352   133612322.889       -2690.512          44.000    25425588.469   102378270.461       -2061.559          45.700    25425590.387    99775433.407       -2009.148          46.900  
E30  24900896.266   130855137.727         236.156          44.800    24900896.883   100265636.297         180.949          47.200    24900897.570    97716512.435         176.348          46.800  
E07  24564628.586   129088032.620        -990.629          47.800    24564629.121    98911631.629        -759.051          51.700    24564629.492    96396933.785        -739.754          51.700  
E08  26378161.938   138618138.460       -1879.773          35.600    26378164.203   106213884.126       -1440.344          35.100    26378164.762   103513532.243       -1403.727          35.800  
> 2021 09 22 06 30 30.0000000  0 18                     
G13  21541436.688   113201114.339       -1984.633          46.200    21541437.316    88208717.364       -1546.469          34.800                                                                                                                                  
G20  23518928.055   123592800.720       -3333.391          38.800    23518931.266    96306040.354       -2597.445          20.900                                                                                                                                  
G15  20326285.453   106815443.688        -320.863          50.400    20326286.469    83232827.507        -250.023          53.400    20326286.137    83232809.254        -250.023          48.600                                                                  
G24  20615235.250   108334044.400        2151.059          46.400    20615239.043    84416225.404        1676.148          51.600    20615239.336    84416189.153        1676.148          49.100    20615239.520    80898859.965        1606.309          55.100  
J01  38890183.766   204369289.227         229.539          45.600    38890183.922   204369291.488         229.539          49.700    38890181.684   204369313.239         229.539          47.200    38890183.602   159248797.875         178.863          49.100    38890187.285   152613430.587         171.410          53.800  
J02  37120167.133   195067939.226         340.746          41.600    37120167.250   195067973.477         340.746          44.700    37120164.242   195067963.612         340.746          43.200    37120170.422   152001064.054         265.516          43.700    37120173.340   145667696.155         254.453          47.300  
J07  37265859.984   195833383.884          -0.723          39.000    37265860.012   195833381.144          -0.723          42.100    37265854.773   195833433.108          -0.723          44.800    37265861.512   152597428.188          -0.563          47.600    37265864.914   146239200.565          -0.539          51.900  
J03  37514645.695   197140734.268        -458.180          38.200    37514645.727   197140714.532        -458.180          40.800    37514642.680   197140697.581        -458.180          38.600    37514652.516   153616121.857        -357.023          37.400    37514657.238   147215445.117        -342.148          43.700  
G18  21621042.305   113619366.860          36.680          44.600    21621044.043    88534578.670          28.582          34.900    21621043.977    88534574.405          28.582          47.600    21621047.418    84845634.046          27.391          52.100  
G05  21371924.563   112310217.768       -2096.762          47.200    21371926.598    87514500.784       -1633.840          40.400    21371926.258    87514490.540       -1633.840          46.800                                                                  
G14  24107359.047   126685053.269        -372.227          39.000    24107362.156    98715616.932        -290.047          22.900    24107361.582    98715628.696        -290.047          39.900    24107366.254    94602478.587        -277.961          44.300  
G23  22718591.859   119387027.067        2994.234          41.800    22718593.277    93028891.745        2333.168          29.300    22718593.270    93028878.498        2333.168          44.300    22718596.992    89152677.465        2235.953          48.700  
E27  25766811.852   135405558.061        2538.035          44.200    25766814.027   103752346.658        1944.730          46.800    25766815.008   101114580.178        1895.285          47.300  
E33  25425025.055   133609416.101        -737.207          44.600    25425024.691   102376048.114        -564.875          48.700    25425025.285    99773266.866        -550.512          49.000  
E26  25426098.109   133615013.493       -2690.727          43.600    25426100.500   102380332.119       -2061.727          45.800    25426102.418    99777442.636       -2009.309          47.000  
E30  24900851.266   130854901.831         235.594          44.600    24900851.953   100265455.544         180.520          47.400    24900852.699    97716336.285         175.930          46.600  
E07  24564817.031   129089023.323        -990.836          47.600    24564817.852    98912390.745        -759.211          51.500    24564818.043    96397673.593        -739.910          51.500  
E08  26378519.391   138620018.381       -1880.059          35.800    26378521.570   106215324.583       -1440.566          35.100    26378522.527   103514936.051       -1403.941          35.800  
> 2021 09 22 06 30 31.0000000  0 18                     
G13  21541814.211   113203098.866       -1984.691          46.400    21541815.129    88210263.746       -1546.512          34.600                                                                                                                                  
G20  23519561.719   123596133.937       -3333.590          38.800    23519565.441    96308637.675       -2597.605          19.900                                                                                                                                  
G15  20326346.617   106815764.548        -321.141          50.000    20326347.520    83233077.526        -250.238          53.400    20326347.156    83233059.274        -250.238          48.800                                                                  
G24  20614825.633   108331893.427        2150.621          46.200    20614829.867    84414549.325        1675.809          51.700    20614830.016    84414513.089        1675.809          49.300    20614830.207    80897253.730        1605.984          55.000  
J01  38890140.234   204369059.482         229.664          45.800    38890140.199   204369061.728         229.664          49.600    38890138.008   204369083.487         229.664          47.200    38890139.895   159248618.854         178.961          48.900    38890143.621   152613259.019         171.504          53.900  
J02  37120102.430   195067598.355         340.773          41.000    37120102.293   195067632.605         340.773          44.700    37120099.137   195067622.742         340.773          43.200    37120105.582   152000798.437         265.539          43.900    37120108.531   145667441.612         254.473          47.300  
J07  37265859.875   195833384.356          -0.621          39.000    37265859.977   195833381.600          -0.621          42.000    37265854.941   195833433.573          -0.621          44.900    37265861.461   152597428.540          -0.484          47.600    37265865.055   146239200.905          -0.465          51.400  
J03  37514732.703   197141192.248        -458.133          38.400    37514732.953   197141172.514        -458.133          40.900    37514729.645   197141155.568        -458.133          38.800    37514739.426   153616478.717        -356.984          37.600    37514744.355   147215787.109        -342.113          43.900  
G18  21621035.625   113619330.291          36.117          45.000    21621037.195    88534550.163          28.141          36.200    21621037.180    88534545.915          28.141          47.800    21621040.379    84845606.758          26.969          52.200  
G05  21372324.094   112312314.575       -2097.145          47.000    21372325.531    87516134.665       -1634.141          40.400    21372325.375    87516124.428       -1634.141          47.100                                                                  
G14  24107429.836   126685425.606        -372.688          39.000    24107433.035    98715907.067        -290.406          23.600    24107432.578    98715918.823        -290.406          39.900    24107437.133    94602756.642        -278.305          44.600  
G23  22718021.625   119384032.869        2994.016          42.200    22718023.586    93026558.605        2333.000          30.000    22718023.516    93026545.348        2333.000          44.300    22718027.344    89150441.527        2235.793          49.000  
E27  25766328.820   135403019.876        2537.887          44.200    25766330.980   103750401.827        1944.617          47.000    25766332.051   101112684.782        1895.176          47.200  
E33  25425165.383   133610153.346        -737.680          44.600    25425164.902   102376613.011        -565.234          48.600    25425165.656    99773817.402        -550.863          49.200  
E26  25426610.219   133617704.217       -2690.906          43.200    25426612.613   102382393.817       -2061.863          45.300    25426614.453    99779451.939       -2009.441          46.600  
E30  24900806.547   130854666.359         235.133          44.600    24900807.277   100265275.118         180.168          47.400    24900807.977    97716160.441         175.586          46.600  
E07  24565005.586   129090014.027        -990.875          48.000    24565006.230    98913149.851        -759.242          51.500    24565006.551    96398413.402        -739.941          51.300  
E08  26378877.602   138621898.239       -1879.898          35.400    26378879.547   106216764.942       -1440.441          35.100    26378880.168   103516339.806       -1403.820          35.800  
> 2021 09 22 06 30 32.0000000  0 18                     
G13  21542191.844   113205083.542       -1984.680          46.600    21542192.770    88211810.244       -1546.504          35.200                                                                                                                                  
G20  23520196.906   123599467.383       -3333.680          38.800    23520199.777    96311235.134       -2597.672          20.600                                                                                                                                  
G15  20326407.477   106816085.683        -321.352          50.200    20326408.574    83233327.759        -250.402          53.500    20326408.176    83233309.507        -250.402          49.300                                                                  
G24  20614416.320   108329743.007        2150.133          46.200    20614420.707    84412873.674        1675.430          51.700    20614420.781    84412837.438        1675.430          49.800    20614421.004    80895647.899        1605.621          55.000  
J01  38890096.234   204368829.633         229.852          45.800    38890096.590   204368831.879         229.852          49.700    38890094.281   204368853.644         229.852          47.300    38890096.094   159248439.748         179.105          48.800    38890099.891   152613087.378         171.641          54.100  
J02  37120037.320   195067257.546         340.754          40.800    37120037.398   195067291.780         340.754          44.900    37120033.773   195067281.932         340.754          43.500    37120040.703   152000532.866         265.523          44.100    37120043.559   145667187.106         254.461          47.500  
J07  37265859.789   195833384.774          -0.340          39.000    37265860.074   195833382.027          -0.340          41.900    37265855.285   195833433.991          -0.340          44.600    37265861.625   152597428.902          -0.266          47.900    37265865.086   146239201.240          -0.254          51.400  
J03  37514820.008   197141650.211        -458.020          38.600    37514820.082   197141630.449        -458.020          40.800    37514817.199   197141613.532        -458.020          39.200    37514826.590   153616835.568        -356.898          37.000    37514831.781   147216129.073        -342.027          43.800  
G18  21621028.008   113619294.416          35.477          45.400    21621030.207    88534522.212          27.645          35.700    21621030.297    88534517.962          27.645          47.600    21621033.508    84845579.961          26.492          52.100  
G05  21372722.867   112314411.797       -2097.480          47.200    21372724.570    87517768.861       -1634.398          40.000    21372724.352    87517758.611       -1634.398          47.300                                                                  
G14  24107501.109   126685798.517        -373.250          39.000    24107503.988    98716197.650        -290.844          23.000    24107503.637    98716209.414        -290.844          40.100    24107508.188    94603035.136        -278.727          45.100  
G23  22717451.883   119381038.810        2993.848          42.600    22717453.941    93024225.568        2332.871          29.700    22717453.961    93024212.328        2332.871          44.400    22717457.457    89148205.713        2235.668          48.800  
E27  25765845.711   135400481.872        2537.883          43.600    25765848.277   103748457.125        1944.613          47.000    25765848.945   101110789.526        1895.172          46.900  
E33  25425305.828   133610891.049        -738.035          44.400    25425305.406   102377178.270        -565.508          48.900    25425306.004    99774368.293        -551.129          49.000  
E26  25427122.164   133620395.099       -2690.984          43.600    25427124.613   102384455.679       -2061.922          45.500    25427126.605    99781461.365       -2009.500          46.800  
E30  24900761.750   130854431.326         234.785          44.600    24900762.570   100265095.037         179.902          47.300    24900763.168    97715984.947         175.328          46.600  
E07  24565194.125   129091004.785        -990.781          47.800    24565194.938    98913909.013        -759.168          51.800    24565195.109    96399153.264        -739.867          51.300  
E08  26379235.469   138623778.029       -1879.875          35.400    26379237.332   106218205.314       -1440.426          34.600    26379238.031   103517743.574       -1403.805          35.700  
> 2021 09 22 06 30 33.0000000  0 18                     
G13  21542569.875   113207068.373       -1984.852          46.400    21542570.336    88213356.865       -1546.637          35.000                                                                                                                                  
G20  23520830.852   123602801.094       -3333.941          38.800    23520834.227    96313832.844       -2597.879          20.900                                                                                                                                  
G15  20326468.852   106816407.151        -321.617          50.000    20326469.836    83233578.255        -250.613          53.400    20326469.758    83233560.004        -250.613          49.300                                                                  
G24  20614007.219   108327593.143        2149.645          46.600    20614011.578    84411198.459        1675.051          51.600    20614011.734    84411162.208        1675.051          49.700    20614011.883    80894042.480        1605.254          54.900  
J01  38890052.672   204368599.728         229.996          45.800    38890052.836   204368601.974         229.996          49.600    38890050.758   204368623.733         229.996          47.000    38890052.258   159248260.599         179.219          49.100    38890056.168   152612915.695         171.750          53.800  
J02  37119972.945   195066916.812         340.668          40.600    37119972.617   195066951.040         340.668          44.700    37119969.621   195066941.199         340.668          42.900    37119976.008   152000267.361         265.453          44.100    37119978.762   145666932.659         254.395          47.400  
J07  37265860.500   195833385.248          -0.523          38.800    37265860.035   195833382.527          -0.523          42.100    37265855.211   195833434.473          -0.523          44.600    37265861.727   152597429.260          -0.410          47.800    37265865.195   146239201.581          -0.391          51.400  
J03  37514907.047   197142108.193        -458.031          37.800    37514906.859   197142088.420        -458.031          40.600    37514904.313   197142071.513        -458.031          38.400    37514913.602   153617192.422        -356.906          37.100    37514918.746   147216471.062        -342.035          43.700  
G18  21621021.258   113619259.208          34.879          45.000    21621023.539    88534494.779          27.180          35.800    21621023.449    88534490.539          27.180          47.500    21621026.906    84845553.674          26.047          51.900  
G05  21373122.273   112316509.435       -2097.797          47.400    21373123.895    87519403.383       -1634.645          40.100    21373123.570    87519393.133       -1634.645          47.300                                                                  
G14  24107572.758   126686172.034        -373.922          39.000    24107575.035    98716488.700        -291.367          24.800    24107574.738    98716500.485        -291.367          40.300    24107579.180    94603314.054        -279.227          45.200  
G23  22716882.234   119378044.915        2993.816          42.200    22716884.133    93021892.668        2332.844          29.500    22716884.125    93021879.418        2332.844          44.300    22716887.711    89145970.013        2235.641          48.800  
E27  25765362.688   135397944.085        2537.703          43.800    25765365.242   103746512.597        1944.473          47.100    25765365.957   101108894.436        1895.039          47.000  
E33  25425446.156   133611629.250        -738.395          44.400    25425445.781   102377743.896        -565.785          49.000    25425446.465    99774919.533        -551.398          49.100  
E26  25427634.289   133623086.170       -2691.164          43.800    25427636.715   102386517.661       -2062.063          45.500    25427638.563    99783470.929       -2009.637          46.700  
E30  24900717.148   130854196.792         234.340          44.400    24900718.051   100264915.343         179.559          47.300    24900718.504    97715809.814         174.992          46.400  
E07  24565382.641   129091995.654        -990.945          48.200    24565383.445    98914668.232        -759.297          52.000    24565383.730    96399893.180        -739.992          51.700  
E08  26379593.195   138625657.879       -1879.965          35.800    26379595.254   106219645.730       -1440.492          34.600    26379595.887   103519147.321       -1403.867          35.300  
> 2021 09 22 06 30 34.0000000  0 18                     
G13  21542947.344   113209053.388       -1985.105          46.600    21542947.988    88214903.628       -1546.836          34.700                                                                                                                                  
G20  23521465.172   123606135.021       -3334.113          38.800    23521468.750    96316430.713       -2598.012          21.100                                                                                                                                  
G15  20326529.977   106816728.917        -322.055          50.000    20326530.988    83233828.985        -250.949          53.400    20326530.711    83233810.727        -250.949          49.400                                                                  
G24  20613598.000   108325443.808        2149.016          46.800    20613602.570    84409523.649        1674.559          51.600    20613602.781    84409487.406        1674.559          49.000    20613602.887    80892437.452        1604.785          55.000  
J01  38890008.953   204368369.765         229.898          46.400    38890008.953   204368371.989         229.898          49.600    38890006.902   204368393.769         229.898          47.100    38890008.539   159248081.402         179.141          49.100    38890012.348   152612743.956         171.680          53.800  
J02  37119907.664   195066576.121         340.598          41.000    37119907.563   195066610.376         340.598          44.900    37119904.543   195066600.507         340.598          42.800    37119911.074   152000001.899         265.402          44.100    37119913.945   145666678.267         254.344          47.000  
J07  37265860.781   195833385.749          -0.555          38.800    37265860.199   195833382.999          -0.555          41.900    37265855.152   195833434.966          -0.555          45.100    37265861.930   152597429.637          -0.434          47.600    37265865.266   146239201.950          -0.414          51.500  
J03  37514994.141   197142566.158        -458.055          37.800    37514994.328   197142546.418        -458.055          40.600    37514991.535   197142529.472        -458.055          38.300    37515001.008   153617549.311        -356.926          37.000    37515005.895   147216813.054        -342.055          43.300  
G18  21621014.773   113619224.702          34.207          44.400    21621017.105    88534467.893          26.652          35.700    21621016.914    88534463.642          26.652          47.500    21621020.352    84845527.904          25.543          51.800  
G05  21373521.469   112318607.500       -2098.352          47.600    21373523.156    87521038.235       -1635.078          40.000    21373522.914    87521027.992       -1635.078          47.300                                                                  
G14  24107643.953   126686546.148        -374.418          39.200    24107646.348    98716780.238        -291.754          24.300    24107645.895    98716791.997        -291.754          39.900    24107650.445    94603593.421        -279.598          45.200  
G23  22716312.586   119375051.154        2993.680          41.800    22716314.348    93019559.869        2332.738          29.200    22716314.172    93019546.630        2332.738          44.500    22716318.191    89143734.420        2235.539          49.000  
E27  25764879.938   135395406.532        2537.297          44.200    25764882.371   103744568.226        1944.164          47.300    25764883.031   101106999.501        1894.734          47.000  
E33  25425586.719   133612367.928        -738.973          44.600    25425586.367   102378309.898        -566.227          48.700    25425586.867    99775471.147        -551.832          48.900  
E26  25428146.336   133625777.452       -2691.391          43.800    25428148.914   102388579.812       -2062.234          45.400    25428150.785    99785480.650       -2009.805          46.400  
E30  24900672.453   130853962.763         233.785          44.600    24900673.371   100264735.998         179.133          47.200    24900673.965    97715635.033         174.582          46.400  
E07  24565571.094   129092986.585        -991.020          48.000    24565571.977    98915427.526        -759.352          51.500    24565572.211    96400633.174        -740.047          51.500  
E08  26379950.523   138627537.754       -1879.969          35.600    26379952.586   106221086.157       -1440.496          34.600    26379953.301   103520551.114       -1403.871          34.900  
> 2021 09 22 06 30 35.0000000  0 18                     
G13  21543325.109   113211038.517       -1985.254          46.800    21543325.672    88216450.483       -1546.949          34.600                                                                                                                                  
G20  23522099.195   123609469.149       -3334.262          38.000    23522103.391    96319028.722       -2598.125          21.100                                                                                                                                  
G15  20326591.172   106817050.952        -322.238          50.000    20326592.234    83234079.917        -251.098          53.500    20326592.250    83234061.664        -251.098          49.500                                                                  
G24  20613189.148   108323295.001        2148.531          46.400    20613193.750    84407849.255        1674.180          51.800    20613193.801    84407813.012        1674.180          49.300    20613193.934    80890832.825        1604.422          55.000  
J01  38889965.109   204368139.667         230.125          46.800    38889965.176   204368141.898         230.125          49.600    38889962.824   204368163.680         230.125          47.200    38889964.789   159247902.107         179.316          49.400    38889968.543   152612572.140         171.844          53.800  
J02  37119842.594   195066235.516         340.527          41.000    37119842.895   195066269.741         340.527          44.900    37119839.801   195066259.903         340.527          42.800    37119846.500   151999736.485         265.348          44.200    37119849.172   145666423.907         254.289          47.000  
J07  37265860.242   195833386.195          -0.438          38.800    37265860.277   195833383.448          -0.438          42.200    37265855.344   195833435.412          -0.438          45.200    37265862.004   152597429.990          -0.340          47.500    37265865.379   146239202.294          -0.328          51.600  
J03  37515081.445   197143024.131        -457.918          37.800    37515081.512   197143004.372        -457.918          40.900    37515078.504   197142987.452        -457.918          38.800    37515088.016   153617906.155        -356.820          37.500    37515093.082   147217155.015        -341.953          43.200  
G18  21621008.547   113619190.825          33.457          44.400    21621010.527    88534441.495          26.070          36.400    21621010.523    88534437.254          26.070          47.800    21621013.898    84845502.624          24.984          51.900  
G05  21373920.789   112320705.964       -2098.633          47.800    21373922.422    87522673.399       -1635.297          40.100    21373921.902    87522663.164       -1635.297          47.200                                                                  
G14  24107714.789   126686920.800        -374.953          39.600    24107717.691    98717072.159        -292.172          22.900    24107717.137    98717083.949        -292.172          39.900    24107721.688    94603873.205        -280.000          45.000  
G23  22715743.359   119372057.574        2993.566          41.800    22715744.711    93017227.217        2332.648          29.800    22715744.805    93017213.964        2332.648          44.200    22715748.301    89141498.946        2235.453          49.000  
E27  25764396.953   135392869.141        2537.242          44.200    25764399.379   103742624.000        1944.121          46.900    25764400.141   101105104.704        1894.695          47.100  
E33  25425727.508   133613107.054        -739.402          44.200    25425727.035   102378876.239        -566.555          48.500    25425727.637    99776023.092        -552.152          48.600  
E26  25428658.508   133628468.881       -2691.508          43.600    25428661.051   102390642.067       -2062.324          45.500    25428662.949    99787490.474       -2009.891          46.500  
E30  24900628.172   130853729.165         233.332          45.000    24900628.973   100264557.017         178.785          47.600    24900629.598    97715460.602         174.242          46.300  
E07  24565759.742   129093977.576        -990.977          48.000    24565760.660    98916186.859        -759.320          51.400    24565760.781    96401373.200        -740.016          51.700  
E08  26380308.609   138629417.581       -1879.805          34.800    26380310.316   106222526.533       -1440.367          34.700    26380311.219   103521954.933       -1403.750          35.000  
> 2021 09 22 06 30 36.0000000  0 18                     
G13  21543702.984   113213023.795       -1985.281          46.600    21543703.535    88217997.452       -1546.973          34.800                                                                                                                                  
G20  23522734.055   123612803.541       -3334.426          38.000    23522738.066    96321626.935       -2598.254          20.600                                                                                                                                  
G15  20326652.477   106817373.308        -322.434          50.000    20326653.645    83234331.106        -251.246          53.400    20326653.641    83234312.847        -251.246          48.500                                                                  
G24  20612780.281   108321146.725        2148.066          46.600    20612784.902    84406175.276        1673.816          51.700    20612784.941    84406139.033        1673.816          49.600    20612785.156    80889228.599        1604.074          54.900  
J01  38889921.063   204367909.511         230.320          47.400    38889921.320   204367911.749         230.320          49.600    38889919.063   204367933.516         230.320          47.400    38889920.969   159247722.764         179.469          49.600    38889924.746   152612400.270         171.992          53.800  
J02  37119777.930   195065894.944         340.672          41.200    37119778.023   195065929.207         340.672          45.100    37119774.930   195065919.323         340.672          42.600    37119781.340   151999471.111         265.457          44.200    37119784.289   145666169.603         254.398          46.800  
J07  37265860.531   195833386.680          -0.480          38.600    37265860.188   195833383.909          -0.480          42.000    37265855.535   195833435.897          -0.480          44.900    37265862.117   152597430.348          -0.375          47.300    37265865.410   146239202.644          -0.359          51.500  
J03  37515169.250   197143482.096        -457.918          38.000    37515168.934   197143462.335        -457.918          40.600    37515165.309   197143445.409        -457.918          38.600    37515175.004   153618262.978        -356.816          37.100    37515180.266   147217497.011        -341.949          43.600  
G18  21621001.813   113619157.652          32.922          44.400    21621004.164    88534415.647          25.656          35.500    21621004.230    88534411.391          25.656          47.900    21621007.582    84845477.836          24.586          51.800  
G05  21374320.047   112322804.864       -2099.039          46.800    21374321.855    87524308.904       -1635.617          40.100    21374321.684    87524298.653       -1635.617          47.200                                                                  
G14  24107786.461   126687296.062        -375.410          39.200    24107789.047    98717364.580        -292.527          24.000    24107788.563    98717376.343        -292.527          39.700    24107793.223    94604153.423        -280.340          45.000  
G23  22715173.813   119369064.137        2993.508          41.800    22715175.070    93014894.664        2332.605          30.100    22715175.289    93014881.407        2332.605          44.100    22715178.691    89139263.589        2235.414          48.900  
E27  25763914.133   135390331.955        2537.207          44.000    25763916.633   103740679.927        1944.094          47.300    25763917.465   101103210.061        1894.668          46.700  
E33  25425868.125   133613846.655        -739.742          44.200    25425867.742   102379442.953        -566.816          48.300    25425868.383    99776575.389        -552.406          48.600  
E26  25429170.617   133631160.481       -2691.516          44.000    25429173.480   102392704.466       -2062.328          45.600    25429175.246    99789500.437       -2009.898          46.400  
E30  24900583.680   130853496.051         233.051          45.000    24900584.762   100264378.406         178.570          47.700    24900585.090    97715286.528         174.031          46.500  
E07  24565948.250   129094968.640        -991.016          48.000    24565949.219    98916946.257        -759.352          51.500    24565949.520    96402113.282        -740.047          51.800  
E08  26380666.133   138631297.421       -1879.793          35.400    26380668.238   106223966.986       -1440.359          33.700    26380668.961   103523358.672       -1403.742          34.900  
> 2021 09 22 06 30 37.0000000  0 18                     
G13  21544080.617   113215009.238       -1985.363          46.400    21544081.445    88219544.553       -1547.035          34.300                                                                                                                                  
G20  23523369.219   123616138.163       -3334.680          38.200    23523372.754    96324225.339       -2598.453          20.100                                                                                                                                  
G15  20326714.055   106817695.962        -322.770          49.600    20326714.977    83234582.525        -251.508          53.400    20326714.805    83234564.258        -251.508          48.700                                                                  
G24  20612371.984   108318999.017        2147.570          46.600    20612376.293    84404501.743        1673.434          51.700    20612376.141    84404465.492        1673.434          49.800    20612376.434    80887624.791        1603.707          55.000  
J01  38889877.102   204367679.266         230.371          47.200    38889877.488   204367681.526         230.371          49.600    38889875.363   204367703.270         230.371          46.500    38889877.086   159247543.362         179.508          49.100    38889880.930   152612228.345         172.027          54.000  
J02  37119713.164   195065554.458         340.512          41.600    37119713.301   195065588.734         340.512          44.900    37119710.219   195065578.837         340.512          42.800    37119716.645   151999205.823         265.332          44.300    37119719.461   145665915.361         254.277          46.800  
J07  37265860.680   195833387.137          -0.359          38.800    37265860.391   195833384.408          -0.359          42.100    37265855.727   195833436.355          -0.359          44.700    37265862.242   152597430.749          -0.277          47.200    37265865.621   146239203.013          -0.270          51.900  
J03  37515255.328   197143940.032        -457.781          38.000    37515255.805   197143920.297        -457.781          40.700    37515252.297   197143903.352        -457.781          38.400    37515262.016   153618619.854        -356.711          37.000    37515267.297   147217839.002        -341.848          43.400  
G18  21620995.906   113619125.175          32.203          45.400    21620998.074    88534390.344          25.094          35.200    21620997.789    88534386.088          25.094          47.500    21621001.414    84845453.571          24.051          52.200  
G05  21374719.656   112324904.181       -2099.430          46.600    21374721.387    87525944.735       -1635.922          40.300    21374721.023    87525934.500       -1635.922          47.000                                                                  
G14  24107858.234   126687671.923        -376.121          38.400    24107860.707    98717657.465        -293.082          23.400    24107860.113    98717669.213        -293.082          39.800    24107864.648    94604434.094        -280.867          45.200  
G23  22714604.117   119366070.864        2993.246          41.600    22714605.332    93012562.247        2332.398          30.200    22714605.570    93012549.002        2332.398          44.400    22714609.137    89137028.345        2235.215          49.400  
E27  25763431.313   135387794.983        2536.977          43.600    25763433.711   103738736.026        1943.918          47.400    25763434.742   101101315.579        1894.496          47.400  
E33  25426008.781   133614586.746        -740.270          44.000    25426008.539   102380010.023        -567.219          48.900    25426009.316    99777128.060        -552.801          48.800  
E26  25429682.859   133633852.321       -2691.871          44.000    25429685.770   102394767.017       -2062.602          45.700    25429687.418    99791510.547       -2010.164          46.400  
E30  24900539.664   130853263.429         232.434          45.000    24900540.195   100264200.166         178.098          47.400    24900540.828    97715112.812         173.570          46.900  
E07  24566136.859   129095959.811        -991.121          48.000    24566137.867    98917705.713        -759.430          51.300    24566138.074    96402853.431        -740.121          51.700  
E08  26381023.797   138633177.303       -1879.898          35.400    26381025.875   106225407.334       -1440.441          33.800    26381026.609   103524762.491       -1403.820          35.100  
> 2021 09 22 06 30 38.0000000  0 18                     
G13  21544458.656   113216994.839       -1985.648          46.800    21544459.434    88221091.775       -1547.258          34.800                                                                                                                                  
G20  23524003.461   123619473.016       -3334.949          38.800    23524007.320    96326823.933       -2598.660          21.100                                                                                                                                  
G15  20326775.086   106818018.896        -323.098          49.600    20326776.527    83234834.159        -251.766          53.400    20326776.020    83234815.907        -251.766          49.000                                                                  
G24  20611963.531   108316851.847        2146.926          46.400    20611967.750    84402828.626        1672.930          51.800    20611967.672    84402792.389        1672.930          49.700    20611967.887    80886021.393        1603.223          55.000  
J01  38889833.664   204367448.957         230.473          47.200    38889833.859   204367451.203         230.473          49.700    38889831.844   204367472.961         230.473          47.000    38889833.238   159247363.897         179.586          49.200    38889837.129   152612056.357         172.105          54.100  
J02  37119648.594   195065214.062         340.418          41.800    37119648.543   195065248.301         340.418          45.000    37119645.672   195065238.441         340.418          42.100    37119651.938   151998940.567         265.262          44.600    37119654.848   145665661.147         254.207          46.900  
J07  37265860.367   195833387.651          -0.602          39.200    37265860.750   195833384.903          -0.602          42.000    37265855.613   195833436.868          -0.602          44.800    37265862.234   152597431.128          -0.469          47.500    37265865.754   146239203.379          -0.449          51.600  
J03  37515342.953   197144398.012        -457.953          38.600    37515342.863   197144378.277        -457.953          40.800    37515339.434   197144361.326        -457.953          38.600    37515349.098   153618976.709        -356.844          37.200    37515354.633   147218180.979        -341.977          43.400  
G18  21620989.867   113619093.331          31.531          45.400    21620992.000    88534365.529          24.570          35.200    21620992.012    88534361.281          24.570          47.500    21620995.375    84845429.803          23.547          52.300  
G05  21375119.031   112327003.909       -2099.914          46.600    21375120.852    87527580.885       -1636.297          40.000    21375120.805    87527570.649       -1636.297          47.100                                                                  
G14  24107929.844   126688048.354        -376.789          38.600    24107932.188    98717950.793        -293.602          22.900    24107932.035    98717962.527        -293.602          40.200    24107936.402    94604715.195        -281.367          45.000  
G23  22714034.492   119363077.751        2993.082          41.600    22714035.848    93010229.943        2332.273          29.600    22714035.801    93010216.700        2332.273          44.300    22714039.578    89134793.225        2235.094          49.400  
E27  25762948.836   135385258.239        2536.578          44.200    25762951.055   103736792.266        1943.613          47.400    25762951.902   101099421.229        1894.199          47.600  
E33  25426149.844   133615327.291        -740.777          44.200    25426149.418   102380577.470        -567.609          49.000    25426150.125    99777681.062        -553.180          48.800  
E26  25430195.102   133636544.300       -2692.039          44.000    25430197.766   102396829.706       -2062.730          45.900    25430199.539    99793520.795       -2010.289          46.500  
E30  24900495.477   130853031.266         231.965          45.000    24900496.043   100264022.270         177.738          47.600    24900496.570    97714939.442         173.223          47.000  
E07  24566325.570   129096951.053        -991.262          48.000    24566326.480    98918465.230        -759.539          51.700    24566326.746    96403593.639        -740.227          51.500  
E08  26381381.555   138635057.131       -1879.820          35.600    26381383.613   106226847.767       -1440.383          34.400    26381384.180   103526166.258       -1403.762          34.900  
> 2021 09 22 06 30 39.0000000  0 18                     
G13  21544836.609   113218980.552       -1985.684          46.800    21544837.188    88222639.078       -1547.285          34.600                                                                                                                                  
G20  23524637.969   123622808.078       -3334.977          38.400    23524641.828    96329422.690       -2598.684          21.500                                                                                                                                  
G15  20326836.773   106818342.102        -323.250          49.400    20326838.020    83235086.008        -251.883          53.300    20326837.730    83235067.756        -251.883          49.400                                                                  
G24  20611554.828   108314705.174        2146.512          47.400    20611559.164    84401155.897        1672.605          51.700    20611559.191    84401119.653        1672.605          49.500    20611559.375    80884418.354        1602.914          55.000  
J01  38889789.680   204367218.534         230.668          47.200    38889790.105   204367220.766         230.668          49.600    38889787.941   204367242.538         230.668          47.100    38889789.539   159247184.345         179.742          49.500    38889793.266   152611884.290         172.250          53.900  
J02  37119583.641   195064873.656         340.527          42.200    37119583.797   195064907.911         340.527          45.100    37119580.906   195064898.043         340.527          42.500    37119586.883   151998675.316         265.344          44.600    37119590.074   145665406.949         254.289          47.000  
J07  37265861.180   195833388.140          -0.410          39.000    37265860.383   195833385.368          -0.410          42.000    37265855.777   195833437.365          -0.410          45.000    37265862.145   152597431.484          -0.320          47.300    37265865.766   146239203.716          -0.309          51.600  
J03  37515429.289   197144855.930        -457.730          38.200    37515429.953   197144836.194        -457.730          40.500    37515426.594   197144819.243        -457.730          38.400    37515436.434   153619333.506        -356.672          37.200    37515441.750   147218522.933        -341.813          43.400  
G18  21620984.148   113619062.156          30.977          45.000    21620986.109    88534341.237          24.137          35.300    21620986.059    88534336.988          24.137          47.500    21620989.563    84845406.517          23.133          52.000  
G05  21375518.828   112329104.025       -2100.227          46.800    21375520.383    87529217.340       -1636.539          39.500    21375520.121    87529207.084       -1636.539          47.300                                                                  
G14  24108001.688   126688425.309        -377.285          38.200    24108003.750    98718244.513        -293.988          23.300    24108003.953    98718256.249        -293.988          39.900    24108007.984    94604996.699        -281.738          44.900  
G23  22713464.766   119360084.726        2993.070          42.200    22713466.371    93007897.721        2332.262          29.800    22713465.957    93007884.479        2332.262          44.300    22713469.941    89132558.192        2235.086          48.900  
E27  25762466.070   135382721.624        2536.566          44.200    25762468.336   103734848.652        1943.602          46.900    25762469.184   101097527.020        1894.188          47.100  
E33  25426291.078   133616068.298        -741.145          44.400    25426290.430   102381145.249        -567.891          48.800    25426291.242    99778234.410        -553.453          48.200  
E26  25430707.773   133639236.410       -2692.199          43.600    25430710.031   102398892.510       -2062.852          45.500    25430711.984    99795531.141       -2010.406          46.600  
E30  24900451.211   130852799.551         231.602          45.400    24900451.941   100263844.717         177.461          47.300    24900452.582    97714766.418         172.949          46.800  
E07  24566514.234   129097942.319        -991.223          47.600    24566515.203    98919224.779        -759.508          51.200    24566515.328    96404333.873        -740.199          51.400  
E08  26381739.266   138636936.969       -1879.762          35.200    26381741.512   106228288.100       -1440.336          33.900    26381742.117   103527570.018       -1403.719          35.300  
> 2021 09 22 06 30 40.0000000  0 18                     
G13  21545213.930   113220966.426       -1985.883          47.000    21545214.938    88224186.508       -1547.441          34.600                                                                                                                                  
G20  23525272.578   123626143.383       -3335.164          39.200    23525276.473    96332021.632       -2598.832          21.700                                                                                                                                  
G15  20326898.195   106818665.630        -323.590          49.200    20326899.621    83235338.107        -252.148          53.400    20326899.336    83235319.854        -252.148          49.600                                                                  
G24  20611146.227   108312559.067        2145.914          47.000    20611150.801    84399483.608        1672.141          51.600    20611150.914    84399447.350        1672.141          49.600    20611150.996    80882815.739        1602.469          55.000  
J01  38889745.633   204366988.036         230.676          46.800    38889746.074   204366990.275         230.676          49.700    38889743.852   204367012.041         230.676          46.900    38889745.902   159247004.741         179.746          49.100    38889749.406   152611712.155         172.258          53.800  
J02  37119518.641   195064533.356         340.434          42.200    37119519.184   195064567.599         340.434          45.000    37119516.160   195064557.735         340.434          43.000    37119522.055   151998410.152         265.273          44.400    37119525.129   145665152.821         254.219          47.300  
J07  37265861.375   195833388.583          -0.434          39.800    37265860.488   195833385.822          -0.434          42.000    37265855.570   195833437.800          -0.434          44.800    37265862.316   152597431.855          -0.340          47.200    37265865.816   146239204.072          -0.324          51.600  
J03  37515517.055   197145313.877        -457.730          38.200    37515517.188   197145294.105        -457.730          40.600    37515513.957   197145277.191        -457.730          38.800    37515523.465   153619690.345        -356.672          37.700    37515528.883   147218864.889        -341.813          43.600  
G18  21620977.867   113619031.639          30.188          45.000    21620980.176    88534317.454          23.520          34.800    21620980.043    88534313.211          23.520          47.200    21620983.707    84845383.740          22.543          52.300  
G05  21375918.445   112331204.563       -2100.641          47.000    21375920.109    87530854.118       -1636.863          39.500    21375919.965    87530843.883       -1636.863          47.200                                                                  
G14  24108073.094   126688802.897        -377.887          38.000    24108075.438    98718538.750        -294.457          22.000    24108075.539    98718550.500        -294.457          39.800    24108079.969    94605278.661        -282.188          44.700  
G23  22712894.852   119357091.892        2992.789          42.000    22712896.891    93005565.647        2332.043          29.600    22712896.578    93005552.389        2332.043          44.100    22712900.531    89130323.277        2234.875          48.900  
E27  25761983.414   135380185.255        2536.273          44.000    25761985.684   103732905.184        1943.379          46.800    25761986.539   101095632.965        1893.973          47.000  
E33  25426432.000   133616809.769        -741.676          44.400    25426431.594   102381713.388        -568.297          49.000    25426432.254    99778788.114        -553.848          48.300  
E26  25431219.852   133641928.754       -2692.387          43.800    25431222.641   102400955.466       -2063.000          45.200    25431224.340    99797541.653       -2010.551          46.600  
E30  24900407.281   130852568.312         231.113          45.000    24900408.000   100263667.540         177.086          47.400    24900408.551    97714593.730         172.586          46.700  
E07  24566702.898   129098933.688        -991.289          47.600    24566703.805    98919984.394        -759.559          51.700    24566703.984    96405074.187        -740.250          51.300  
E08  26382096.953   138638816.824       -1879.789          35.600    26382098.891   106229728.506       -1440.359          34.300    26382100.031   103528973.838       -1403.738          35.700  
> 2021 09 22 06 30 41.0000000  0 18                     
G13  21545592.414   113222952.465       -1986.066          46.400    21545592.828    88225734.075       -1547.586          34.400                                                                                                                                  
G20  23525907.641   123629478.930       -3335.766          38.400    23525911.137    96334620.745       -2599.297          20.600                                                                                                                                  
G15  20326960.141   106818989.447        -323.918          49.200    20326961.203    83235590.431        -252.402          53.200    20326960.887    83235572.178        -252.402          49.800                                                                  
G24  20610738.102   108310413.482        2145.398          46.400    20610742.430    84397811.718        1671.738          51.700    20610742.559    84397775.482        1671.738          49.700    20610742.699    80881213.526        1602.082          55.000  
J01  38889702.000   204366757.448         230.695          46.800    38889702.223   204366759.695         230.695          49.500    38889699.984   204366781.453         230.695          47.000    38889701.754   159246825.066         179.762          49.000    38889705.449   152611539.974         172.273          53.800  
J02  37119454.250   195064193.108         340.277          42.000    37119454.371   195064227.344         340.277          44.800    37119451.277   195064217.486         340.277          43.100    37119457.668   151998145.005         265.148          44.600    37119460.438   145664898.744         254.102          47.000  
J07  37265861.313   195833389.051          -0.336          39.400    37265860.762   195833386.312          -0.336          42.000    37265855.898   195833438.268          -0.336          44.800    37265862.477   152597432.223          -0.262          47.500    37265866.086   146239204.444          -0.250          51.600  
J03  37515604.906   197145771.805        -457.863          38.600    37515604.262   197145752.052        -457.863          41.000    37515601.043   197145735.126        -457.863          39.200    37515610.789   153620047.174        -356.777          37.700    37515616.195   147219206.855        -341.910          43.300  
G18  21620972.523   113619001.833          29.461          44.400    21620974.633    88534294.232          22.957          35.100    21620974.645    88534289.960          22.957          47.500    21620978.086    84845361.464          22.000          52.100  
G05  21376318.430   112333305.527       -2101.059          47.200    21376320.023    87532491.234       -1637.188          40.100    21376319.809    87532480.985       -1637.188          47.000                                                                  
G14  24108144.969   126689181.019        -378.313          38.400    24108147.457    98718833.369        -294.789          22.500    24108146.965    98718845.148        -294.789          39.700    24108151.836    94605561.028        -282.508          44.600  
G23  22712325.375   119354099.202        2992.770          42.000    22712327.270    93003233.679        2332.027          30.200    22712327.211    93003220.427        2332.027          43.800    22712330.922    89128088.482        2234.863          48.800  
E27  25761500.688   135377649.051        2536.203          44.200    25761503.047   103730961.884        1943.324          46.600    25761503.984   101093739.077        1893.918          47.000  
E33  25426573.289   133617551.724        -742.145          44.000    25426572.797   102382281.900        -568.656          48.600    25426573.469    99779342.167        -554.199          48.100  
E26  25431732.320   133644621.246       -2692.590          43.800    25431735.063   102403018.539       -2063.152          45.100    25431736.512    99799552.282       -2010.699          46.800  
E30  24900363.242   130852337.559         230.629          45.600    24900364.063   100263490.730         176.715          47.500    24900364.570    97714421.420         172.223          46.900  
E07  24566891.359   129099925.132        -991.379          47.600    24566892.363    98920744.063        -759.629          51.500    24566892.566    96405814.541        -740.316          51.000  
E08  26382454.773   138640696.674       -1879.797          35.600    26382456.488   106231168.914       -1440.363          34.200    26382457.543   103530377.631       -1403.746          35.400  
> 2021 09 22 06 30 42.0000000  0 18                     
G13  21545969.906   113224938.626       -1986.359          46.800    21545970.945    88227281.730       -1547.813          34.600                                                                                                                                  
G20  23526543.094   123632814.678       -3335.938          38.800    23526545.887    96337220.042       -2599.434          20.600                                                                                                                                  
G15  20327021.578   106819313.559        -324.316          49.600    20327022.914    83235842.989        -252.715          53.400    20327022.539    83235824.737        -252.715          49.900                                                                  
G24  20610329.672   108308268.460        2144.750          46.800    20610334.180    84396140.278        1671.234          51.700    20610334.387    84396104.027        1671.234          50.000    20610334.484    80879611.712        1601.598          55.000  
J01  38889657.898   204366526.783         230.723          47.200    38889658.438   204366529.029         230.723          49.600    38889656.340   204366550.787         230.723          47.000    38889657.871   159246645.327         179.781          49.300    38889661.613   152611367.723         172.293          54.000  
J02  37119389.984   195063852.915         340.121          42.000    37119389.574   195063887.164         340.121          44.900    37119386.586   195063877.298         340.121          43.000    37119392.656   151997879.925         265.027          45.100    37119395.637   145664644.709         253.984          47.200  
J07  37265860.078   195833389.551          -0.664          39.000    37265861.105   195833386.808          -0.664          42.100    37265855.965   195833438.775          -0.664          44.900    37265862.578   152597432.602          -0.520          47.300    37265866.035   146239204.797          -0.496          51.300  
J03  37515691.156   197146229.716        -457.852          38.200    37515691.160   197146209.977        -457.852          40.800    37515687.891   197146193.036        -457.852          38.800    37515698.031   153620403.991        -356.770          37.000    37515703.246   147219548.770        -341.902          43.400  
G18  21620967.008   113618972.672          28.672          44.200    21620969.172    88534271.509          22.340          35.200    21620968.941    88534267.247          22.340          47.000    21620972.523    84845339.691          21.410          52.100  
G05  21376717.992   112335406.896       -2101.629          47.200    21376719.832    87534128.666       -1637.633          39.800    21376719.559    87534118.416       -1637.633          47.000                                                                  
G14  24108217.148   126689559.772        -379.059          38.000    24108219.691    98719128.510        -295.371          24.400    24108219.191    98719140.252        -295.371          40.000    24108223.926    94605843.853        -283.063          45.000  
G23  22711755.773   119351106.665        2992.492          41.800    22711757.816    93000901.837        2331.813          30.200    22711757.926    93000888.604        2331.813          43.800    22711761.453    89125853.794        2234.652          49.100  
E27  25761018.250   135375113.076        2535.906          44.000    25761020.484   103729018.730        1943.098          46.800    25761021.352   101091845.333        1893.695          47.300  
E33  25426714.648   133618294.155        -742.781          44.200    25426714.133   102382850.765        -569.145          48.500    25426714.797    99779896.566        -554.672          48.200  
E26  25432244.609   133647313.926       -2692.906          43.600    25432247.371   102405081.751       -2063.395          45.300    25432248.984    99801563.043       -2010.938          46.300  
E30  24900319.602   130852107.282         229.867          45.400    24900320.289   100263314.281         176.133          46.900    24900320.719    97714249.456         171.652          46.900  
E07  24567080.172   129100916.636        -991.539          47.200    24567081.168    98921503.783        -759.750          51.300    24567081.273    96406554.955        -740.438          50.800  
E08  26382812.844   138642576.552       -1879.961          35.600    26382814.195   106232609.373       -1440.492          34.100    26382815.434   103531781.388       -1403.867          35.400  
> 2021 09 22 06 30 43.0000000  0 18                     
G13  21546348.164   113226924.957       -1986.465          47.000    21546349.000    88228829.514       -1547.895          34.500                                                                                                                                  
G20  23527177.383   123636150.656       -3336.082          38.400    23527180.758    96339819.483       -2599.547          19.900                                                                                                                                  
G15  20327083.352   106819637.964        -324.688          49.800    20327084.551    83236095.769        -253.004          53.400    20327084.355    83236077.531        -253.004          49.800                                                                  
G24  20609921.789   108306123.946        2144.086          47.200    20609926.168    84394469.230        1670.719          51.900    20609926.336    84394432.986        1670.719          50.200    20609926.488    80878010.304        1601.105          55.000  
J01  38889613.992   204366296.054         230.570          46.800    38889614.289   204366298.292         230.570          49.500    38889611.930   204366320.066         230.570          47.200    38889613.844   159246465.526         179.668          48.900    38889617.688   152611195.417         172.180          53.800  
J02  37119324.508   195063512.795         339.984          42.200    37119324.973   195063547.052         339.984          44.900    37119321.777   195063537.182         339.984          43.000    37119328.063   151997614.912         264.926          45.200    37119330.918   145664390.734         253.887          47.200  
J07  37265860.672   195833390.026          -0.699          39.400    37265860.883   195833387.280          -0.699          42.000    37265855.668   195833439.250          -0.699          45.100    37265862.375   152597432.971          -0.543          47.500    37265866.156   146239205.157          -0.520          51.400  
J03  37515778.055   197146687.632        -457.906          38.400    37515778.344   197146667.880        -457.906          40.800    37515775.359   197146650.952        -457.906          38.900    37515784.863   153620760.826        -356.809          37.400    37515790.266   147219890.739        -341.941          43.200  
G18  21620961.445   113618944.186          27.953          44.200    21620963.703    88534249.317          21.781          35.200    21620963.609    88534245.055          21.781          47.000    21620967.051    84845318.421          20.875          51.900  
G05  21377118.008   112337508.686       -2102.176          47.400    21377119.738    87535766.416       -1638.059          39.900    21377119.422    87535756.159       -1638.059          46.900                                                                  
G14  24108290.094   126689939.121        -380.035          38.200    24108291.867    98719424.100        -296.129          22.500    24108291.492    98719435.828        -296.129          40.400    24108296.219    94606127.115        -283.793          45.000  
G23  22711186.922   119348114.300        2992.141          42.200    22711188.273    92998570.105        2331.535          30.400    22711188.320    92998556.877        2331.535          44.000    22711192.004    89123619.222        2234.391          48.800  
E27  25760535.688   135372577.303        2535.551          44.200    25760537.820   103727075.735        1942.824          46.800    25760538.824   101089951.733        1893.434          47.400  
E33  25426855.836   133619037.041        -743.301          44.000    25426855.320   102383420.000        -569.543          48.000    25426856.238    99780451.326        -555.063          48.300  
E26  25432756.867   133650006.773       -2693.070          43.600    25432759.719   102407145.122       -2063.523          45.300    25432761.352    99803573.952       -2011.059          46.300  
E30  24900275.781   130851877.444         229.469          45.000    24900276.313   100263138.189         175.828          46.500    24900277.047    97714077.835         171.355          46.800  
E07  24567268.805   129101908.221        -991.785          47.200    24567269.777    98922263.576        -759.941          51.300    24567270.066    96407295.418        -740.621          50.600  
E08  26383170.430   138644456.417       -1880.039          36.400    26383171.719   106234049.755       -1440.551          34.100    26383173.441   103533185.197       -1403.926          35.100  
> 2021 09 22 06 30 44.0000000  0 18                     
G13  21546726.203   113228911.349       -1986.500          47.000    21546726.996    88230377.356       -1547.922          35.000                                                                                                                                  
G20  23527812.148   123639486.830       -3336.262          38.800    23527815.684    96342419.106       -2599.684          20.100                                                                                                                                  
G15  20327145.172   106819962.606        -324.777          49.200    20327146.344    83236348.740        -253.074          53.500    20327146.125    83236330.488        -253.074          49.400                                                                  
G24  20609513.719   108303979.930        2143.703          46.800    20609518.227    84392798.568        1670.418          51.900    20609518.242    84392762.318        1670.418          49.800    20609518.484    80876409.247        1600.816          54.900  
J01  38889570.633   204366065.143         230.949          47.400    38889570.531   204366067.389         230.949          49.600    38889568.082   204366089.147         230.949          46.700    38889569.785   159246285.597         179.961          49.000    38889573.742   152611022.984         172.461          53.800  
J02  37119259.773   195063172.677         340.055          42.200    37119260.066   195063206.922         340.055          44.900    37119257.027   195063197.063         340.055          43.200    37119263.305   151997349.884         264.980          44.700    37119266.242   145664136.742         253.938          47.000  
J07  37265860.805   195833390.431          -0.426          38.800    37265861.125   195833387.693          -0.426          42.000    37265856.164   195833439.655          -0.426          44.900    37265862.355   152597433.309          -0.332          47.300    37265866.156   146239205.466          -0.320          51.300  
J03  37515865.594   197147145.469        -457.785          38.400    37515865.605   197147125.714        -457.785          40.800    37515862.332   197147108.781        -457.785          39.100    37515872.281   153621117.559        -356.715          37.200    37515877.258   147220232.619        -341.852          43.100  
G18  21620956.227   113618916.281          27.633          44.800    21620958.242    88534227.569          21.535          35.100    21620958.027    88534223.314          21.535          47.200    21620961.730    84845297.598          20.637          52.100  
G05  21377518.539   112339610.809       -2102.355          47.400    21377519.586    87537404.434       -1638.199          40.100    21377519.566    87537394.197       -1638.199          46.900                                                                  
G14  24108361.953   126690318.906        -380.191          38.200    24108364.207    98719720.049        -296.254          22.800    24108363.945    98719731.793        -296.254          40.400    24108368.539    94606410.746        -283.910          45.300  
G23  22710617.063   119345121.992        2992.211          41.800    22710618.855    92996238.451        2331.594          30.600    22710618.844    92996225.198        2331.594          44.300    22710622.480    89121384.715        2234.441          48.400  
E27  25760053.281   135370041.641        2535.543          44.600    25760055.359   103725132.835        1942.820          46.900    25760056.320   101088058.226        1893.426          47.300  
E33  25426997.523   133619780.343        -743.645          44.000    25426996.824   102383989.533        -569.805          48.000    25426997.563    99781006.384        -555.320          48.500  
E26  25433269.414   133652699.745       -2693.098          43.200    25433272.320   102409208.561       -2063.543          45.500    25433273.898    99805584.927       -2011.078          46.400  
E30  24900232.422   130851648.042         229.098          44.600    24900232.824   100262962.408         175.543          47.000    24900233.195    97713906.521         171.082          46.700  
E07  24567457.750   129102899.814        -991.664          47.600    24567458.508    98923023.360        -759.844          51.000    24567458.770    96408035.897        -740.527          50.800  
E08  26383527.984   138646336.199       -1879.762          36.000    26383529.840   106235490.146       -1440.340          34.000    26383530.879   103534588.971       -1403.719          35.300  
> 2021 09 22 06 30 45.0000000  0 18                     
G13  21547104.055   113230897.955       -1986.699          46.400    21547105.000    88231925.362       -1548.074          35.000                                                                                                                                  
G20  23528446.617   123642823.251       -3336.602          38.800    23528450.398    96345018.888       -2599.949          20.400                                                                                                                                  
G15  20327206.813   106820287.593        -325.180          49.200    20327208.289    83236601.978        -253.387          53.400    20327208.004    83236583.732        -253.387          49.000                                                                  
G24  20609105.656   108301836.483        2143.156          47.000    20609110.410    84391128.350        1669.992          51.800    20609110.207    84391092.107        1669.992          49.800    20609110.527    80874808.630        1600.410          55.100  
J01  38889526.703   204365834.205         230.926          46.800    38889526.551   204365836.458         230.926          49.600    38889524.102   204365858.209         230.926          46.800    38889525.828   159246105.657         179.941          49.100    38889529.855   152610850.539         172.445          53.800  
J02  37119195.656   195062832.668         339.879          41.600    37119195.488   195062866.902         339.879          44.900    37119192.496   195062857.054         339.879          42.500    37119198.500   151997084.942         264.840          44.200    37119201.520   145663882.834         253.805          47.300  
J07  37265860.695   195833390.919          -0.664          39.200    37265861.121   195833388.161          -0.664          42.000    37265856.148   195833440.136          -0.664          44.900    37265862.867   152597433.658          -0.516          47.500    37265866.414   146239205.819          -0.496          51.600  
J03  37515952.961   197147603.351        -457.922          38.600    37515952.930   197147583.602        -457.922          41.200    37515949.320   197147566.671        -457.922          39.400    37515959.500   153621474.338        -356.824          37.800    37515964.750   147220574.553        -341.957          43.100  
G18  21620950.992   113618889.136          26.730          45.000    21620953.074    88534206.416          20.828          35.400    21620953.086    88534202.166          20.828          47.600    21620956.641    84845277.322          19.961          52.000  
G05  21377918.180   112341713.420       -2102.824          47.400    21377919.664    87539042.836       -1638.566          39.900    21377919.777    87539032.593       -1638.566          47.000                                                                  
G14  24108433.742   126690699.376        -380.883          38.200    24108436.578    98720016.506        -296.793          23.900    24108436.227    98720028.254        -296.793          40.300    24108440.793    94606694.841        -284.426          45.400  
G23  22710048.023   119342129.890        2992.027          42.200    22710049.496    92993906.945        2331.449          30.300    22710049.574    92993893.697        2331.449          43.700    22710053.145    89119150.358        2234.309          48.800  
E27  25759570.523   135367506.278        2535.105          44.400    25759572.973   103723190.130        1942.484          47.100    25759573.820   101086164.914        1893.098          47.000  
E33  25427138.922   133620524.143        -744.141          44.200    25427138.336   102384559.469        -570.184          48.200    25427139.207    99781561.822        -555.688          48.200  
E26  25433781.977   133655392.953       -2693.371          43.400    25433784.887   102411272.173       -2063.754          45.600    25433786.234    99807596.087       -2011.285          46.400  
E30  24900188.805   130851419.158         228.484          44.600    24900189.258   100262787.024         175.070          47.300    24900189.797    97713735.603         170.621          47.000  
E07  24567646.328   129103891.534        -991.922          47.600    24567647.234    98923783.248        -760.043          51.200    24567647.574    96408776.458        -740.723          50.600  
E08  26383885.664   138648216.065       -1880.098          35.400    26383887.602   106236930.574       -1440.594          35.100    26383888.535   103535992.687       -1403.969          35.700  
> 2021 09 22 06 30 46.0000000  0 18                     
G13  21547482.516   113232884.683       -1986.793          46.200    21547483.160    88233473.461       -1548.148          34.600                                                                                                                                  
G20  23529081.609   123646159.887       -3336.840          38.600    23529085.359    96347618.849       -2600.137          20.100                                                                                                                                  
G15  20327268.797   106820612.867        -325.359          49.400    20327270.273    83236855.437        -253.527          53.400    20327269.848    83236837.177        -253.527          49.100                                                                  
G24  20608698.039   108299693.576        2142.590          46.800    20608702.625    84389458.557        1669.551          51.700    20608702.656    84389422.299        1669.551          49.800    20608702.676    80873208.394        1599.984          54.900  
J01  38889482.344   204365603.182         231.012          47.000    38889482.570   204365605.421         231.012          49.700    38889480.539   204365627.187         231.012          47.100    38889482.047   159245925.629         180.008          49.100    38889485.910   152610678.018         172.508          53.800  
J02  37119130.570   195062492.690         339.887          41.400    37119130.730   195062526.939         339.887          45.000    37119127.617   195062517.076         339.887          42.800    37119134.117   151996820.030         264.848          44.100    37119136.957   145663628.967         253.813          46.900  
J07  37265860.844   195833391.348          -0.465          39.200    37265861.172   195833388.615          -0.465          42.200    37265856.617   195833440.566          -0.465          44.800    37265863.113   152597434.013          -0.359          47.600    37265866.484   146239206.153          -0.348          51.900  
J03  37516040.227   197148061.201        -457.820          38.200    37516040.063   197148041.458        -457.820          40.900    37516036.750   197148024.521        -457.820          38.900    37516046.699   153621831.114        -356.746          37.300    37516051.434   147220916.442        -341.879          43.300  
G18  21620945.867   113618862.631          26.094          44.400    21620947.895    88534185.760          20.332          35.700    21620947.957    88534181.504          20.332          47.600    21620951.617    84845257.519          19.484          52.300  
G05  21378318.461   112343816.444       -2103.277          47.400    21378319.938    87540681.556       -1638.918          40.100    21378319.820    87540671.299       -1638.918          47.000                                                                  
G14  24108506.195   126691080.371        -381.250          38.400    24108509.000    98720313.385        -297.078          22.800    24108508.797    98720325.143        -297.078          40.300    24108513.363    94606979.357        -284.699          45.500  
G23  22709478.469   119339137.933        2991.801          41.800    22709480.199    92991575.544        2331.273          29.000    22709480.512    92991562.294        2331.273          43.400    22709483.832    89116916.098        2234.137          48.800  
E27  25759088.180   135364971.055        2535.055          44.600    25759090.473   103721247.559        1942.445          47.100    25759091.332   101084271.737        1893.059          47.100  
E33  25427280.852   133621268.400        -744.547          44.000    25427280.066   102385129.745        -570.496          48.300    25427280.785    99782117.611        -555.992          48.300  
E26  25434294.750   133658086.311       -2693.504          43.600    25434297.527   102413335.911       -2063.855          45.300    25434298.703    99809607.352       -2011.383          46.800  
E30  24900145.203   130851190.734         228.066          44.400    24900145.805   100262611.985         174.754          47.000    24900146.195    97713565.012         170.309          46.800  
E07  24567835.055   129104883.292        -991.781          47.600    24567835.941    98924543.174        -759.938          51.500    24567836.254    96409517.065        -740.617          51.000  
E08  26384243.359   138650095.886       -1879.938          36.000    26384245.023   106238370.915       -1440.469          35.000    26384246.031   103537396.451       -1403.848          35.400  
> 2021 09 22 06 30 47.0000000  0 18                     
G13  21547860.484   113234871.536       -1986.781          46.200    21547861.152    88235021.650       -1548.141          34.700                                                                                                                                  
G20  23529717.203   123649496.752       -3336.906          38.400    23529720.512    96350219.050       -2600.188          21.100                                                                                                                                  
G15  20327330.859   106820938.405        -325.613          49.400    20327332.102    83237109.102        -253.723          53.400    20327331.695    83237090.843        -253.723          49.300                                                                  
G24  20608290.523   108297551.173        2142.262          46.800    20608294.887    84387789.148        1669.297          51.900    20608294.965    84387752.905        1669.297          50.000    20608295.129    80871608.565        1599.742          54.900  
J01  38889438.320   204365372.036         231.336          46.800    38889438.563   204365374.282         231.336          49.600    38889436.449   204365396.041         231.336          47.200    38889438.047   159245745.529         180.262          49.000    38889441.828   152610505.419         172.750          53.800  
J02  37119066.023   195062152.751         340.070          41.200    37119065.938   195062186.998         340.070          44.900    37119062.910   195062177.130         340.070          42.500    37119069.254   151996555.146         264.992          43.900    37119072.090   145663375.129         253.949          46.800  
J07  37265861.570   195833391.783          -0.348          39.200    37265861.395   195833389.055          -0.348          42.000    37265856.277   195833441.000          -0.348          45.000    37265863.008   152597434.353          -0.273          47.200    37265866.574   146239206.469          -0.262          51.400  
J03  37516126.859   197148519.032        -457.707          38.200    37516127.266   197148499.303        -457.707          40.800    37516123.945   197148482.353        -457.707          38.900    37516133.867   153622187.846        -356.656          37.900    37516138.918   147221258.322        -341.793          43.300  
G18  21620941.367   113618836.774          25.570          44.200    21620943.109    88534165.614          19.922          35.600    21620943.375    88534161.352          19.922          47.500    21620946.660    84845238.209          19.094          52.100  
G05  21378718.719   112345919.829       -2103.539          46.800    21378720.117    87542320.551       -1639.121          39.900    21378720.090    87542310.308       -1639.121          47.200                                                                  
G14  24108579.242   126691461.939        -381.789          38.200    24108581.648    98720610.728        -297.500          22.600    24108581.430    98720622.463        -297.500          39.900    24108585.992    94607264.301        -285.102          45.300  
G23  22708909.648   119336146.090        2991.867          42.200    22708910.789    92989244.240        2331.324          30.000    22708910.684    92989230.998        2331.324          43.500    22708914.496    89114681.931        2234.188          48.900  
E27  25758605.852   135362436.004        2535.035          44.600    25758607.996   103719305.137        1942.430          46.900    25758608.910   101082378.696        1893.047          47.300  
E33  25427422.359   133622013.119        -744.859          44.000    25427421.590   102385700.364        -570.738          48.600    25427422.438    99782673.721        -556.227          48.500  
E26  25434807.172   133660779.827       -2693.582          44.000    25434809.863   102415399.761       -2063.914          46.000    25434811.281    99811618.726       -2011.441          46.500  
E30  24900101.906   130850962.737         227.805          44.600    24900102.355   100262437.296         174.551          46.800    24900102.715    97713394.775         170.113          46.400  
E07  24568023.656   129105875.123        -991.793          47.800    24568024.758    98925303.140        -759.945          51.300    24568024.957    96410257.705        -740.625          50.700  
E08  26384601.117   138651975.701       -1879.793          35.600    26384602.691   106239811.326       -1440.359          34.800    26384604.008   103538800.261       -1403.742          35.400  
> 2021 09 22 06 30 48.0000000  0 18                     
G13  21548238.055   113236858.605       -1987.207          46.200    21548239.281    88236570.024       -1548.473          34.900                                                                                                                                  
G20  23530352.000   123652833.920       -3337.488          38.000    23530355.543    96352819.430       -2600.641          20.600                                                                                                                                  
G15  20327392.797   106821264.291        -326.063          49.400    20327394.215    83237363.041        -254.074          53.400    20327393.738    83237344.788        -254.074          49.600                                                                  
G24  20607882.703   108295409.361        2141.473          47.200    20607887.297    84386120.212        1668.680          51.800    20607887.316    84386083.969        1668.680          50.200    20607887.426    80870009.168        1599.152          54.900  
J01  38889394.039   204365140.887         231.160          46.200    38889394.516   204365143.125         231.160          49.600    38889392.297   204365164.899         231.160          46.800    38889393.957   159245565.403         180.125          48.900    38889397.953   152610332.800         172.617          53.800  
J02  37119001.453   195061812.947         339.766          41.000    37119001.449   195061847.187         339.766          45.000    37118998.203   195061837.327         339.766          42.600    37119004.574   151996290.354         264.754          44.100    37119007.352   145663121.370         253.723          47.200  
J07  37265862.055   195833392.290          -0.664          38.800    37265861.281   195833389.532          -0.664          41.900    37265856.223   195833441.515          -0.664          44.800    37265863.152   152597434.730          -0.516          47.000    37265866.535   146239206.835          -0.496          51.500  
J03  37516214.172   197148976.927        -457.871          38.400    37516214.234   197148957.177        -457.871          40.900    37516211.254   197148940.247        -457.871          38.700    37516220.723   153622544.629        -356.781          37.900    37516226.070   147221600.244        -341.914          43.200  
G18  21620936.352   113618811.619          24.793          44.200    21620938.410    88534146.011          19.316          35.500    21620938.129    88534141.777          19.316          47.200    21620941.836    84845219.444          18.512          52.000  
G05  21379118.813   112348023.679       -2104.094          46.800    21379120.387    87543959.914       -1639.555          40.000    21379120.531    87543949.665       -1639.555          47.000                                                                  
G14  24108651.445   126691844.128        -382.449          38.200    24108654.316    98720908.530        -298.012          24.200    24108654.488    98720920.296        -298.012          39.700    24108658.707    94607549.723        -285.594          45.200  
G23  22708340.336   119333154.463        2991.539          42.200    22708341.465    92986913.103        2331.070          29.600    22708341.430    92986899.871        2331.070          43.700    22708345.250    89112447.925        2233.941          48.800  
E27  25758123.719   135359901.225        2534.703          44.600    25758125.617   103717362.897        1942.176          46.700    25758126.590   101080485.838        1892.797          47.300  
E33  25427564.398   133622758.369        -745.586          44.000    25427563.422   102386271.397        -571.293          48.700    25427564.434    99783230.234        -556.770          48.400  
E26  25435319.648   133663473.576       -2693.836          43.800    25435322.551   102417463.815       -2064.109          45.700    25435323.758    99813630.303       -2011.633          46.300  
E30  24900058.547   130850735.289         227.070          45.000    24900059.133   100262263.011         173.988          47.100    24900059.625    97713224.918         169.566          46.300  
E07  24568212.359   129106867.075        -992.016          47.800    24568213.641    98926063.214        -760.117          51.600    24568213.668    96410998.451        -740.789          51.200  
E08  26384958.750   138653855.567       -1880.008          35.400    26384960.313   106241251.737       -1440.527          34.900    26384961.559   103540204.009       -1403.902          35.500  
> 2021 09 22 06 30 49.0000000  0 18                     
G13  21548616.508   113238845.745       -1987.168          46.800    21548617.477    88238118.441       -1548.441          34.800                                                                                                                                  
G20  23530986.883   123656171.199       -3337.516          38.400    23530990.668    96355419.905       -2600.660          21.100                                                                                                                                  
G15  20327455.313   106821590.423        -326.277          49.200    20327456.258    83237617.166        -254.242          53.400    20327455.852    83237598.929        -254.242          49.900                                                                  
G24  20607475.156   108293268.034        2141.078          46.600    20607479.813    84384451.644        1668.375          51.800    20607479.566    84384415.400        1668.375          49.800    20607479.984    80868410.121        1598.859          55.000  
J01  38889350.539   204364909.596         231.313          46.000    38889350.359   204364911.834         231.313          49.500    38889347.809   204364933.600         231.313          47.100    38889349.969   159245385.176         180.246          48.500    38889353.922   152610160.083         172.734          53.900  
J02  37118936.375   195061473.146         339.699          41.000    37118936.703   195061507.380         339.699          44.900    37118933.492   195061497.525         339.699          42.700    37118939.965   151996025.579         264.699          43.900    37118942.742   145662867.621         253.672          47.300  
J07  37265861.211   195833392.728          -0.414          38.400    37265861.965   195833389.980          -0.414          42.000    37265856.613   195833441.946          -0.414          45.200    37265863.301   152597435.076          -0.324          47.300    37265866.711   146239207.165          -0.309          51.400  
J03  37516301.289   197149434.725        -457.750          38.200    37516301.332   197149414.987        -457.750          41.000    37516298.059   197149398.039        -457.750          38.300    37516307.961   153622901.380        -356.688          37.900    37516313.090   147221942.123        -341.824          43.100  
G18  21620931.203   113618787.121          24.008          44.600    21620933.645    88534126.929          18.707          35.400    21620933.434    88534122.673          18.707          47.300    21620937.191    84845201.137          17.930          51.900  
G05  21379519.430   112350127.905       -2104.395          47.400    21379520.961    87545599.570       -1639.789          39.900    21379521.113    87545589.327       -1639.789          47.000                                                                  
G14  24108724.695   126692226.844        -382.934          38.200    24108727.219    98721206.739        -298.391          22.900    24108726.723    98721218.509        -298.391          39.400    24108731.641    94607835.530        -285.957          45.500  
G23  22707770.680   119330162.947        2991.438          41.800    22707772.258    92984582.048        2330.988          29.300    22707772.160    92984568.809        2330.988          43.800    22707775.941    89110213.999        2233.863          48.800  
E27  25757641.242   135357366.598        2534.516          44.800    25757643.344   103715420.793        1942.031          46.700    25757644.234   101078593.105        1892.660          47.000  
E33  25427706.180   133623504.019        -745.941          44.200    25427705.410   102386842.739        -571.566          48.600    25427706.230    99783787.052        -557.035          48.300  
E26  25435832.516   133666167.451       -2694.043          44.000    25435835.289   102419527.943       -2064.266          45.600    25435836.527    99815641.965       -2011.785          46.500  
E30  24900015.336   130850508.245         226.742          44.800    24900015.910   100262089.056         173.738          46.700    24900016.375    97713055.386         169.320          46.400  
E07  24568401.383   129107859.037        -991.953          47.600    24568402.234    98926823.292        -760.066          51.400    24568402.387    96411739.212        -740.742          51.300  
E08  26385316.242   138655735.403       -1879.945          35.200    26385317.906   106242692.131       -1440.477          33.900    26385319.102   103541607.810       -1403.855          36.200  
> 2021 09 22 06 30 50.0000000  0 18                     
G13  21548994.773   113240833.099       -1987.406          46.000    21548995.629    88239667.027       -1548.629          34.700                                                                                                                                  
G20  23531622.047   123659508.799       -3337.613          38.000    23531625.742    96358020.612       -2600.738          21.500                                                                                                                                  
G15  20327517.016   106821916.934        -326.578          49.200    20327518.281    83237871.590        -254.477          53.400    20327518.301    83237853.338        -254.477          49.800                                                                  
G24  20607068.133   108291127.328        2140.594          46.600    20607072.500    84382783.559        1667.996          51.800    20607072.477    84382747.316        1667.996          49.800    20607072.586    80866811.545        1598.496          54.900  
J01  38889306.336   204364678.290         231.477          45.800    38889306.551   204364680.528         231.477          49.600    38889304.430   204364702.295         231.477          47.000    38889306.016   159245204.932         180.371          48.900    38889309.871   152609987.345         172.855          54.100  
J02  37118872.188   195061133.468         339.801          41.400    37118872.074   195061167.701         339.801          44.900    37118869.281   195061157.847         339.801          42.300    37118875.582   151995760.899         264.777          43.500    37118878.176   145662613.965         253.746          47.500  
J07  37265861.672   195833393.210          -0.406          38.400    37265861.582   195833390.490          -0.406          42.100    37265856.500   195833442.428          -0.406          45.400    37265863.230   152597435.465          -0.316          47.500    37265866.777   146239207.548          -0.301          51.700  
J03  37516388.945   197149892.639        -457.832          37.800    37516388.402   197149872.895        -457.832          40.800    37516384.844   197149855.953        -457.832          38.100    37516395.438   153623258.152        -356.754          37.700    37516400.328   147222284.040        -341.887          43.000  
G18  21620927.289   113618763.348          23.500          44.600    21620929.219    88534108.399          18.313          35.400    21620929.074    88534104.150          18.313          47.600    21620932.703    84845183.383          17.551          51.900  
G05  21379919.867   112352232.604       -2104.828          46.800    21379921.512    87547239.596       -1640.125          39.800    21379921.469    87547229.354       -1640.125          47.000                                                                  
G14  24108797.898   126692610.217        -383.629          37.800    24108800.047    98721505.466        -298.930          24.200    24108800.004    98721517.248        -298.930          39.200    24108804.535    94608121.812        -286.477          45.500  
G23  22707201.805   119327171.630        2991.324          41.800    22707202.797    92982251.159        2330.902          30.200    22707202.914    92982237.921        2330.902          44.100    22707206.680    89107980.237        2233.781          48.800  
E27  25757158.938   135354832.240        2534.391          44.800    25757161.027   103713478.888        1941.934          47.000    25757162.004   101076700.573        1892.563          47.100  
E33  25427847.992   133624250.219        -746.426          44.400    25427847.293   102387414.490        -571.938          48.500    25427848.168    99784344.277        -557.395          48.400  
E26  25436344.938   133668861.555       -2694.121          43.400    25436347.941   102421592.265       -2064.328          45.900    25436349.184    99817653.792       -2011.844          46.200  
E30  24899972.344   130850281.751         226.375          44.800    24899972.707   100261915.505         173.457          47.000    24899973.109    97712886.242         169.047          46.400  
E07  24568590.266   129108851.155        -992.055          47.600    24568590.988    98927583.478        -760.148          51.500    24568591.234    96412480.073        -740.820          51.700  
E08  26385674.102   138657615.277       -1879.789          35.600    26385675.672   106244132.511       -1440.359          34.300    26385676.852   103543011.606       -1403.738          35.900  
> 2021 09 22 06 30 51.0000000  0 18                     
G13  21549373.117   113242820.536       -1987.535          46.400    21549373.668    88241215.682       -1548.730          34.900                                                                                                                                  
G20  23532257.578   123662846.544       -3337.672          38.000    23532261.102    96360621.440       -2600.785          21.100                                                                                                                                  
G15  20327579.109   106822243.632        -326.727          49.400    20327580.527    83238126.161        -254.590          53.400    20327580.340    83238107.916        -254.590          49.400                                                                  
G24  20606661.086   108288987.065        2140.063          46.600    20606665.297    84381115.830        1667.582          51.800    20606665.074    84381079.580        1667.582          49.700    20606665.332    80865213.289        1598.098          54.900  
J01  38889262.305   204364446.798         231.605          45.600    38889262.559   204364449.044         231.605          49.600    38889260.223   204364470.802         231.605          46.900    38889261.824   159245024.555         180.473          49.200    38889265.844   152609814.488         172.953          53.700  
J02  37118806.406   195060793.761         339.715          41.000    37118807.387   195060828.004         339.715          44.900    37118804.047   195060818.140         339.715          42.300    37118810.477   151995496.180         264.715          43.800    37118813.438   145662360.291         253.684          47.500  
J07  37265861.727   195833393.650          -0.344          38.600    37265861.488   195833390.905          -0.344          42.000    37265856.813   195833442.867          -0.344          45.700    37265863.398   152597435.798          -0.266          47.500    37265866.855   146239207.858          -0.258          51.700  
J03  37516475.609   197150350.406        -457.703          37.200    37516475.680   197150330.665        -457.703          40.800    37516472.051   197150313.720        -457.703          38.500    37516482.457   153623614.879        -356.652          37.600    37516487.320   147222625.878        -341.789          43.200  
G18  21620922.523   113618740.158          22.832          44.600    21620924.934    88534090.330          17.789          35.400    21620924.418    88534086.075          17.789          47.800    21620928.250    84845166.072          17.047          52.500  
G05  21380320.352   112354337.639       -2105.152          47.200    21380322.078    87548879.884       -1640.379          39.800    21380321.945    87548869.627       -1640.379          46.700                                                                  
G14  24108870.688   126692994.111        -384.176          37.800    24108873.180    98721804.629        -299.359          23.000    24108872.914    98721816.373        -299.359          39.400    24108877.520    94608408.476        -286.887          45.800  
G23  22706632.133   119324180.396        2991.137          41.400    22706633.754    92979920.324        2330.754          29.200    22706633.836    92979907.082        2330.754          43.900    22706637.430    89105746.507        2233.641          48.800  
E27  25756676.547   135352297.986        2534.223          45.000    25756678.680   103711537.064        1941.809          47.200    25756679.746   101074808.104        1892.438          47.000  
E33  25427990.094   133624996.799        -746.758          44.600    25427989.477   102387986.549        -572.191          48.900    25427990.234    99784901.780        -557.645          48.600  
E26  25436857.805   133671555.765       -2694.191          43.200    25436860.504   102423656.653       -2064.379          46.100    25436861.828    99819665.697       -2011.895          45.900  
E30  24899929.227   130850055.636         225.926          45.000    24899929.625   100261742.242         173.113          47.100    24899930.277    97712717.385         168.711          46.300  
E07  24568778.891   129109843.249        -992.090          47.800    24568779.938    98928343.658        -760.176          51.800    24568780.074    96413220.921        -740.848          52.000  
E08  26386031.852   138659495.112       -1879.805          34.600    26386033.305   106245572.912       -1440.371          34.300    26386034.395   103544415.365       -1403.750          35.700  
> 2021 09 22 06 30 52.0000000  0 18                     
G13  21549751.383   113244808.157       -1987.664          46.800    21549751.773    88242764.468       -1548.828          34.800                                                                                                                                  
G20  23532892.641   123666184.567       -3338.051          38.000    23532896.250    96363222.492       -2601.078          20.900                                                                                                                                  
G15  20327641.242   106822570.685        -327.273          49.400    20327642.855    83238381.006        -255.020          53.400    20327642.395    83238362.746        -255.020          49.700                                                                  
G24  20606253.641   108286847.361        2139.422          46.400    20606258.129    84379448.532        1667.082          51.900    20606258.098    84379412.289        1667.082          49.700    20606258.160    80863615.470        1597.621          54.900  
J01  38889218.336   204364215.274         231.566          45.800    38889218.500   204364217.514         231.566          49.600    38889216.203   204364239.279         231.566          46.800    38889218.105   159244844.144         180.441          48.600    38889221.777   152609641.590         172.922          53.800  
J02  37118742.703   195060454.148         339.543          41.200    37118742.727   195060488.387         339.543          44.800    37118739.699   195060478.534         339.543          42.600    37118745.785   151995231.569         264.578          44.100    37118748.996   145662106.695         253.555          47.600  
J07  37265861.938   195833394.083          -0.387          38.600    37265861.805   195833391.358          -0.387          42.100    37265856.891   195833443.301          -0.387          45.300    37265863.207   152597436.156          -0.305          47.700    37265866.902   146239208.208          -0.289          51.600  
J03  37516563.000   197150808.232        -457.805          37.000    37516563.008   197150788.463        -457.805          40.800    37516558.672   197150771.553        -457.805          38.300    37516569.535   153623971.601        -356.730          38.100    37516574.355   147222967.746        -341.867          43.700  
G18  21620918.352   113618717.665          22.156          44.000    21620920.539    88534072.802          17.266          35.100    21620920.348    88534068.554          17.266          48.100    21620924.027    84845149.268          16.543          52.600  
G05  21380721.039   112356443.106       -2105.641          46.800    21380722.648    87550520.505       -1640.762          39.500    21380722.848    87550510.254       -1640.762          46.500                                                                  
G14  24108943.430   126693378.607        -384.887          38.000    24108946.262    98722104.243        -299.910          22.300    24108945.602    98722115.968        -299.910          39.500    24108950.867    94608695.594        -287.414          45.600  
G23  22706062.977   119321189.319        2991.043          41.200    22706064.586    92977589.613        2330.684          28.600    22706064.500    92977576.395        2330.684          43.600    22706068.168    89103512.923        2233.570          48.900  
E27  25756194.508   135349763.981        2533.840          44.600    25756196.488   103709595.412        1941.516          46.900    25756197.422   101072915.830        1892.152          47.100  
E33  25428132.141   133625743.864        -747.309          44.600    25428131.527   102388558.976        -572.613          48.800    25428132.309    99785459.658        -558.055          48.600  
E26  25437370.383   133674250.170       -2694.488          43.800    25437373.395   102425721.215       -2064.609          46.100    25437374.672    99821677.763       -2012.117          46.200  
E30  24899886.234   130849830.024         225.379          44.600    24899886.934   100261569.383         172.691          47.300    24899887.117    97712548.919         168.301          46.500  
E07  24568967.711   129110835.455        -992.238          48.000    24568968.629    98929103.923        -760.285          51.200    24568968.934    96413961.853        -740.957          51.700  
E08  26386389.523   138661374.933       -1880.145          35.000    26386391.098   106247013.303       -1440.629          34.900    26386392.133   103545819.104       -1404.004          35.600  
> 2021 09 22 06 30 53.0000000  0 18                     
G13  21550129.688   113246795.914       -1987.773          46.800    21550130.094    88244313.372       -1548.914          35.000                                                                                                                                  
G20  23533527.500   123669522.850       -3338.441          38.400    23533531.508    96365823.770       -2601.383          20.600                                                                                                                                  
G15  20327703.867   106822897.991        -327.410          49.200    20327705.082    83238636.051        -255.125          53.400    20327704.656    83238617.806        -255.125          49.600                                                                  
G24  20605846.461   108284708.209        2138.887          47.000    20605851.004    84377781.658        1666.668          51.900    20605850.930    84377745.415        1666.668          49.900    20605851.043    80862018.044        1597.223          55.000  
J01  38889174.172   204363983.654         231.711          46.000    38889174.449   204363985.900         231.711          49.700    38889172.203   204364007.658         231.711          46.700    38889173.914   159244663.667         180.555          49.000    38889177.715   152609468.631         173.031          53.800  
J02  37118677.742   195060114.611         339.566          41.200    37118678.086   195060148.860         339.566          44.900    37118674.551   195060138.990         339.566          42.500    37118681.195   151994966.981         264.598          43.900    37118684.332   145661853.144         253.574          47.500  
J07  37265861.664   195833394.552          -0.324          38.400    37265862.012   195833391.810          -0.324          42.200    37265857.066   195833443.770          -0.324          44.900    37265863.480   152597436.518          -0.254          48.000    37265866.902   146239208.555          -0.242          51.600  
J03  37516650.234   197151266.023        -457.762          37.000    37516649.820   197151246.285        -457.762          40.800    37516646.617   197151229.345        -457.762          38.800    37516656.477   153624328.348        -356.699          37.800    37516661.512   147223309.613        -341.836          43.700  
G18  21620914.289   113618695.844          21.438          44.600    21620916.277    88534055.796          16.703          35.500    21620916.227    88534051.563          16.703          48.000    21620919.844    84845132.986          16.008          52.100  
G05  21381122.039   112358549.004       -2106.121          46.800    21381123.098    87552161.460       -1641.133          39.800    21381123.262    87552151.203       -1641.133          46.200                                                                  
G14  24109016.711   126693763.676        -385.566          38.000    24109019.520    98722404.284        -300.441          22.900    24109019.094    98722416.030        -300.441          39.400    24109024.020    94608983.133        -287.922          45.500  
G23  22705494.242   119318198.432        2990.855          41.400    22705495.434    92975259.054        2330.539          29.600    22705495.160    92975245.806        2330.539          43.800    22705499.113    89101279.465        2233.430          48.800  
E27  25755712.375   135347230.166        2533.648          44.400    25755714.328   103707653.928        1941.367          47.000    25755715.285   101071023.714        1892.012          47.300  
E33  25428274.586   133626491.419        -747.801          45.000    25428273.770   102389131.779        -572.992          48.700    25428274.566    99786017.894        -558.422          48.800  
E26  25437883.297   133676944.779       -2694.715          44.200    25437886.090   102427785.890       -2064.781          46.100    25437887.309    99823689.950       -2012.289          46.500  
E30  24899843.281   130849604.893         224.918          44.600    24899844.023   100261396.877         172.340          47.600    24899844.270    97712380.796         167.957          47.000  
E07  24569156.609   129111827.743        -992.328          48.000    24569157.504    98929864.237        -760.355          51.700    24569157.750    96414702.831        -741.023          51.500  
E08  26386747.570   138663254.757       -1879.770          34.800    26386748.980   106248453.680       -1440.344          34.700    26386750.063   103547222.910       -1403.723          35.600  
> 2021 09 22 06 30 54.0000000  0 18                     
G13  21550507.945   113248783.793       -1987.797          46.800    21550508.438    88245862.370       -1548.934          35.000                                                                                                                                  
G20  23534163.477   123672861.266       -3338.371          39.000    23534166.938    96368425.149       -2601.328          20.600                                                                                                                                  
G15  20327766.070   106823225.587        -327.570          49.400    20327767.473    83238891.320        -255.250          53.400    20327766.891    83238873.082        -255.250          49.900                                                                  
G24  20605439.773   108282569.559        2138.496          47.000    20605444.063    84376115.178        1666.359          52.000    20605443.848    84376078.942        1666.359          49.300    20605444.066    80860421.005        1596.930          55.000  
J01  38889129.813   204363751.927         231.879          46.600    38889130.246   204363754.174         231.879          49.700    38889128.137   204363775.932         231.879          46.600    38889129.926   159244483.105         180.684          49.100    38889133.617   152609295.597         173.156          53.800  
J02  37118613.641   195059775.097         339.559          41.400    37118613.734   195059809.349         339.559          44.800    37118610.262   195059799.482         339.559          42.800    37118616.941   151994702.423         264.594          44.100    37118619.629   145661599.611         253.566          47.300  
J07  37265862.438   195833394.975          -0.188          38.400    37265862.004   195833392.244          -0.188          42.100    37265857.172   195833444.192          -0.188          44.700    37265863.453   152597436.848          -0.145          47.900    37265867.102   146239208.872          -0.141          51.600  
J03  37516736.633   197151723.796        -457.727          36.400    37516736.914   197151704.061        -457.727          40.900    37516733.840   197151687.115        -457.727          38.000    37516743.211   153624685.042        -356.668          37.600    37516748.652   147223651.456        -341.809          43.500  
G18  21620910.328   113618674.668          20.973          44.200    21620912.359    88534039.296          16.340          35.400    21620912.047    88534035.055          16.340          47.700    21620915.813    84845117.180          15.660          51.900  
G05  21381522.367   112360655.267       -2106.391          46.800    21381524.133    87553802.704       -1641.344          39.700    21381524.043    87553792.454       -1641.344          46.300                                                                  
G14  24109090.320   126694149.244        -385.785          37.800    24109092.848    98722704.730        -300.613          21.800    24109092.887    98722716.495        -300.613          39.500    24109097.363    94609271.087        -288.086          45.300  
G23  22704924.852   119315207.640        2990.785          41.400    22704926.168    92972928.563        2330.484          30.300    22704926.082    92972915.338        2330.484          44.100    22704929.984    89099046.086        2233.379          49.200  
E27  25755230.359   135344696.533        2533.613          44.400    25755232.191   103705712.569        1941.340          47.000    25755233.223   101069131.706        1891.984          47.500  
E33  25428416.797   133627239.410        -748.195          44.400    25428416.137   102389704.908        -573.293          49.300    25428416.910    99786576.459        -558.715          48.500  
E26  25438396.281   133679639.523       -2694.723          43.800    25438398.949   102429850.688       -2064.785          46.400    25438400.184    99825702.256       -2012.293          46.500  
E30  24899800.617   130849380.176         224.633          44.600    24899801.199   100261224.715         172.121          47.600    24899801.563    97712213.009         167.746          47.000  
E07  24569345.391   129112820.048        -992.148          47.800    24569346.445    98930624.585        -760.219          51.500    24569346.516    96415443.863        -740.891          51.500  
E08  26387104.984   138665134.588       -1879.801          35.400    26387106.668   106249894.073       -1440.367          34.400    26387107.586   103548626.669       -1403.746          36.000  
> 2021 09 22 06 30 55.0000000  0 18                     
G13  21550885.695   113250771.872       -1988.109          47.200    21550886.758    88247411.520       -1549.176          34.800                                                                                                                                  
G20  23534797.727   123676199.988       -3338.648          38.600    23534802.234    96371026.721       -2601.547          19.900                                                                                                                                  
G15  20327828.695   106823553.552        -328.102          49.600    20327829.863    83239146.878        -255.664          53.500    20327829.746    83239128.620        -255.664          49.900                                                                  
G24  20605032.828   108280431.512        2137.805          46.400    20605037.141    84374449.167        1665.824          51.900    20605037.184    84374412.924        1665.824          49.100    20605037.250    80858824.418        1596.414          55.000  
J01  38889086.164   204363520.176         231.820          46.200    38889086.156   204363522.423         231.820          49.600    38889084.289   204363544.180         231.820          46.800    38889085.691   159244302.515         180.637          49.100    38889089.469   152609122.532         173.113          53.800  
J02  37118549.188   195059435.701         339.441          41.800    37118548.980   195059469.946         339.441          44.800    37118545.539   195059460.080         339.441          42.800    37118551.949   151994437.964         264.500          44.200    37118554.879   145661346.169         253.480          47.600  
J07  37265862.641   195833395.501          -0.535          39.200    37265862.121   195833392.740          -0.535          42.100    37265857.273   195833444.719          -0.535          44.900    37265863.387   152597437.233          -0.418          48.000    37265867.113   146239209.239          -0.398          51.700  
J03  37516823.742   197152181.612        -457.797          36.400    37516824.277   197152161.886        -457.797          40.900    37516820.992   197152144.932        -457.797          38.200    37516830.953   153625041.770        -356.723          37.400    37516835.707   147223993.325        -341.859          43.500  
G18  21620906.688   113618654.228          20.121          44.800    21620908.355    88534023.370          15.680          35.800    21620908.203    88534019.120          15.680          47.800    21620911.891    84845101.908          15.023          51.900  
G05  21381923.625   112362762.002       -2106.918          47.000    21381924.969    87555444.315       -1641.754          39.500    21381925.082    87555434.066       -1641.754          46.000                                                                  
G14  24109163.859   126694535.510        -386.652          37.800    24109166.379    98723005.725        -301.289          22.300    24109166.332    98723017.470        -301.289          39.900    24109170.777    94609559.517        -288.734          45.000  
G23  22704355.781   119312217.048        2990.613          41.600    22704356.988    92970598.240        2330.348          30.600    22704357.047    92970585.015        2330.348          43.600    22704360.926    89096812.860        2233.250          49.100  
E27  25754748.055   135342163.146        2533.246          45.000    25754749.980   103703771.406        1941.059          46.800    25754751.012   101067239.905        1891.707          47.400  
E33  25428559.414   133627987.925        -748.719          44.600    25428558.449   102390278.446        -573.691          49.100    25428559.391    99787135.415        -559.109          48.400  
E26  25438908.922   133682334.489       -2695.070          43.800    25438911.559   102431915.665       -2065.055          45.900    25438912.957    99827714.750       -2012.551          46.500  
E30  24899758.016   130849156.034         223.816          44.400    24899758.453   100261052.945         171.496          47.700    24899758.832    97712045.616         167.137          46.800  
E07  24569534.234   129113812.515        -992.457          47.800    24569535.281    98931385.028        -760.453          51.700    24569535.441    96416184.978        -741.121          51.300  
E08  26387462.945   138667014.435       -1879.871          34.400    26387464.223   106251334.496       -1440.422          34.700    26387465.148   103550030.435       -1403.801          35.100  
> 2021 09 22 06 30 56.0000000  0 18                     
G13  21551264.531   113252760.088       -1988.309          46.600    21551265.234    88248960.776       -1549.332          35.500                                                                                                                                  
G20  23535434.000   123679538.950       -3338.980          38.200    23535437.688    96373628.498       -2601.805          20.100                                                                                                                                  
G15  20327891.055   106823881.760        -328.340          49.600    20327892.359    83239402.627        -255.852          53.400    20327891.965    83239384.368        -255.852          50.000                                                                  
G24  20604626.008   108278293.962        2137.359          47.000    20604630.430    84372783.548        1665.477          51.900    20604630.199    84372747.311        1665.477          49.100    20604630.422    80857228.194        1596.082          55.000  
J01  38889041.438   204363288.309         231.914          46.400    38889042.164   204363290.563         231.914          49.500    38889039.809   204363312.314         231.914          47.000    38889041.664   159244121.839         180.711          49.100    38889045.379   152608949.381         173.180          53.900  
J02  37118484.094   195059096.335         339.359          41.600    37118484.191   195059130.570         339.359          45.000    37118480.859   195059120.714         339.359          42.900    37118487.438   151994173.522         264.434          44.000    37118490.520   145661092.750         253.418          47.000  
J07  37265862.273   195833395.943          -0.484          39.400    37265862.145   195833393.187          -0.484          42.000    37265857.316   195833445.167          -0.484          44.800    37265863.777   152597437.598          -0.379          47.900    37265867.277   146239209.577          -0.363          51.700  
J03  37516911.313   197152639.401        -457.652          36.000    37516911.621   197152619.657        -457.652          40.800    37516907.805   197152602.714        -457.652          38.100    37516917.824   153625398.488        -356.613          37.600    37516922.828   147224335.165        -341.754          43.600  
G18  21620902.602   113618634.424          19.496          45.200    21620904.621    88534007.938          15.191          35.900    21620904.492    88534003.687          15.191          48.000    21620908.086    84845087.111          14.559          52.000  
G05  21382324.625   112364869.137       -2107.363          46.600    21382325.977    87557086.233       -1642.102          39.600    21382326.184    87557075.991       -1642.102          46.200                                                                  
G14  24109237.516   126694922.314        -387.109          37.800    24109239.961    98723307.113        -301.645          22.900    24109239.941    98723318.873        -301.645          39.900    24109244.586    94609848.368        -289.078          44.900  
G23  22703786.625   119309226.618        2990.359          41.400    22703788.020    92968268.022        2330.148          30.800    22703788.074    92968254.794        2330.148          43.600    22703791.844    89094579.736        2233.063          49.400  
E27  25754266.156   135339629.926        2533.184          44.600    25754267.930   103701830.375        1941.008          47.000    25754268.926   101065348.222        1891.660          47.200  
E33  25428701.672   133628736.876        -749.137          44.600    25428701.023   102390852.313        -574.016          48.500    25428702.000    99787694.696        -559.422          48.700  
E26  25439421.875   133685029.611       -2695.188          43.600    25439424.695   102433980.758       -2065.145          45.800    25439425.949    99829727.322       -2012.641          46.300  
E30  24899715.461   130848932.293         223.559          44.400    24899716.082   100260881.517         171.297          47.700    24899716.379    97711878.552         166.941          46.700  
E07  24569722.984   129114805.011        -992.516          47.600    24569724.145    98932145.513        -760.500          51.800    24569724.301    96416926.124        -741.164          51.500  
E08  26387820.578   138668894.311       -1879.813          34.800    26387822.184   106252774.851       -1440.375          34.500    26387823.039   103551434.277       -1403.754          34.800  
> 2021 09 22 06 30 57.0000000  0 18                     
G13  21551642.906   113254748.472       -1988.594          47.000    21551643.594    88250510.167       -1549.555          34.400                                                                                                                                  
G20  23536069.719   123682878.134       -3339.340          38.000    23536073.191    96376230.479       -2602.082          20.100                                                                                                                                  
G15  20327953.742   106824210.299        -328.684          49.200    20327954.785    83239658.628        -256.117          53.400    20327954.602    83239640.390        -256.117          50.000                                                                  
G24  20604219.000   108276157.001        2136.602          47.000    20604223.813    84371118.388        1664.883          51.900    20604223.734    84371082.152        1664.883          49.400    20604223.762    80855632.415        1595.516          55.200  
J01  38888997.484   204363056.385         231.957          46.800    38888998.020   204363058.647         231.957          49.600    38888995.805   204363080.390         231.957          47.100    38888997.559   159243941.131         180.746          49.100    38889001.254   152608776.199         173.215          54.100  
J02  37118419.961   195058757.086         339.043          42.200    37118419.836   195058791.327         339.043          45.000    37118416.305   195058781.473         339.043          42.700    37118423.098   151993909.173         264.188          44.000    37118425.969   145660839.393         253.180          47.300  
J07  37265862.570   195833396.476          -0.773          39.000    37265862.188   195833393.689          -0.773          42.000    37265857.379   195833445.692          -0.773          44.900    37265863.707   152597437.978          -0.602          47.900    37265867.313   146239209.951          -0.574          51.900  
J03  37516997.984   197153097.220        -457.906          36.400    37516998.430   197153077.465        -457.906          40.800    37516994.867   197153060.534        -457.906          38.400    37517004.883   153625755.201        -356.809          37.600    37517010.082   147224677.033        -341.941          43.400  
G18  21620899.219   113618615.300          18.699          45.200    21620900.934    88533993.040          14.570          35.300    21620901.094    88533988.799          14.570          47.400    21620904.406    84845072.847          13.965          51.900  
G05  21382725.633   112366976.714       -2107.871          47.000    21382726.996    87558728.501       -1642.496          39.700    21382727.422    87558718.257       -1642.496          46.000                                                                  
G14  24109311.750   126695309.716        -387.770          37.600    24109313.625    98723608.998        -302.156          22.600    24109313.555    98723620.757        -302.156          39.900    24109318.086    94610137.671        -289.566          44.500  
G23  22703217.328   119306236.368        2990.176          41.200    22703218.863    92965937.966        2330.008          29.900    22703219.363    92965924.728        2330.008          43.600    22703222.777    89092346.749        2232.922          49.500  
E27  25753784.016   135337096.953        2532.891          44.400    25753785.859   103699889.531        1940.785          46.900    25753787.043   101063456.715        1891.445          47.400  
E33  25428844.461   133629486.326        -749.750          44.600    25428843.605   102391426.568        -574.484          48.600    25428844.527    99788254.354        -559.879          48.700  
E26  25439934.773   133687724.945       -2695.375          43.600    25439937.328   102436046.011       -2065.289          45.700    25439938.941    99831740.078       -2012.781          46.600  
E30  24899672.992   130848709.077         222.953          44.600    24899673.406   100260710.491         170.836          47.600    24899673.879    97711711.862         166.492          46.400  
E07  24569912.063   129115797.619        -992.719          47.200    24569913.039    98932906.082        -760.656          51.800    24569913.117    96417667.354        -741.316          51.600  
E08  26388178.477   138670774.201       -1880.246          35.200    26388180.223   106254215.336       -1440.707          35.000    26388180.648   103552838.052       -1404.078          35.300  
> 2021 09 22 06 30 58.0000000  0 18                     
G13  21552021.031   113256736.953       -1988.527          46.800    21552022.008    88252059.630       -1549.500          34.700                                                                                                                                  
G20  23536704.633   123686217.490       -3339.629          37.800    23536708.699    96378832.546       -2602.309          19.300                                                                                                                                  
G15  20328016.234   106824539.091        -329.004          49.600    20328017.336    83239914.837        -256.367          53.500    20328016.840    83239896.578        -256.367          49.700                                                                  
G24  20603812.758   108274020.512        2136.207          46.600    20603817.297    84369453.587        1664.574          52.000    20603817.234    84369417.344        1664.574          49.500    20603817.262    80854036.988        1595.219          55.000  
J01  38888953.898   204362824.336         232.051          46.600    38888953.859   204362826.590         232.051          49.600    38888951.336   204362848.348         232.051          47.300    38888953.160   159243760.305         180.820          49.200    38888957.102   152608602.916         173.285          54.000  
J02  37118354.680   195058417.810         339.246          42.000    37118355.262   195058452.049         339.246          44.900    37118352.211   195058442.189         339.246          43.000    37118358.488   151993644.817         264.348          43.600    37118361.410   145660586.058         253.336          47.500  
J07  37265862.578   195833396.904          -0.543          39.200    37265862.211   195833394.143          -0.543          42.100    37265857.613   195833446.122          -0.543          44.800    37265863.758   152597438.328          -0.422          48.000    37265867.410   146239210.287          -0.406          51.900  
J03  37517086.047   197153554.979        -457.793          36.600    37517085.066   197153535.213        -457.793          41.000    37517081.621   197153518.292        -457.793          38.300    37517091.891   153626111.875        -356.723          37.300    37517096.918   147225018.858        -341.859          43.300  
G18  21620895.523   113618596.836          18.090          44.400    21620897.383    88533978.651          14.098          35.400    21620897.250    88533974.394          14.098          47.400    21620900.938    84845059.034          13.508          52.100  
G05  21383126.898   112369084.636       -2108.145          47.200    21383128.105    87560371.038       -1642.711          40.100    21383128.289    87560360.795       -1642.711          46.000                                                                  
G14  24109384.477   126695697.646        -388.137          37.800    24109387.609    98723911.274        -302.441          22.600    24109387.410    98723923.022        -302.441          39.800    24109392.098    94610427.359        -289.840          44.600  
G23  22702648.172   119303246.171        2990.172          41.600    22702649.977    92963607.943        2330.004          30.000    22702650.398    92963594.725        2330.004          43.400    22702653.789    89090113.835        2232.918          49.400  
E27  25753302.078   135334564.117        2532.809          44.400    25753303.941   103697948.789        1940.723          46.800    25753304.891   101061565.309        1891.383          47.400  
E33  25428987.227   133630236.187        -750.172          44.600    25428986.352   102392001.146        -574.809          48.600    25428987.289    99788814.313        -560.191          48.700  
E26  25440447.602   133690420.402       -2695.547          43.600    25440450.383   102438111.353       -2065.418          45.700    25440451.723    99833752.900       -2012.910          46.900  
E30  24899630.547   130848486.280         222.516          44.200    24899631.164   100260539.763         170.496          47.600    24899631.551    97711545.488         166.164          46.500  
E07  24570100.852   129116790.231        -992.652          47.400    24570101.922    98933666.658        -760.602          51.900    24570102.109    96418408.594        -741.266          51.500  
E08  26388536.211   138672654.003       -1879.895          34.600    26388538.227   106255655.726       -1440.438          35.000    26388538.559   103554241.820       -1403.816          34.700  
> 2021 09 22 06 30 59.0000000  0 18                     
G13  21552399.727   113258725.605       -1988.938          46.600    21552400.336    88253609.225       -1549.820          34.900                                                                                                                                  
G20  23537340.102   123689557.113       -3339.883          38.200    23537344.285    96381434.843       -2602.508          19.600                                                                                                                                  
G15  20328078.742   106824868.196        -329.414          50.000    20328080.020    83240171.281        -256.688          53.400    20328079.672    83240153.014        -256.688          49.500                                                                  
G24  20603406.023   108271884.588        2135.570          46.600    20603410.734    84367789.237        1664.078          51.900    20603410.832    84367753.000        1664.078          49.300    20603410.777    80852441.994        1594.742          55.000  
J01  38888909.648   204362592.220         232.035          46.000    38888909.742   204362594.459         232.035          49.700    38888907.375   204362616.224         232.035          47.300    38888908.906   159243579.438         180.805          48.700    38888912.867   152608429.579         173.273          53.900  
J02  37118290.313   195058078.628         339.008          42.200    37118290.406   195058112.883         339.008          44.800    37118287.387   195058103.009         339.008          43.100    37118293.914   151993380.505         264.160          43.800    37118296.809   145660332.771         253.156          47.200  
J07  37265862.773   195833397.331          -0.391          39.000    37265862.578   195833394.616          -0.391          42.000    37265857.359   195833446.548          -0.391          44.700    37265863.840   152597438.693          -0.305          47.900    37265867.535   146239210.630          -0.293          51.700  
J03  37517172.156   197154012.736        -457.887          37.000    37517172.324   197153992.981        -457.887          40.800    37517169.113   197153976.049        -457.887          38.800    37517179.383   153626468.584        -356.797          37.300    37517184.098   147225360.680        -341.930          43.600  
G18  21620891.805   113618579.033          17.293          44.400    21620894.164    88533964.779          13.477          35.700    21620894.059    88533960.524          13.477          47.000    21620897.508    84845045.749          12.914          51.900  
G05  21383528.102   112371193.017       -2108.699          46.800    21383529.352    87562013.935       -1643.141          39.700    21383529.813    87562003.685       -1643.141          46.000                                                                  
G14  24109458.891   126696086.199        -388.898          37.800    24109461.480    98724214.042        -303.039          22.900    24109461.113    98724225.801        -303.039          39.900    24109466.031    94610717.492        -290.410          44.700  
G23  22702079.688   119300256.199        2989.855          41.800    22702081.059    92961278.092        2329.758          29.800    22702081.277    92961264.857        2329.758          43.600    22702084.879    89087881.049        2232.684          49.300  
E27  25752820.203   135332031.515        2532.480          45.000    25752821.906   103696008.210        1940.469          46.700    25752822.965   101059674.074        1891.137          47.400  
E33  25429130.086   133630986.562        -750.836          45.000    25429129.117   102392576.092        -575.316          48.800    25429129.980    99789374.652        -560.691          48.800  
E26  25440960.563   133693116.054       -2695.855          43.600    25440963.383   102440176.852       -2065.656          46.000    25440964.742    99835765.894       -2013.141          46.900  
E30  24899588.328   130848263.951         222.023          44.600    24899588.715   100260369.424         170.121          47.400    24899589.215    97711379.468         165.797          46.300  
E07  24570289.859   129117782.936        -992.805          47.400    24570290.852    98934427.302        -760.719          51.700    24570290.973    96419149.906        -741.379          51.600  
E08  26388894.055   138674533.850       -1879.863          34.800    26388896.078   106257096.113       -1440.418          34.900    26388896.266   103555645.578       -1403.797          35.200  
> 2021 09 22 06 31 00.0000000  0 18                     
G13  21552778.000   113260714.358       -1988.809          46.400    21552778.832    88255158.899       -1549.723          34.400                                                                                                                                  
G20  23537975.758   123692896.898       -3339.758          38.200    23537979.836    96384037.277       -2602.410          19.900                                                                                                                                  
G15  20328141.539   106825197.545        -329.492          49.600    20328142.699    83240427.919        -256.750          53.400    20328142.359    83240409.659        -256.750          49.600                                                                  
G24  20602999.875   108269749.153        2135.258          46.400    20603004.449    84366125.259        1663.836          51.900    20603004.254    84366089.023        1663.836          49.500    20603004.438    80850847.343        1594.512          55.100  
J01  38888864.977   204362359.981         232.285          46.200    38888865.297   204362362.220         232.285          49.700    38888863.238   204362383.986         232.285          47.100    38888864.758   159243398.466         181.000          48.900    38888868.746   152608256.149         173.457          53.700  
J02  37118226.148   195057739.481         339.016          42.000    37118225.953   195057773.715         339.016          44.900    37118223.031   195057763.867         339.016          42.900    37118229.719   151993116.254         264.168          43.700    37118232.188   145660079.513         253.160          47.200  
J07  37265862.555   195833397.788          -0.500          39.000    37265862.527   195833395.038          -0.500          41.800    37265857.457   195833447.004          -0.500          45.000    37265864.180   152597439.018          -0.391          47.900    37265867.578   146239210.947          -0.375          52.000  
J03  37517259.039   197154470.456        -457.691          37.000    37517259.707   197154450.709        -457.691          40.600    37517256.184   197154433.777        -457.691          39.400    37517266.613   153626825.271        -356.645          37.300    37517271.281   147225702.492        -341.781          43.500  
G18  21620888.430   113618561.861          16.859          44.600    21620890.965    88533951.399          13.137          35.800    21620890.609    88533947.151          13.137          46.900    21620894.219    84845032.930          12.590          51.900  
G05  21383929.188   112373301.770       -2108.945          47.200    21383930.668    87563657.116       -1643.336          39.400    21383930.945    87563646.873       -1643.336          46.300                                                                  
G14  24109532.992   126696475.258        -389.328          37.600    24109535.609    98724517.218        -303.371          22.000    24109535.508    98724528.962        -303.371          39.500    24109539.891    94611008.040        -290.730          44.600  
G23  22701510.445   119297266.313        2989.926          41.600    22701512.039    92958948.314        2329.813          30.000    22701512.035    92958935.083        2329.813          43.600    22701515.816    89085648.347        2232.734          49.200  
E27  25752338.188   135329499.083        2532.383          45.000    25752340.066   103694067.783        1940.395          46.900    25752341.180   101057782.977        1891.063          47.600  
E33  25429272.836   133631737.315        -750.906          44.800    25429272.055   102393151.364        -575.367          48.700    25429273.004    99789935.284        -560.742          49.200  
E26  25441473.609   133695811.838       -2695.840          43.400    25441476.191   102442242.455       -2065.645          45.600    25441477.848    99837778.973       -2013.129          46.600  
E30  24899546.234   130848042.081         221.699          44.800    24899546.598   100260199.408         169.871          47.400    24899546.949    97711213.786         165.555          46.600  
E07  24570478.641   129118775.684        -992.734          47.800    24570479.777    98935187.982        -760.668          51.700    24570479.805    96419891.241        -741.328          51.900  
E08  26389251.852   138676413.656       -1879.734          34.600    26389253.988   106258536.475       -1440.316          34.700    26389253.676   103557049.318       -1403.695          35.000  
> 2021 09 22 06 31 01.0000000  0 18                     
G13  21553156.961   113262703.236       -1989.008          46.000    21553157.348    88256708.678       -1549.875          34.300                                                                                                                                  
G20  23538611.453   123696236.934       -3340.285          38.200    23538615.418    96386639.880       -2602.816          20.600                                                                                                                                  
G15  20328204.117   106825527.210        -329.988          50.000    20328205.426    83240684.799        -257.137          53.400    20328204.941    83240666.540        -257.137          49.600                                                                  
G24  20602593.484   108267614.267        2134.523          46.600    20602598.113    84364461.717        1663.262          52.000    20602598.066    84364425.481        1663.262          49.300    20602598.176    80849253.111        1593.961          55.000  
J01  38888820.930   204362127.664         232.184          46.400    38888821.238   204362129.897         232.184          49.600    38888819.070   204362151.677         232.184          47.100    38888820.449   159243217.439         180.922          48.900    38888824.477   152608082.658         173.383          53.800  
J02  37118161.563   195057400.375         338.980          42.200    37118161.727   195057434.618         338.980          44.700    37118158.363   195057424.762         338.980          42.600    37118164.617   151992852.023         264.141          43.800    37118167.762   145659826.286         253.133          47.200  
J07  37265862.719   195833398.197          -0.438          38.800    37265862.551   195833395.470          -0.438          42.000    37265857.668   195833447.422          -0.438          45.100    37265864.184   152597439.356          -0.344          48.000    37265867.652   146239211.270          -0.328          52.200  
J03  37517346.766   197154928.212        -457.914          37.000    37517346.629   197154908.426        -457.914          40.700    37517343.711   197154891.532        -457.914          38.900    37517353.738   153627181.921        -356.816          37.300    37517358.316   147226044.283        -341.949          43.300  
G18  21620885.531   113618545.372          16.152          44.400    21620887.645    88533938.553          12.586          35.600    21620887.758    88533934.303          12.586          47.300    21620891.148    84845020.615          12.063          51.900  
G05  21384330.516   112375410.929       -2109.535          47.400    21384332.090    87565300.613       -1643.793          40.100    21384332.336    87565290.363       -1643.793          46.600                                                                  
G14  24109608.195   126696864.908        -390.043          38.000    24109609.625    98724820.821        -303.930          22.600    24109609.660    98724832.602        -303.930          39.700    24109614.055    94611299.018        -291.266          44.500  
G23  22700941.547   119294276.602        2989.527          42.200    22700943.348    92956618.671        2329.500          29.500    22700943.211    92956605.421        2329.500          43.800    22700946.969    89083415.749        2232.438          49.300  
E27  25751856.328   135326966.814        2532.074          45.400    25751858.090   103692127.489        1940.160          47.000    25751859.117   101055892.009        1890.836          47.800  
E33  25429415.758   133632488.598        -751.629          44.600    25429414.922   102393727.010        -575.926          48.300    25429415.852    99790496.287        -561.281          49.500  
E26  25441986.531   133698507.809       -2696.270          43.400    25441989.320   102444308.190       -2065.973          46.100    25441990.754    99839792.193       -2013.449          46.300  
E30  24899503.914   130847820.685         221.012          44.800    24899504.379   100260029.756         169.348          46.800    24899504.719    97711048.460         165.039          46.700  
E07  24570667.516   129119768.513        -992.996          47.800    24570668.691    98935948.724        -760.867          52.000    24570668.766    96420632.632        -741.523          52.100  
E08  26389609.453   138678293.488       -1880.113          34.800    26389611.340   106259976.885       -1440.605          34.500    26389611.508   103558453.113       -1403.980          35.200  
> 2021 09 22 06 31 02.0000000  0 18                     
G13  21553535.102   113264692.340       -1989.301          46.000    21553535.719    88258258.630       -1550.105          34.700                                                                                                                                  
G20  23539246.938   123699577.206       -3340.293          38.200    23539251.035    96389242.694       -2602.824          21.100                                                                                                                                  
G15  20328267.063   106825857.184        -330.184          50.200    20328268.293    83240941.922        -257.285          53.600    20328267.680    83240923.662        -257.285          49.400                                                                  
G24  20602187.500   108265479.948        2133.984          46.200    20602191.992    84362798.610        1662.848          51.900    20602192.094    84362762.375        1662.848          49.600    20602191.930    80847659.300        1593.563          55.000  
J01  38888776.953   204361895.276         232.449          46.000    38888776.781   204361897.515         232.449          49.600    38888774.801   204361919.281         232.449          47.200    38888776.461   159243036.362         181.129          48.900    38888780.258   152607909.133         173.582          53.800  
J02  37118096.719   195057061.376         338.941          41.800    37118096.910   195057095.627         338.941          44.800    37118093.945   195057085.762         338.941          42.700    37118100.426   151992587.852         264.109          43.900    37118103.227   145659573.147         253.105          47.400  
J07  37265862.945   195833398.674          -0.430          38.800    37265863.176   195833395.922          -0.430          42.100    37265857.684   195833447.899          -0.430          45.100    37265864.223   152597439.718          -0.332          48.100    37265867.723   146239211.612          -0.320          51.800  
J03  37517433.805   197155385.904        -457.758          36.800    37517433.746   197155366.149        -457.758          40.700    37517430.395   197155349.217        -457.758          39.100    37517441.270   153627538.584        -356.695          37.900    37517445.430   147226386.084        -341.832          43.300  
G18  21620882.250   113618529.597          15.305          44.400    21620884.762    88533926.258          11.926          35.500    21620884.484    88533921.997          11.926          47.300    21620888.141    84845008.827          11.430          52.200  
G05  21384731.992   112377520.544       -2109.832          47.400    21384733.359    87566944.465       -1644.023          39.600    21384733.563    87566934.221       -1644.023          46.500                                                                  
G14  24109681.313   126697255.182        -390.496          38.200    24109683.766    98725124.948        -304.281          22.900    24109684.070    98725136.699        -304.281          39.900    24109688.383    94611590.438        -291.605          45.000  
G23  22700372.539   119291287.065        2989.289          42.000    22700374.293    92954289.165        2329.316          29.600    22700374.125    92954275.895        2329.316          43.800    22700378.137    89081183.304        2232.262          49.000  
E27  25751374.367   135324434.810        2531.887          45.000    25751376.430   103690187.369        1940.016          47.400    25751377.375   101054001.222        1890.695          47.500  
E33  25429558.813   133633240.348        -752.016          44.600    25429558.020   102394303.025        -576.219          48.600    25429558.875    99791057.666        -561.570          49.600  
E26  25442499.672   133701203.962       -2696.191          43.200    25442502.055   102446374.086       -2065.910          46.000    25442503.898    99841805.559       -2013.387          46.400  
E30  24899462.203   130847599.766         220.680          44.600    24899462.418   100259860.505         169.094          46.700    24899462.824    97710883.503         164.793          47.000  
E07  24570856.508   129120761.441        -992.953          47.600    24570857.598    98936709.537        -760.832          51.800    24570857.699    96421374.101        -741.492          51.500  
E08  26389966.539   138680173.328       -1879.973          35.600    26389969.367   106261417.250       -1440.500          34.900    26389969.172   103559856.868       -1403.875          34.900  
> 2021 09 22 06 31 03.0000000  0 18                     
G13  21553913.398   113266681.577       -1989.320          46.600    21553914.227    88259808.685       -1550.117          34.800                                                                                                                                  
G20  23539882.195   123702917.752       -3340.719          38.000    23539886.938    96391845.717       -2603.160          21.100                                                                                                                                  
G15  20328329.789   106826187.499        -330.500          50.000    20328331.129    83241199.310        -257.531          53.400    20328330.664    83241181.043        -257.531          49.100                                                                  
G24  20601781.234   108263346.196        2133.465          46.600    20601785.984    84361135.950        1662.441          52.100    20601785.965    84361099.707        1662.441          50.000    20601786.012    80846065.925        1593.172          55.000  
J01  38888732.648   204361662.842         232.445          46.000    38888732.777   204361665.089         232.445          49.700    38888730.625   204361686.846         232.445          47.300    38888732.090   159242855.240         181.125          48.800    38888736.055   152607735.562         173.578          53.900  
J02  37118032.281   195056722.455         339.000          42.200    37118032.598   195056756.702         339.000          45.000    37118029.176   195056746.834         339.000          42.700    37118035.844   151992323.781         264.156          44.200    37118038.848   145659320.071         253.152          47.500  
J07  37265863.422   195833399.162          -0.504          39.200    37265862.633   195833396.429          -0.504          42.100    37265858.043   195833448.379          -0.504          45.500    37265864.051   152597440.102          -0.395          48.000    37265867.816   146239211.982          -0.379          51.500  
J03  37517521.305   197155843.661        -457.719          37.200    37517520.582   197155823.914        -457.719          40.800    37517517.520   197155806.966        -457.719          39.100    37517528.309   153627895.287        -356.664          37.900    37517532.555   147226727.913        -341.801          43.300  
G18  21620879.742   113618514.489          14.711          44.800    21620881.852    88533914.489          11.461          35.400    21620881.695    88533910.232          11.461          47.900    21620885.234    84844997.549          10.984          52.500  
G05  21385133.219   112379630.591       -2110.246          47.600    21385135.027    87568588.663       -1644.348          39.400    21385135.199    87568578.414       -1644.348          46.600                                                                  
G14  24109756.234   126697646.054        -391.242          38.200    24109758.078    98725429.535        -304.863          22.900    24109758.699    98725441.289        -304.863          39.900    24109762.641    94611882.336        -292.160          45.100  
G23  22699803.891   119288297.669        2989.281          42.200    22699805.484    92951959.763        2329.309          29.900    22699805.352    92951946.527        2329.309          43.900    22699809.211    89078950.988        2232.254          48.900  
E27  25750892.734   135321903.029        2531.652          45.400    25750894.555   103688247.439        1939.840          47.700    25750895.398   101052110.615        1890.520          47.400  
E33  25429702.039   133633992.591        -752.555          44.600    25429701.328   102394879.427        -576.633          48.800    25429702.145    99791619.416        -561.973          49.600  
E26  25443012.742   133703900.337       -2696.430          43.200    25443015.426   102448440.118       -2066.094          45.900    25443016.969    99843819.088       -2013.566          46.500  
E30  24899420.281   130847379.393         220.105          44.600    24899420.453   100259691.618         168.652          46.800    24899420.824    97710718.908         164.363          47.000  
E07  24571045.422   129121754.458        -993.063          47.600    24571046.609    98937470.422        -760.918          51.900    24571046.746    96422115.646        -741.574          51.500  
E08  26390324.297   138682053.198       -1879.938          34.800    26390327.082   106262857.645       -1440.473          35.200    26390327.105   103561260.657       -1403.852          35.500  
