     3.04           OBSERVATION DATA    M                   RINEX VERSION / TYPE
sbf2rin-13.8.0                          20210321 012128 UTC PGM / RUN BY / DATE
SEPT                                                        MARKER NAME
Unknown                                                     MARKER NUMBER
Unknown             Unknown                                 OBSERVER / AGENCY
Unknown             Unknown             Unknown             REC # / TYPE / VERS
Unknown             Unknown                                 ANT # / TYPE
 -3962108.4557  3381308.8777  3668678.1749                  APPROX POSITION XYZ
        0.0000        0.0000        0.0000                  ANTENNA: DELTA H/E/N
G   14 C1C L1C S1C C1W S1W C2W L2W S2W C2L L2L S2L C5Q L5Q  SYS / # / OBS TYPES
       S5Q                                                  SYS / # / OBS TYPES
E   12 C1C L1C S1C C5Q L5Q S5Q C7Q L7Q S7Q C8Q L8Q S8Q      SYS / # / OBS TYPES
J    9 C1C L1C S1C C2L L2L S2L C5Q L5Q S5Q                  SYS / # / OBS TYPES
SEPTENTRIO RECEIVERS OUTPUT ALIGNED CARRIER PHASES.         COMMENT
NO FURTHER PHASE SHIFT APPLIED IN THE RINEX ENCODER.        COMMENT
G L1C                                                       SYS / PHASE SHIFT
G L2W                                                       SYS / PHASE SHIFT
G L2L  0.00000                                              SYS / PHASE SHIFT
G L5Q  0.00000                                              SYS / PHASE SHIFT
E L1C  0.00000                                              SYS / PHASE SHIFT
E L5Q  0.00000                                              SYS / PHASE SHIFT
E L7Q  0.00000                                              SYS / PHASE SHIFT
E L8Q  0.00000                                              SYS / PHASE SHIFT
J L1C                                                       SYS / PHASE SHIFT
J L2L  0.00000                                              SYS / PHASE SHIFT
J L5Q  0.00000                                              SYS / PHASE SHIFT
     1.000                                                  INTERVAL
  2021     3    19    12     0    0.0000000     GPS         TIME OF FIRST OBS
  2021     3    19    12    14   59.0000000     GPS         TIME OF LAST OBS
    63                                                      # OF SATELLITES
DBHZ                                                        SIGNAL STRENGTH UNIT
                                                            END OF HEADER
> 2021 03 19 12 00  0.0000000  0 23
E01  27530612.397 5 144674360.16505        35.844    27530614.399 6 108036055.09606        37.344    27530613.464 6 110854383.75806        37.469    27530613.943 6 109445218.97106        40.406
E03  25653954.884 7 134812488.32507        42.500    25653957.032 7 100671683.93207        42.125    25653956.234 7 103297892.67307        42.031    25653956.607 7 101984789.34407        45.031
E07  27003277.434 6 141903221.24606        36.813    27003279.788 6 105966721.79006        37.500    27003279.242 6 108731067.80606        37.438    27003279.359 6 107348899.84206        40.469
E08  22559453.167 7 118550752.90307        45.406    22559453.961 7  88528178.55807        45.375    22559452.897 7  90837602.44907        45.375    22559453.372 8  89682890.54508        48.406
E13  23625804.227 8 124154658.02508        48.094    23625805.377 7  92713006.18107        47.188    23625804.647 7  95131608.36407        47.688    23625804.984 8  93922319.81408        50.469
E15  24630352.011 7 129433596.87807        43.594    24630354.943 7  96655103.38307        44.188    24630353.799 7  99176518.09307        43.750    24630354.286 7  97915812.28007        46.969
E21  26147195.107 6 137404470.93306        39.469    26147197.220 6 102607252.87206        40.781    26147196.315 6 105283957.00506        40.063    26147196.817 7 103945607.98207        43.438
E26  26204588.624 5 137706054.61405        35.313    26204592.174 6 102832458.50606        38.500    26204591.580 6 105515041.21406        38.875    26204591.778 6 104173749.40206        41.750
E27  27201779.518 5 142946342.60905        35.250    27201782.250 5 106745679.81205        35.469    27201780.986 5 109530343.68305        34.531    27201781.623 6 108138012.29106        38.063
G01  23733056.453 6 124718238.44206        36.125    23733056.096 2        14.375    23733058.476 2  97183098.32502        14.375    23733057.679 5  97182951.33105        31.781    23733056.336 6  93133931.15606        39.188
G03  21786888.348 7 114490948.28907        44.875    21786888.232 5        30.563    21786889.546 5  89213742.80405        30.563    21786889.223 6  89213728.81306        39.000    21786888.593 7  85496542.32807        46.281
G04  22280835.459 7 117086597.10107        42.469    22280835.173 4        25.031    22280834.680 4  91236319.41304        25.031    22280835.240 6  91236320.41106        37.000    22280838.270 7  87434816.33907        43.344
G06  21842854.252 7 114785031.86207        44.844    21842854.069 6        41.656    21842855.216 6  89442909.16406        41.656    21842856.117 6  89442874.18606        38.063    21842855.452 7  85716149.32007        45.438
G09  22514865.034 7 118316425.44007        42.313    22514864.471 4        25.625    22514864.980 4  92194634.82104        25.625    22514865.014 6  92194611.85206        36.656    22514864.877 7  88353189.13807        44.000
G14  23022112.421 6 120982046.76706        41.000    23022112.189 3        21.875    23022111.994 3  94271736.44103        21.875    23022111.249 6  94271737.44206        36.125    23022115.322 7  90343759.34207        42.125
G17  20208901.317 8 106198534.71108        49.063    20208900.817 8        51.313    20208899.065 8  82752114.82108        51.313    20208898.808 7  82752109.83807        43.156
G19  20417831.405 7 107296469.06707        47.781    20417830.140 6        36.719    20417827.448 6  83607643.55506        36.719
G22  24343063.482 6 127923740.29006        38.906    24343062.199 2        15.219    24343059.244 2  99680876.01002        15.219
G28  22321498.453 7 117300301.65107        42.656    22321497.595 3        22.656    22321496.111 3  91402832.61603        22.656
J01  36952979.472 7 194189306.38407        43.750    36952977.992 6 151316288.47006        37.438    36952980.099 7 145011418.56207        45.281
J02  37360078.134 6 196328566.32406        36.063    37360079.007 5 152983280.04305        32.781    37360079.863 6 146608985.73706        38.063
J03  38199917.187 7 200741957.15207        47.688    38199916.938 7 156422321.61507        43.719    38199918.059 8 149904678.79508        49.250
J07  37147194.408 6 195209826.83606        38.750    37147194.125 6 152111547.40606        39.594    37147194.960 7 145773601.89507        45.469
> 2021 03 19 12 00  1.0000000  0 23
E01  27530547.026 5 144674015.82705        35.656    27530548.811 6 108035797.94206        37.375    27530547.835 6 110854119.91606        37.031    27530548.389 6 109444958.47206        40.250
E03  25654161.204 7 134813573.00507        42.438    25654163.453 7 100672493.91907        42.063    25654162.706 7 103298723.79807        42.000    25654163.012 7 101985609.90107        45.000
E07  27002723.226 6 141900308.01006        36.719    27002725.441 6 105964546.32306        37.500    27002724.871 6 108728835.59306        37.531    27002724.998 6 107346696.00706        40.531
E08  22559156.539 7 118549194.17207        45.469    22559157.337 7  88527014.56807        45.438    22559156.298 7  90836408.09107        45.438    22559156.752 8  89681711.37108        48.469
E13  23625712.312 8 124154174.98508        48.188    23625713.478 7  92712645.46907        47.250    23625712.688 7  95131238.24507        47.844    23625713.065 8  93921954.39808        50.531
E15  24630595.460 7 129434876.41207        43.719    24630598.371 7  96656058.88507        44.188    24630597.282 7  99177498.52707        43.844    24630597.774 7  97916780.24807        46.969
E21  26147540.482 6 137406286.84806        39.281    26147542.810 6 102608608.91206        40.688    26147541.868 6 105285348.42606        40.344    26147542.371 7 103946981.71207        43.563
E26  26204259.735 5 137704326.09605        35.594    26204263.172 6 102831167.74606        38.844    26204262.734 6 105513716.78506        38.844    26204262.850 6 104172441.80906        41.906
E27  27202341.837 5 142949297.34905        35.406    27202344.457 5 106747886.25505        35.531    27202343.294 5 109532607.70505        34.313    27202343.916 6 108140247.52806        37.938
G01  23733573.222 6 124720954.59806        36.375    23733572.865 2        15.000    23733575.369 2  97185214.81402        15.000    23733574.541 5  97185067.79805        31.594    23733573.114 6  93135959.44606        39.281
G03  21787431.727 7 114493803.54407        45.063    21787431.611 5        30.625    21787432.879 5  89215967.67805        30.625    21787432.507 6  89215953.69406        39.156    21787431.951 7  85498674.50207        46.281
G04  22280656.629 7 117085656.70607        42.594    22280656.348 4        25.063    22280655.712 4  91235586.63704        25.063    22280656.142 6  91235587.63206        36.875    22280659.265 7  87434114.09007        43.563
G06  21842565.469 7 114783514.98707        44.906    21842565.286 6        41.688    21842566.572 6  89441727.18506        41.688    21842567.243 6  89441692.20106        37.906    21842566.763 7  85715016.59107        45.344
G09  22514369.968 7 118313824.82707        42.250    22514369.405 4        25.688    22514370.119 4  92192608.37004        25.688    22514369.976 6  92192585.41706        36.500    22514369.971 7  88351247.11507        44.000
G14  23022751.419 6 120985404.64806        40.969    23022751.183 3        21.906    23022751.015 3  94274352.96703        21.906    23022750.329 6  94274353.97806        36.125    23022754.315 7  90346266.86107        42.156
G17  20208842.015 8 106198223.17308        49.219    20208841.515 8        51.313    20208839.775 8  82751872.06308        51.313    20208839.601 7  82751867.07007        43.156
G19  20417526.991 7 107294869.21507        47.813    20417525.726 6        36.719    20417522.998 6  83606396.91806        36.719
G22  24343704.188 6 127927105.70806        39.031    24343702.914 2        15.563    24343699.684 2  99683498.42402        15.563
G28  22322025.701 7 117303072.74707        42.844    22322024.843 3        22.625    22322023.490 3  91404991.91303        22.625
J01  36953036.322 7 194189605.34207        43.813    36953034.753 6 151316521.41306        37.531    36953037.042 7 145011641.81707        45.188
J02  37360201.738 6 196329215.79306        36.094    37360202.419 5 152983786.12805        32.344    37360203.445 6 146609470.75606        38.156
J03  38199823.197 7 200741462.97407        47.656    38199822.793 7 156421936.55407        43.813    38199824.071 8 149904309.77208        49.219
J07  37147221.086 6 195209966.28906        38.969    37147220.599 6 152111656.06806        39.625    37147221.429 7 145773706.01607        45.469
> 2021 03 19 12 00  2.0000000  0 23
E01  27530481.469 5 144673671.66305        35.750    27530483.353 6 108035540.95006        37.406    27530482.388 6 110853856.21206        37.469    27530482.911 6 109444698.12506        40.469
E03  25654367.634 7 134814657.90007        42.531    25654369.872 7 100673304.07607        42.188    25654369.222 7 103299555.07007        42.031    25654369.449 7 101986430.61507        45.063
E07  27002168.766 6 141897394.57806        36.969    27002170.969 6 105962370.71606        37.625    27002170.431 6 108726603.21606        37.469    27002170.584 6 107344492.01106        40.531
E08  22558859.975 7 118547635.57607        45.406    22558860.735 7  88525850.68207        45.438    22558859.712 7  90835213.85007        45.438    22558860.167 8  89680532.30808        48.469
E13  23625620.416 8 124153691.79108        48.156    23625621.554 7  92712284.64607        47.188    23625620.756 7  95130868.00507        47.875    23625621.124 8  93921588.86708        50.531
E15  24630838.866 7 129436155.82607        43.625    24630841.888 7  96657014.28207        44.156    24630840.677 7  99178478.85307        43.906    24630841.232 7  97917748.10907        47.000
E21  26147886.081 6 137408102.87206        39.281    26147888.410 6 102609965.04006        40.688    26147887.456 6 105286739.92806        40.188    26147887.965 7 103948355.52707        43.438
E26  26203931.013 5 137702597.33805        35.750    26203934.284 6 102829876.78606        38.406    26203933.745 6 105512392.15406        39.031    26203933.878 6 104171134.01406        41.750
E27  27202903.997 5 142952251.82005        35.406    27202906.773 5 106750092.52805        35.219    27202905.593 5 109534871.50305        34.594    27202906.115 6 108142482.56006        37.969
G01  23734090.134 6 124723670.55606        36.375    23734089.777 2        14.688    23734092.172 2  97187331.14302        14.688    23734090.942 5  97187184.14705        31.719    23734089.879 6  93137987.59706        39.375
G03  21787975.094 7 114496658.85307        45.031    21787974.983 5        30.625    21787976.221 5  89218192.59405        30.625    21787976.087 6  89218178.61306        38.969    21787975.327 7  85500806.71607        46.281
G04  22280477.769 7 117084716.62007        42.438    22280477.488 4        25.000    22280476.821 4  91234854.10404        25.000    22280477.465 6  91234855.11606        36.875    22280480.400 7  87433412.08107        43.531
G06  21842276.867 7 114781998.00707        45.063    21842276.689 6        41.625    21842277.898 6  89440545.12206        41.625    21842278.763 6  89440510.13706        38.063    21842278.115 7  85713883.78907        45.438
G09  22513875.114 7 118311224.29007        42.281    22513874.547 4        25.656    22513875.231 4  92190581.97404        25.656    22513875.296 6  92190559.01306        36.375    22513875.130 7  88349305.16207        44.031
G14  23023390.596 6 120988762.46206        40.781    23023390.360 3        21.781    23023390.033 3  94276969.44703        21.781    23023389.092 6  94276970.46206        36.125    23023393.284 7  90348774.30707        42.188
G17  20208782.767 8 106197911.87108        49.094    20208782.267 8        51.281    20208780.531 8  82751629.48908        51.281    20208780.357 7  82751624.50607        43.125
G19  20417222.650 7 107293269.58407        47.938    20417221.385 6        36.688    20417218.605 6  83605150.45006        36.688
G22  24344344.707 6 127930470.93406        38.813    24344343.429 2        15.563    24344340.114 2  99686120.67702        15.563
G28  22322553.027 7 117305843.88607        42.625    22322552.164 3        22.688    22322550.855 3  91407151.25103        22.688
J01  36953093.180 7 194189904.15607        43.719    36953091.625 6 151316754.25306        37.250    36953093.897 7 145011864.95107        45.188
J02  37360325.192 5 196329865.05905        35.875    37360325.764 5 152984292.04905        32.375    37360326.909 6 146609955.59106        38.094
J03  38199729.161 7 200740968.52507        47.625    38199728.551 7 156421551.25807        43.750    38199729.988 8 149903940.54208        49.219
J07  37147247.729 6 195210105.50906        38.750    37147246.988 6 152111764.52706        39.719    37147247.942 7 145773809.96207        45.500
> 2021 03 19 12 00  3.0000000  0 23
E01  27530416.167 5 144673327.70705        35.875    27530417.938 6 108035284.08106        37.250    27530416.966 6 110853592.65806        37.344    27530417.465 6 109444437.91506        40.313
E03  25654574.125 7 134815742.94607        42.469    25654576.337 7 100674114.33007        42.094    25654575.784 7 103300386.47007        42.063    25654575.931 7 101987251.44307        45.031
E07  27001614.319 6 141894480.89006        36.938    27001616.392 6 105960194.90206        37.375    27001615.850 6 108724370.63706        37.594    27001616.112 6 107342287.81506        40.500
E08  22558563.453 7 118546077.08307        45.594    22558564.126 7  88524686.87007        45.406    22558563.129 7  90834019.66907        45.531    22558563.596 8  89679353.31108        48.469
E13  23625528.478 8 124153208.39408        48.188    23625529.542 7  92711923.66007        47.188    23625528.758 7  95130497.60707        47.906    23625529.134 8  93921223.17508        50.531
E15  24631082.286 7 129437435.05107        43.625    24631085.359 7  96657969.55207        44.094    24631084.060 7  99179459.03507        43.938    24631084.671 7  97918715.83507        47.000
E21  26148231.747 6 137409918.92706        39.531    26148234.000 6 102611321.18906        40.563    26148233.051 6 105288131.46106        40.281    26148233.558 7 103949729.36707        43.438
E26  26203602.024 5 137700868.29705        35.469    26203605.310 6 102828585.60706        38.563    26203604.736 6 105511067.28106        38.906    26203604.842 6 104169825.98706        41.813
E27  27203466.261 5 142955205.93205        35.594    27203468.867 5 106752298.52805        35.031    27203467.862 5 109537135.05905        34.500    27203468.278 6 108144717.33706        37.813
G01  23734606.757 6 124726386.24106        36.313    23734606.404 2        14.406    23734608.900 2  97189447.25802        14.406    23734607.816 5  97189300.27905        31.656    23734606.655 6  93140015.54306        39.125
G03  21788518.461 7 114499514.18107        45.188    21788518.345 5        30.469    21788519.555 5  89220417.52605        30.469    21788519.670 6  89220403.53406        38.750    21788518.636 7  85502938.93507        46.250
G04  22280298.981 7 117083776.81307        42.313    22280298.695 4        25.031    22280297.987 4  91234121.78804        25.031    22280298.613 6  91234122.78406        37.125    22280301.557 7  87432710.27007        43.469
G06  21841988.232 7 114780480.88807        45.031    21841988.049 6        41.531    21841989.201 6  89439362.95406        41.531    21841989.692 6  89439327.95006        38.125    21841989.397 7  85712750.86707        45.438
G09  22513380.142 7 118308623.79907        42.344    22513379.575 4        25.656    22513380.361 4  92188555.61504        25.656    22513380.681 6  92188532.64306        36.188    22513380.287 7  88347363.22407        44.031
G14  23024029.637 6 120992120.14806        40.844    23024029.405 3        21.750    23024028.974 3  94279585.82903        21.750    23024027.962 6  94279586.83206        36.219    23024032.135 7  90351281.67507        42.156
G17  20208723.546 8 106197600.76908        49.031    20208723.046 8        51.188    20208721.327 8  82751387.07308        51.188    20208721.233 7  82751382.09007        43.063
G19  20416918.322 7 107291670.11607        47.906    20416917.057 6        36.594    20416914.244 6  83603904.11306        36.594
G22  24344985.107 6 127933835.89806        38.813    24344983.829 2        15.750    24344980.450 2  99688742.72302        15.750
G28  22323080.402 7 117308615.04107        42.438    22323079.539 3        22.563    22323078.274 3  91409310.59003        22.563
J01  36953149.984 7 194190202.77107        43.719    36953148.758 6 151316986.96506        37.469    36953150.745 7 145012087.94707        45.188
J02  37360448.716 5 196330514.03305        35.906    37360449.557 5 152984797.73605        32.313    37360450.301 6 146610440.21906        38.125
J03  38199635.097 7 200740473.76207        47.625    38199634.531 7 156421165.72907        43.719    38199635.826 8 149903571.07008        49.156
J07  37147274.061 6 195210244.43206        39.031    37147273.384 6 152111872.77506        39.688    37147274.373 7 145773913.69307        45.563
> 2021 03 19 12 00  4.0000000  0 23
E01  27530350.740 5 144672983.98805        35.906    27530352.518 6 108035027.42006        37.219    27530351.588 6 110853329.28306        37.188    27530352.076 6 109444177.89606        40.250
E03  25654780.600 7 134816828.21407        42.531    25654782.806 7 100674924.76307        42.156    25654782.285 6 103301218.04206        41.938    25654782.457 7 101988072.44407        45.031
E07  27001059.747 6 141891566.98806        36.938    27001061.927 6 105958018.92706        37.438    27001061.273 6 108722137.91806        37.469    27001061.639 6 107340083.46906        40.500
E08  22558266.889 7 118544518.74107        45.625    22558267.540 7  88523523.17507        45.375    22558266.575 7  90832825.62007        45.469    22558267.047 8  89678174.44008        48.438
E13  23625436.431 8 124152724.85008        48.188    23625437.513 7  92711562.57607        47.188    23625436.704 7  95130127.10407        47.781    23625437.117 8  93920857.38208        50.500
E15  24631325.582 7 129438714.15407        43.625    24631328.750 7  96658924.72407        44.125    24631327.376 7  99180439.13507        43.906    24631328.084 7  97919683.46907        47.000
E21  26148577.429 6 137411735.13206        39.563    26148579.659 6 102612677.43006        40.688    26148578.613 6 105289523.08106        40.313    26148579.175 7 103951103.29807        43.500
E26  26203272.824 5 137699138.95605        35.438    26203276.225 6 102827294.23606        38.656    26203275.703 6 105509742.23106        39.000    26203275.753 6 104168517.77506        41.906
E27  27204028.384 5 142958159.82705        35.594    27204030.904 5 106754504.35105        35.344    27204029.982 5 109539398.40005        34.438    27204030.393 6 108146951.92006        37.969
G01  23735123.441 6 124729101.76106        36.344    23735123.093 2        14.500    23735125.618 2  97191563.25302        14.500    23735124.147 5  97191416.29805        31.844    23735123.461 6  93142043.35806        39.281
G03  21789061.894 7 114502369.57607        45.094    21789061.783 5        30.500    21789062.879 5  89222642.50705        30.500    21789062.763 6  89222628.50606        38.781    21789062.002 7  85505071.21607        46.125
G04  22280120.229 7 117082837.35507        42.281    22280119.943 4        24.969    22280119.243 4  91233389.74804        24.969    22280119.566 6  91233390.74306        36.875    22280122.854 7  87432008.72707        43.563
G06  21841699.495 7 114778963.67807        44.938    21841699.317 6        41.500    21841700.486 6  89438180.71106        41.500    21841701.172 6  89438145.72306        38.063    21841700.683 7  85711617.88507        45.406
G09  22512885.382 7 118306023.37307        42.250    22512884.815 4        25.625    22512885.536 4  92186529.31004        25.625    22512885.594 6  92186506.33506        36.188    22512885.475 7  88345421.35207        44.000
G14  23024668.588 6 120995477.76506        40.875    23024668.356 3        21.781    23024667.866 3  94282202.15003        21.781    23024667.460 6  94282203.16606        36.031    23024671.063 7  90353788.98907        42.031
G17  20208664.377 8 106197289.92608        48.938    20208663.877 8        51.156    20208662.171 8  82751144.85508        51.156    20208662.073 7  82751139.86907        43.219
G19  20416614.047 7 107290070.88607        47.813    20416612.782 6        36.563    20416609.928 6  83602657.95906        36.563
G22  24345625.364 6 127937200.67506        38.844    24345624.095 2        15.938    24345620.769 2  99691364.63402        15.938
G28  22323607.871 7 117311386.25107        42.531    22323607.008 3        22.719    22323605.559 3  91411469.97303        22.719
J01  36953206.897 7 194190501.25307        43.688    36953205.768 6 151317219.54006        37.594    36953207.520 7 145012310.84407        45.250
J02  37360572.293 5 196331162.82305        35.906    37360572.858 5 152985303.29305        32.375    37360573.826 6 146610924.71006        38.219
J03  38199540.921 7 200739978.74707        47.656    38199540.300 7 156420780.01207        43.688    38199541.632 8 149903201.41708        49.188
J07  37147300.649 6 195210383.08506        39.094    37147299.649 6 152111980.84606        39.813    37147300.761 7 145774017.26607        45.531
> 2021 03 19 12 00  5.0000000  0 23
E01  27530285.458 5 144672641.05605        35.594    27530287.174 6 108034771.36706        37.250    27530286.341 6 110853066.51706        37.219    27530286.817 6 109443918.48606        40.281
E03  25654987.287 7 134817914.29907        42.500    25654989.483 7 100675735.79707        42.219    25654989.005 6 103302050.23506        41.938    25654989.140 7 101988894.05907        45.063
E07  27000505.104 6 141888653.46606        37.188    27000507.583 6 105955843.27406        37.406    27000506.775 6 108719905.48506        37.281    27000507.221 6 107337879.42606        40.375
E08  22557970.584 7 118542961.15607        45.688    22557971.085 7  88522360.03607        45.375    22557970.152 7  90831632.14607        45.438    22557970.641 8  89676996.13208        48.406
E13  23625344.509 8 124152241.76408        48.188    23625345.573 7  92711201.82707        47.219    23625344.814 7  95129756.94307        47.813    23625345.180 8  93920491.92708        50.500
E15  24631569.058 7 129439993.72707        43.906    24631572.278 7  96659880.24707        44.156    24631570.935 7  99181419.58307        43.969    24631571.573 7  97920651.45707        47.031
E21  26148923.211 6 137413552.00206        39.500    26148925.349 6 102614034.19606        40.594    26148924.434 6 105290915.23606        40.344    26148924.898 7 103952477.76007        43.438
E26  26202943.710 5 137697409.98605        35.688    26202947.233 6 102826003.13806        38.594    26202946.641 6 105508417.43306        38.938    26202946.753 6 104167209.82806        41.781
E27  27204590.596 5 142961114.03405        35.719    27204593.183 5 106756710.41505        35.344    27204592.163 5 109541662.02205        34.719    27204592.543 6 108149186.76106        38.094
G01  23735640.210 6 124731817.67706        36.094    23735639.866 2        14.844    23735642.439 2  97193679.55902        14.844    23735641.049 5  97193532.58805        31.875    23735640.303 6  93144071.48006        39.219
G03  21789605.451 7 114505225.62607        45.063    21789605.340 5        30.469    21789606.356 5  89224868.00105        30.469    21789606.033 6  89224854.00206        38.531    21789605.462 7  85507203.97807        46.219
G04  22279941.633 7 117081898.81907        42.219    22279941.347 4        25.031    22279940.678 4  91232658.42004        25.031    22279940.967 6  91232659.42406        37.313    22279944.217 7  87431307.87507        43.531
G06  21841410.793 7 114777446.97307        44.875    21841410.610 6        41.500    21841411.865 6  89436998.86506        41.500    21841412.521 6  89436963.87406        38.063    21841412.076 7  85710485.28207        45.375
G09  22512390.818 7 118303423.63807        42.375    22512390.251 4        25.594    22512390.827 4  92184503.54404        25.594    22512390.706 6  92184480.55106        36.156    22512390.782 7  88343479.98907        43.969
G14  23025307.620 6 120998835.90206        40.906    23025307.388 3        21.656    23025306.870 3  94284818.87703        21.656    23025306.502 6  94284819.88706        36.125    23025310.087 7  90356296.68707        42.063
G17  20208605.383 8 106196979.92308        48.938    20208604.883 8        51.125    20208603.173 8  82750903.29508        51.125    20208603.161 7  82750898.30307        43.156
G19  20416309.814 7 107288472.48707        47.781    20416308.549 6        36.563    20416305.759 6  83601412.45306        36.563
G22  24346265.588 6 127940565.83906        38.656    24346264.323 2        15.781    24346261.150 2  99693986.83702        15.781
G28  22324135.404 7 117314158.13207        42.344    22324134.537 3        22.719    22324132.964 3  91413629.87003        22.719
J01  36953263.790 7 194190800.19707        43.719    36953262.389 6 151317452.46906        37.438    36953264.373 7 145012534.07507        45.250
J02  37360696.141 5 196331811.97905        35.969    37360696.182 5 152985809.14205        32.719    37360697.368 6 146611409.45106        38.219
J03  38199446.741 7 200739484.06607        47.719    38199446.233 7 156420394.54407        43.750    38199447.478 8 149902832.00908        49.219
J07  37147327.303 6 195210522.15706        38.781    37147326.011 6 152112089.19906        39.750    37147327.213 7 145774121.11407        45.563
> 2021 03 19 12 00  6.0000000  0 23
E01  27530220.453 5 144672299.11605        35.781    27530222.154 6 108034515.98606        37.188    27530221.350 6 110852804.51706        37.406    27530221.728 6 109443659.79506        40.313
E03  25655194.095 7 134819001.30907        42.563    25655196.338 7 100676547.51407        42.031    25655195.870 6 103302883.12506        41.906    25655195.988 7 101989716.36207        44.906
E07  26999950.652 6 141885740.45706        36.969    26999953.288 6 105953667.95906        37.438    26999952.454 6 108717673.43406        37.344    26999952.869 6 107335675.74206        40.406
E08  22557674.394 7 118541404.42607        45.719    22557674.872 7  88521197.55007        45.375    22557673.939 7  90830439.32207        45.438    22557674.400 8  89675818.47808        48.438
E13  23625252.720 8 124151759.23508        48.188    23625253.744 7  92710841.49807        47.156    23625252.955 7  95129387.20707        47.844    23625253.360 8  93920126.89308        50.500
E15  24631812.642 7 129441273.88607        43.844    24631815.851 7  96660836.20707        44.188    24631814.601 7  99182400.47207        44.000    24631815.169 7  97921619.88107        47.031
E21  26149269.101 6 137415369.70506        39.281    26149271.288 6 102615391.56106        40.688    26149270.392 6 105292308.02006        40.344    26149270.792 7 103953852.83107        43.531
E26  26202614.723 5 137695681.49505        35.531    26202618.310 6 102824712.35106        38.594    26202617.642 6 105507092.99806        39.094    26202617.812 6 104165902.21706        41.875
E27  27205152.858 5 142964068.66805        35.469    27205155.329 5 106758916.80105        35.156    27205154.517 5 109543925.96305        34.719    27205154.787 6 108151421.92606        37.969
G01  23736156.855 5 124734534.08205        35.875    23736156.525 2        14.781    23736159.399 2  97195796.25102        14.781    23736157.839 5  97195649.24605        31.844    23736157.184 6  93146099.97206        39.344
G03  21790149.206 7 114508082.45607        45.000    21790149.095 5        30.469    21790149.998 5  89227094.10305        30.469    21790149.209 6  89227080.11906        38.500    21790149.136 7  85509337.32207        46.281
G04  22279763.090 7 117080961.33407        42.219    22279762.804 4        25.031    22279762.309 4  91231927.91104        25.031    22279762.548 6  91231928.90906        37.031    22279765.823 7  87430607.80807        43.594
G06  21841122.345 7 114775930.88707        44.719    21841122.167 6        41.531    21841123.370 6  89435817.49906        41.531    21841124.171 6  89435782.50406        37.906    21841123.577 7  85709353.14207        45.438
G09  22511896.106 7 118300824.67607        42.094    22511895.534 4        25.719    22511896.279 4  92182478.37604        25.719    22511896.249 5  92182455.40905        35.875    22511896.233 7  88341539.20707        44.031
G14  23025946.637 6 121002194.65806        40.750    23025946.401 3        21.781    23025945.990 3  94287436.09703        21.781    23025945.452 5  94287437.11405        35.688    23025949.239 7  90358804.85907        42.031
G17  20208546.588 8 106196670.88108        48.875    20208546.088 8        51.188    20208544.358 8  82750662.48508        51.188    20208544.295 7  82750657.49707        43.156
G19  20416005.839 7 107286875.01307        47.656    20416004.574 6        36.594    20416001.774 6  83600167.66906        36.594
G22  24346905.859 6 127943931.50406        38.688    24346904.594 2        16.031    24346901.616 2  99696609.41602        16.031
G28  22324662.932 7 117316930.77507        42.375    22324662.061 3        22.750    22324660.584 3  91415790.37503        22.750
J01  36953320.800 7 194191099.70007        43.719    36953319.513 6 151317685.87406        37.406    36953321.323 7 145012757.73307        45.281
J02  37360819.830 5 196332461.62405        35.938    37360820.187 5 152986315.37205        32.844    37360821.113 6 146611894.57006        38.156
J03  38199352.629 7 200738989.82407        47.688    38199352.039 7 156420009.42207        43.813    38199353.434 8 149902462.93608        49.281
J07  37147354.135 6 195210661.70606        38.844    37147352.638 6 152112197.92306        39.688    37147353.798 7 145774225.31607        45.625
> 2021 03 19 12 00  7.0000000  0 23
E01  27530155.471 5 144671957.94505        35.906    27530157.241 6 108034261.22206        37.500    27530156.490 6 110852543.11806        37.500    27530156.800 6 109443401.71206        40.500
E03  25655401.048 7 134820089.09307        42.375    25655403.405 7 100677359.84307        42.063    25655402.903 7 103303716.63107        42.000    25655402.993 7 101990539.27907        44.969
E07  26999396.427 6 141882827.80006        36.938    26999398.954 6 105951492.95006        37.156    26999398.222 6 108715441.67506        37.469    26999398.634 6 107333472.35706        40.344
E08  22557378.260 7 118539848.41707        45.781    22557378.745 7  88520035.59207        45.438    22557377.855 7  90829247.06207        45.500    22557378.307 8  89674641.36908        48.500
E13  23625161.018 8 124151277.12508        48.188    23625162.045 7  92710481.48407        47.156    23625161.214 7  95129017.80907        47.813    23625161.625 8  93919762.18808        50.531
E15  24632056.382 7 129442554.48007        43.781    24632059.551 7  96661792.50107        44.188    24632058.309 7  99183381.71607        43.969    24632058.850 7  97922588.65107        47.063
E21  26149615.136 6 137417188.06106        39.469    26149617.289 6 102616749.43706        40.500    26149616.404 6 105293701.30606        40.313    26149616.824 7 103955228.41407        43.438
E26  26202285.908 5 137693953.31105        35.719    26202289.421 6 102823421.82106        38.438    26202288.749 6 105505768.79506        39.094    26202288.964 6 104164594.85306        41.813
E27  27205715.022 5 142967023.61105        35.438    27205717.607 5 106761123.41405        35.313    27205716.773 5 109546190.12705        34.625    27205717.080 6 108153657.31506        38.031
G01  23736674.087 6 124737250.87406        36.125    23736673.757 2        15.094    23736676.372 2  97197913.22502        15.094    23736674.601 5  97197766.22305        31.813    23736674.116 6  93148128.74206        39.375
G03  21790692.935 7 114510939.91307        45.125    21790692.819 5        30.375    21790693.729 5  89229320.69505        30.375    21790693.010 6  89229306.71406        38.469    21790692.929 7  85511471.14507        46.219
G04  22279584.917 7 117080024.74807        42.219    22279584.636 4        25.094    22279584.110 4  91231198.10604        25.094    22279584.272 6  91231199.10506        37.063    22279587.595 7  87429908.40707        43.625
G06  21840833.876 7 114774415.27007        44.875    21840833.698 6        41.531    21840834.954 6  89434636.50006        41.531    21840835.632 6  89434601.50006        38.125    21840835.125 7  85708221.36107        45.563
G09  22511401.686 7 118298226.36707        42.156    22511401.114 4        25.750    22511401.793 4  92180453.71904        25.750    22511402.001 6  92180430.76406        36.000    22511401.845 7  88339598.92007        44.063
G14  23026585.623 6 121005553.94306        40.844    23026585.387 3        21.875    23026585.248 3  94290053.72503        21.875    23026584.652 6  94290054.73406        36.000    23026588.564 7  90361313.40107        42.125
G17  20208487.983 8 106196362.65308        48.938    20208487.483 8        51.156    20208485.699 8  82750422.30708        51.156    20208485.680 7  82750417.31807        43.094
G19  20415702.001 7 107285278.33307        47.781    20415700.736 6        36.594    20415697.941 6  83598923.50106        36.594
G22  24347546.463 6 127947297.53106        38.750    24347545.203 2        16.313    24347542.131 2  99699232.29202        16.313
G28  22325190.606 7 117319704.03307        42.438    22325189.735 3        22.625    22325188.236 3  91417951.35503        22.625
J01  36953377.815 7 194191399.63707        43.906    36953376.551 6 151317919.58206        37.594    36953378.428 7 145012981.72007        45.219
J02  37360943.743 6 196333111.60306        36.000    37360943.706 5 152986821.82305        32.563    37360944.812 6 146612379.97006        38.156
J03  38199258.539 7 200738495.90007        47.688    38199257.960 7 156419624.54007        43.906    38199259.437 8 149902094.09708        49.281
J07  37147380.735 6 195210801.58006        39.063    37147379.147 6 152112306.94806        39.781    37147380.469 7 145774329.77907        45.594
> 2021 03 19 12 00  8.0000000  0 23
E01  27530090.452 5 144671616.69305        35.719    27530092.371 6 108034006.38906        37.406    27530091.527 6 110852281.64206        37.063    27530091.872 6 109443143.55606        40.281
E03  25655607.954 7 134821176.75707        42.469    25655610.372 7 100678172.04407        42.063    25655609.850 7 103304550.03607        42.000    25655609.976 7 101991362.08307        45.000
E07  26998842.162 6 141879914.62106        36.906    26998844.532 6 105949317.50306        37.219    26998843.765 6 108713209.49806        37.344    26998844.274 6 107331268.54406        40.344
E08  22557082.078 7 118538292.23407        45.719    22557082.612 7  88518873.51007        45.375    22557081.720 7  90828054.65607        45.625    22557082.174 8  89673464.12508        48.500
E13  23625069.189 8 124150794.54308        48.188    23625070.173 7  92710121.11107        47.156    23625069.389 7  95128648.03207        47.844    23625069.800 8  93919397.11408        50.500
E15  24632300.031 7 129443834.62707        43.719    24632303.147 7  96662748.45807        44.250    24632301.892 7  99184362.60907        43.969    24632302.451 7  97923557.07507        47.094
E21  26149961.075 6 137419006.21006        39.438    26149963.410 6 102618107.15006        40.500    26149962.363 6 105295094.42706        40.250    26149962.811 7 103956603.83007        43.406
E26  26201957.002 5 137692224.52905        35.313    26201960.541 6 102822130.85106        38.594    26201959.793 6 105504444.14406        39.313    26201959.974 7 104163287.04107        42.031
E27  27206277.285 5 142969977.95805        35.500    27206279.966 5 106763329.58205        35.219    27206279.072 5 109548453.86405        34.781    27206279.306 6 108155892.26606        38.063
G01  23737190.807 6 124739967.14906        36.219    23737190.477 2        15.094    23737193.278 2  97200029.79402        15.094    23737191.525 5  97199882.82605        31.563    23737191.137 6  93150157.12706        39.156
G03  21791236.569 7 114513797.11107        45.188    21791236.458 5        30.469    21791237.412 5  89231547.08205        30.469    21791236.767 6  89231533.09006        38.250    21791236.652 7  85513604.76507        46.156
G04  22279406.699 7 117079088.17107        42.281    22279406.413 4        25.250    22279405.952 4  91230468.29904        25.250    22279406.137 6  91230469.29306        36.938    22279409.412 7  87429209.01207        43.563
G06  21840545.421 7 114772899.23107        44.781    21840545.238 6        41.625    21840546.450 6  89433455.17306        41.625    21840547.201 6  89433420.19206        38.031    21840546.615 7  85707089.25007        45.500
G09  22510907.220 7 118295627.82607        42.188    22510906.648 4        25.688    22510907.272 4  92178428.88004        25.688    22510907.274 6  92178405.89806        36.000    22510907.373 7  88337658.43807        44.000
G14  23027224.589 6 121008912.80406        40.969    23027224.353 3        21.875    23027224.409 3  94292671.01403        21.875    23027224.019 5  94292672.02105        35.813    23027227.743 7  90363821.64407        42.000
G17  20208429.286 8 106196054.34408        49.031    20208428.786 8        51.250    20208427.027 8  82750182.06508        51.250    20208426.912 7  82750177.07807        43.156
G19  20415398.062 7 107283681.55907        47.875    20415396.793 6        36.688    20415394.085 6  83597679.26206        36.688
G22  24348186.954 6 127950663.02606        38.969    24348185.694 2        16.313    24348182.610 2  99701854.74802        16.313
G28  22325718.182 7 117322477.04207        42.469    22325717.311 3        22.688    22325715.995 3  91420112.14503        22.688
J01  36953434.807 7 194191699.11207        43.844    36953433.705 6 151318152.92306        37.625    36953435.415 7 145013205.33807        45.313
J02  37361067.549 5 196333761.05905        35.906    37361067.546 5 152987327.90405        32.688    37361068.388 6 146612864.94506        38.094
J03  38199164.389 7 200738001.38107        47.781    38199163.824 7 156419239.20207        43.875    38199165.330 8 149901724.81508        49.313
J07  37147407.254 6 195210940.92706        38.875    37147405.526 6 152112415.51306        39.719    37147406.978 7 145774433.81707        45.594
> 2021 03 19 12 00  9.0000000  0 23
E01  27530025.505 5 144671275.70605        35.875    27530027.460 6 108033751.76906        37.250    27530026.540 6 110852020.34206        37.469    27530026.985 6 109442885.59806        40.375
E03  25655815.043 7 134822264.70607        42.531    25655817.373 7 100678984.48607        42.125    25655816.922 7 103305383.66707        42.000    25655816.998 7 101992185.12107        45.031
E07  26998287.874 6 141877001.30106        37.250    26998290.153 6 105947141.97806        37.313    26998289.417 6 108710977.20906        37.563    26998289.891 6 107329064.63906        40.469
E08  22556786.001 7 118536736.25807        45.813    22556786.521 7  88517711.58607        45.406    22556785.665 7  90826862.41807        45.625    22556786.085 8  89672287.04308        48.531
E13  23624977.304 8 124150311.87908        48.313    23624978.324 7  92709760.67807        47.156    23624977.540 7  95128278.19307        47.875    23624977.948 8  93919031.97808        50.500
E15  24632543.617 7 129445114.71307        43.781    24632546.749 7  96663704.36007        44.125    24632545.458 7  99185343.45407        44.031    24632546.038 7  97924525.44907        47.031
E21  26150306.990 6 137420824.50606        39.438    26150309.414 6 102619464.96306        40.656    26150308.349 6 105296487.68106        40.375    26150308.821 7 103957979.36407        43.563
E26  26201627.965 5 137690495.56905        35.906    26201631.536 6 102820839.75206        38.563    26201630.770 6 105503119.36106        39.344    26201630.979 7 104161979.10007        42.000
E27  27206839.448 5 142972932.06905        35.781    27206842.057 5 106765535.58205        35.375    27206841.274 5 109550717.41205        34.875    27206841.424 6 108158127.04106        38.156
G01  23737707.841 6 124742683.30806        36.125    23737707.502 2        15.281    23737710.149 2  97202146.27702        15.281    23737708.297 5  97201999.29405        31.656    23737707.956 6  93152185.41806        39.188
G03  21791780.372 7 114516654.43307        45.188    21791780.256 5        30.500    21791781.134 5  89233773.56205        30.500    21791780.742 6  89233759.57606        38.250    21791780.422 7  85515738.47607        46.250
G04  22279228.508 7 117078151.99107        42.281    22279228.227 4        25.344    22279227.838 4  91229738.80804        25.344    22279228.504 6  91229739.80206        37.031    22279231.283 7  87428509.92907        43.531
G06  21840256.928 7 114771383.17207        44.875    21840256.745 6        41.625    21840257.950 6  89432273.82706        41.625    21840258.398 6  89432238.84206        38.031    21840258.145 7  85705957.12707        45.500
G09  22510412.764 7 118293029.43807        42.156    22510412.192 4        25.719    22510412.822 4  92176404.17004        25.719    22510413.041 6  92176381.17606        36.281    22510412.944 7  88335718.08107        44.094
G14  23027863.522 6 121012271.65906        40.906    23027863.286 3        21.750    23027863.547 3  94295288.30203        21.750    23027863.173 5  94295289.30605        35.906    23027866.913 6  90366329.88606        41.906
G17  20208370.740 8 106195746.35608        49.125    20208370.240 8        51.250    20208368.413 8  82749942.07608        51.250    20208368.065 7  82749937.08207        43.156
G19  20415094.190 7 107282085.07507        47.875    20415092.925 6        36.719    20415090.292 6  83596435.24906        36.719
G22  24348827.362 6 127954028.39106        38.938    24348826.106 2        16.281    24348823.045 2  99704477.11902        16.281
G28  22326245.734 7 117325250.16907        42.500    22326244.863 3        22.719    22326243.668 3  91422273.01803        22.719
J01  36953491.739 7 194191998.50907        44.063    36953490.532 6 151318386.22306        37.719    36953492.391 7 145013428.92207        45.406
J02  37361191.275 6 196334410.33706        36.031    37361190.805 5 152987833.82805        33.000    37361191.994 6 146613349.80906        38.031
J03  38199070.248 7 200737506.66707        47.844    38199069.621 7 156418853.71407        43.875    38199071.203 8 149901355.38308        49.313
J07  37147433.889 6 195211080.09306        39.031    37147432.170 6 152112523.96106        39.875    37147433.442 7 145774537.74407        45.688
> 2021 03 19 12 00 10.0000000  0 23
E01  27529960.572 5 144670935.28905        35.781    27529962.671 6 108033497.56306        37.250    27529961.762 6 110851759.51206        37.188    27529962.182 6 109442628.08106        40.250
E03  25656022.140 7 134823353.18707        42.594    25656024.565 7 100679797.30807        42.188    25656024.042 6 103306217.68906        41.938    25656024.133 7 101993008.54107        45.031
E07  26997733.423 6 141874088.08406        37.031    26997735.816 6 105944966.51506        37.313    26997734.939 6 108708745.01706        37.250    26997735.526 6 107326860.80906        40.313
E08  22556489.974 7 118535180.76807        45.813    22556490.497 7  88516550.00707        45.375    22556489.665 7  90825670.54607        45.500    22556490.077 8  89671110.31808        48.438
E13  23624885.487 8 124149829.38608        48.219    23624886.501 7  92709400.37607        47.156    23624885.743 7  95127908.49607        47.813    23624886.133 8  93918666.97808        50.500
E15  24632787.253 7 129446394.99007        43.563    24632790.343 7  96664660.41207        44.188    24632789.069 7  99186324.45107        43.906    24632789.656 7  97925493.97207        47.000
E21  26150652.965 6 137422643.24906        39.438    26150655.528 6 102620823.11006        40.688    26150654.412 6 105297881.25906        40.281    26150654.924 7 103959355.22707        43.500
E26  26201298.895 6 137688766.67506        36.000    26201302.367 6 102819548.68306        38.469    26201301.825 6 105501794.62906        39.250    26201301.965 6 104160671.19806        41.906
E27  27207401.781 5 142975886.27205        35.594    27207404.261 5 106767741.63905        35.219    27207403.374 5 109552981.00705        34.969    27207403.588 6 108160361.86706        38.156
G01  23738225.007 6 124745399.53806        36.000    23738224.672 2        14.938    23738226.965 2  97204262.81202        14.938    23738225.665 5  97204115.84505        31.375    23738224.837 6  93154213.79306        39.156
G03  21792324.183 7 114519512.14407        45.156    21792324.072 5        30.500    21792324.892 5  89236000.35405        30.500    21792324.597 6  89235986.37506        38.281    21792324.253 7  85517872.47807        46.313
G04  22279050.529 7 117077216.47407        42.406    22279050.243 4        25.250    22279049.832 4  91229009.83304        25.250    22279050.163 6  91229010.83106        37.438    22279053.266 7  87427811.31107        43.688
G06  21839968.460 7 114769867.33607        44.875    21839968.277 6        41.656    21839969.494 6  89431092.65706        41.656    21839969.990 6  89431057.67506        37.938    21839969.709 7  85704825.17107        45.563
G09  22509918.340 7 118290431.42407        42.219    22509917.768 4        25.625    22509918.444 4  92174379.74304        25.625    22509918.795 6  92174356.76506        36.406    22509918.633 7  88333778.01607        44.094
G14  23028502.775 6 121015630.76406        40.813    23028502.539 3        21.625    23028502.761 3  94297905.79003        21.625    23028502.097 5  94297906.78805        35.750    23028506.168 7  90368838.30007        42.063
G17  20208312.313 8 106195438.94208        49.094    20208311.813 8        51.281    20208309.910 8  82749702.53208        51.281    20208309.597 7  82749697.54407        43.063
G19  20414790.435 7 107280489.14207        47.844    20414789.170 6        36.750    20414786.602 6  83595191.66606        36.750
G22  24349467.817 6 127957393.86506        38.875    24349466.557 2        16.094    24349463.493 2  99707099.55602        16.094
G28  22326773.495 7 117328023.67207        42.344    22326772.624 3        22.875    22326771.365 3  91424434.19303        22.875
J01  36953548.878 7 194192298.09007        44.000    36953547.399 6 151318619.65506        37.750    36953549.380 7 145013652.62907        45.375
J02  37361314.649 6 196335059.72106        36.000    37361313.896 5 152988339.85005        32.781    37361315.519 6 146613834.72006        38.156
J03  38198976.177 7 200737012.01507        47.813    38198975.424 7 156418468.26607        43.719    38198977.077 8 149900986.00008        49.344
J07  37147460.355 6 195211219.33506        38.875    37147458.576 6 152112632.46606        39.844    37147459.964 7 145774641.72707        45.688
> 2021 03 19 12 00 11.0000000  0 23
E01  27529895.774 6 144670595.30506        36.000    27529898.028 6 108033243.67506        37.313    27529896.893 6 110851499.00706        37.094    27529897.469 6 109442370.88406        40.250
E03  25656229.439 7 134824442.08607        42.531    25656231.812 7 100680610.44607        42.063    25656231.238 6 103307052.04306        41.906    25656231.357 7 101993832.28707        44.938
E07  26997178.960 6 141871174.87906        37.125    26997181.405 6 105942791.05306        37.313    26997180.570 6 108706512.79206        37.219    26997181.179 6 107324656.96506        40.313
E08  22556194.091 7 118533625.62607        45.719    22556194.582 7  88515388.70207        45.406    22556193.711 7  90824478.95007        45.375    22556194.150 8  89669933.86708        48.406
E13  23624793.682 8 124149346.95108        48.125    23624794.687 7  92709040.11407        47.094    23624793.929 7  95127538.83407        47.750    23624794.330 8  93918302.01708        50.438
E15  24633030.971 7 129447675.35407        43.625    24633033.982 7  96665616.52607        44.094    24633032.658 7  99187305.50807        43.781    24633033.302 7  97926462.55707        46.906
E21  26150999.033 6 137424462.30906        39.344    26151001.765 6 102622181.49106        40.563    26151000.553 6 105299275.07606        40.094    26151001.095 7 103960731.32607        43.313
E26  26200970.004 5 137687037.73305        35.906    26200973.313 6 102818257.60806        38.531    26200972.672 6 105500469.86006        39.156    26200972.970 6 104159363.27606        41.875
E27  27207963.819 5 142978840.37905        35.719    27207966.318 5 106769947.61605        35.344    27207965.653 5 109555244.55405        35.125    27207965.751 6 108162596.62906        38.250
G01  23738741.868 6 124748115.81706        36.281    23738741.529 2        14.688    23738743.845 2  97206379.40002        14.688    23738742.796 5  97206232.43805        31.875    23738741.738 6  93156242.17306        39.281
G03  21792868.134 7 114522370.12507        45.094    21792868.023 5        30.469    21792868.718 5  89238227.35305        30.469    21792868.576 6  89238213.35506        38.313    21792868.121 7  85520006.68407        46.281
G04  22278872.600 7 117076281.48407        42.313    22278872.319 4        25.156    22278871.955 4  91228281.27304        25.156    22278872.135 6  91228282.26606        37.438    22278875.418 7  87427113.12907        43.625
G06  21839680.088 7 114768351.61407        44.625    21839679.905 6        41.625    21839681.061 6  89429911.57606        41.625    21839681.454 6  89429876.57406        37.906    21839681.300 7  85703693.29907        45.469
G09  22509424.054 7 118287833.70507        42.125    22509423.478 4        25.781    22509424.120 4  92172355.54304        25.781    22509424.707 6  92172332.57406        36.469    22509424.332 7  88331838.15907        44.188
G14  23029142.219 6 121018989.99706        40.656    23029141.983 3        21.625    23029141.979 3  94300523.37503        21.625    23029141.594 5  94300524.37305        35.750    23029145.430 7  90371346.82007        42.094
G17  20208253.900 8 106195131.98808        49.094    20208253.400 8        51.281    20208251.493 8  82749463.34608        51.281    20208251.225 7  82749458.35907        42.875
G19  20414486.879 7 107278893.64007        47.688    20414485.614 6        36.719    20414482.978 6  83593948.41806        36.719
G22  24350108.475 6 127960759.37206        38.938    24350107.215 2        15.656    24350103.941 2  99709722.03302        15.656
G28  22327301.159 7 117330797.43207        42.375    22327300.288 3        22.969    22327299.195 3  91426595.56203        22.969
J01  36953605.886 7 194192597.71807        44.031    36953604.379 6 151318853.13606        37.688    36953606.410 7 145013876.38407        45.250
J02  37361438.312 5 196335709.11105        35.938    37361437.431 5 152988845.87305        32.438    37361439.064 6 146614319.65906        37.906
J03  38198882.044 7 200736517.29707        47.844    38198881.372 7 156418082.77207        43.781    38198882.930 8 149900616.57408        49.313
J07  37147486.659 6 195211358.56006        39.125    37147485.144 6 152112740.95506        39.781    37147486.430 7 145774745.70007        45.563
> 2021 03 19 12 00 12.0000000  0 23
E01  27529831.194 6 144670255.76706        36.000    27529833.452 6 108032990.12006        37.531    27529832.264 6 110851238.84106        37.344    27529832.876 6 109442114.02506        40.469
E03  25656436.712 7 134825531.40507        42.594    25656439.180 7 100681423.90207        42.031    25656438.455 6 103307886.72206        41.875    25656438.643 7 101994656.35607        44.938
E07  26996624.543 6 141868261.66506        37.281    26996627.128 6 105940615.61306        37.156    26996626.282 6 108704280.59406        37.438    26996626.809 6 107322453.14806        40.313
E08  22555898.169 7 118532070.85007        45.719    22555898.734 7  88514227.66907        45.438    22555897.802 7  90823287.63007        45.438    22555898.285 8  89668757.69108        48.438
E13  23624701.909 8 124148864.57108        48.125    23624702.874 7  92708679.89807        47.125    23624702.137 7  95127169.22507        47.844    23624702.537 8  93917937.10308        50.469
E15  24633274.603 7 129448955.80007        43.531    24633277.612 7  96666572.70107        44.125    24633276.342 7  99188286.61907        43.875    24633276.960 7  97927431.20207        46.969
E21  26151345.164 6 137426281.65206        39.531    26151348.047 6 102623540.09006        40.594    26151346.770 6 105300669.12006        40.313    26151347.310 7 103962107.64607        43.469
E26  26200641.040 5 137685308.73805        35.906    26200644.258 6 102816966.48206        38.531    26200643.729 6 105499145.04506        39.063    26200643.953 6 104158055.30606        41.844
E27  27208526.097 5 142981794.44405        35.750    27208528.508 5 106772153.58005        35.406    27208527.651 5 109557508.04505        34.875    27208527.848 6 108164831.35706        38.219
G01  23739258.849 6 124750832.07706        36.313    23739258.514 2        14.875    23739260.720 2  97208495.97202        14.875    23739259.350 5  97208348.96805        31.906    23739258.614 6  93158270.56706        39.000
G03  21793412.021 7 114525228.37707        45.156    21793411.910 5        30.438    21793412.574 5  89240454.56005        30.438    21793412.448 6  89240440.57306        38.375    21793412.022 7  85522141.10107        46.250
G04  22278694.839 7 117075347.04507        42.625    22278694.558 4        25.313    22278694.190 4  91227553.13404        25.313    22278694.492 6  91227554.13806        37.438    22278697.594 7  87426415.32307        43.500
G06  21839391.644 7 114766835.99107        44.656    21839391.466 6        41.625    21839392.650 6  89428730.57106        41.625    21839392.914 6  89428695.58306        37.969    21839392.898 7  85702561.51207        45.469
G09  22508929.715 7 118285236.29607        42.219    22508929.139 4        25.750    22508929.827 4  92170331.59004        25.750    22508930.313 6  92170308.61106        36.344    22508930.048 7  88329898.53907        44.063
G14  23029781.710 6 121022349.36806        40.750    23029781.469 3        21.594    23029781.291 3  94303141.06703        21.594    23029780.562 5  94303142.08605        35.813    23029784.750 7  90373855.44307        42.063
G17  20208195.596 8 106194825.49508        49.031    20208195.096 8        51.281    20208193.165 8  82749224.52108        51.281    20208192.945 7  82749219.53107        43.094
G19  20414183.362 7 107277298.58007        47.844    20414182.097 6        36.781    20414179.449 6  83592705.51406        36.781
G22  24350748.753 6 127964124.87306        39.031    24350747.493 2        16.094    24350744.394 2  99712344.50902        16.094
G28  22327829.044 7 117333571.46607        42.344    22327828.168 3        23.063    22327827.039 3  91428757.14603        23.063
J01  36953663.047 7 194192897.43807        44.031    36953661.589 6 151319086.69406        37.750    36953663.457 7 145014100.19507        45.344
J02  37361561.837 5 196336358.48005        35.906    37361561.199 5 152989351.89005        32.844    37361562.600 6 146614804.58006        37.781
J03  38198787.866 7 200736022.54107        47.844    38198787.266 7 156417697.24307        43.938    38198788.724 8 149900247.10708        49.281
J07  37147513.131 6 195211497.77406        39.125    37147511.635 6 152112849.44006        39.813    37147512.931 7 145774849.65607        45.625
> 2021 03 19 12 00 13.0000000  0 23
E01  27529766.541 5 144669916.60505        35.875    27529768.880 6 108032736.83706        37.344    27529767.923 6 110850978.96106        37.281    27529768.355 6 109441857.44206        40.344
E03  25656644.175 7 134826621.08707        42.531    25656646.549 7 100682237.62407        42.125    25656645.827 7 103308721.67407        42.063    25656645.997 7 101995480.69207        45.063
E07  26996070.343 6 141865348.38806        37.094    26996072.731 6 105938440.13206        37.313    26996071.868 6 108702048.34506        37.219    26996072.431 6 107320249.27906        40.281
E08  22555602.369 7 118530516.37707        45.563    22555602.940 7  88513066.86607        45.438    22555601.978 7  90822096.53207        45.594    22555602.474 8  89667581.74108        48.531
E13  23624610.083 8 124148382.20608        48.125    23624611.078 7  92708319.69107        47.188    23624610.328 7  95126799.61407        47.906    23624610.739 8  93917572.19508        50.531
E15  24633518.215 7 129450236.26307        43.563    24633521.288 7  96667528.89407        44.156    24633519.978 7  99189267.75207        43.813    24633520.624 7  97928399.86507        46.969
E21  26151691.455 6 137428101.26306        39.406    26151694.281 6 102624898.90006        40.688    26151692.887 6 105302063.35906        40.313    26151693.575 7 103963484.17207        43.500
E26  26200311.971 6 137683579.67206        36.000    26200315.353 6 102815675.28506        38.625    26200314.659 6 105497820.17006        39.531    26200314.917 7 104156747.26907        42.125
E27  27209088.012 5 142984748.39005        35.625    27209090.605 5 106774359.46005        35.531    27209089.640 5 109559771.46405        35.063    27209089.935 6 108167066.00406        38.344
G01  23739775.712 6 124753548.30906        36.500    23739775.391 2        14.469    23739777.594 2  97210612.52202        14.469    23739776.070 5  97210465.53805        31.969    23739775.509 6  93160298.91306        39.188
G03  21793955.896 7 114528086.84607        45.281    21793955.785 5        30.531    21793956.498 5  89242681.93905        30.531    21793956.448 6  89242667.94406        38.469    21793955.909 7  85524275.66207        46.281
G04  22278517.210 7 117074413.09507        42.875    22278516.929 4        25.406    22278516.519 4  91226825.38104        25.406    22278516.701 6  91226826.37606        37.531    22278519.871 7  87425717.89107        43.719
G06  21839103.321 7 114765320.45607        44.906    21839103.138 6        41.625    21839104.253 6  89427549.63506        41.625    21839104.686 6  89427514.65006        38.219    21839104.492 7  85701429.77707        45.563
G09  22508435.303 7 118282639.10807        42.563    22508434.727 4        25.750    22508435.587 4  92168307.80804        25.750    22508435.946 6  92168284.83806        36.750    22508435.903 7  88327959.08207        44.188
G14  23030420.891 6 121025708.81606        40.750    23030420.646 3        21.625    23030420.644 3  94305758.81503        21.625    23030419.917 5  94305759.81105        35.594    23030424.064 7  90376364.12107        42.094
G17  20208137.408 8 106194519.39708        49.219    20208136.908 8        51.281    20208134.913 8  82748986.00308        51.281    20208134.734 7  82748981.00907        43.063
G19  20413879.887 8 107275703.88808        48.156    20413878.622 6        36.781    20413875.978 6  83591462.89606        36.781
G22  24351389.266 6 127967490.31506        39.156    24351388.010 2        16.219    24351384.856 2  99714966.94002        16.219
G28  22328356.815 7 117336345.70407        42.500    22328355.944 3        23.188    22328355.003 3  91430918.88903        23.188
J01  36953720.049 7 194193197.15107        44.000    36953718.655 6 151319320.22806        37.625    36953720.493 7 145014324.01007        45.375
J02  37361685.153 6 196337007.76106        36.031    37361684.706 5 152989857.80105        32.531    37361686.123 6 146615289.44706        37.938
J03  38198693.645 7 200735527.67107        47.813    38198693.114 7 156417311.63307        44.000    38198694.567 8 149899877.56208        49.281
J07  37147539.439 6 195211636.90006        39.031    37147538.187 6 152112957.85806        39.875    37147539.400 7 145774953.55007        45.594
> 2021 03 19 12 00 14.0000000  0 23
E01  27529701.876 5 144669577.76905        35.875    27529704.403 6 108032483.83006        37.250    27529703.509 6 110850719.32706        37.438    27529703.874 6 109441601.12306        40.375
E03  25656851.528 7 134827711.09607        42.281    25656853.921 7 100683051.60307        42.063    25656853.154 7 103309556.87807        42.063    25656853.427 7 101996305.28407        45.000
E07  26995516.013 6 141862435.02706        37.125    26995518.305 6 105936264.56506        37.281    26995517.592 6 108699816.02406        37.313    26995518.021 6 107318045.34006        40.313
E08  22555306.578 7 118528962.15207        45.656    22555307.182 7  88511906.23907        45.406    22555306.199 7  90820905.63507        45.531    22555306.707 8  89666405.97908        48.469
E13  23624518.269 8 124147899.79308        48.031    23624519.284 7  92707959.44407        47.188    23624518.536 7  95126429.97407        47.875    23624518.936 8  93917207.25108        50.531
E15  24633761.832 7 129451516.70307        43.594    24633764.972 7  96668485.07507        44.063    24633763.608 7  99190248.87207        43.938    24633764.287 7  97929368.51607        46.969
E21  26152037.732 6 137429921.08806        39.156    26152040.563 6 102626257.85906        40.781    26152039.133 6 105303457.76806        40.344    26152039.857 7 103964860.85607        43.563
E26  26199982.778 6 137681850.43306        36.156    26199986.327 6 102814383.97606        38.656    26199985.580 6 105496495.17806        39.344    26199985.851 7 104155439.12007        42.063
E27  27209650.313 5 142987702.15705        35.625    27209652.639 5 106776565.17005        35.250    27209651.572 5 109562034.75805        34.844    27209652.000 6 108169300.50506        38.094
G01  23740292.390 6 124756264.46906        36.281    23740292.064 2        14.781    23740294.411 2  97212729.01102        14.781    23740292.700 5  97212582.01905        31.531    23740292.344 6  93162327.21306        39.219
G03  21794499.819 7 114530945.48707        45.219    21794499.708 5        30.563    21794500.453 5  89244909.45405        30.563    21794500.494 6  89244895.45906        38.813    21794499.910 7  85526410.36607        46.281
G04  22278339.603 7 117073479.58707        42.625    22278339.322 4        25.438    22278338.920 4  91226097.97404        25.438    22278339.052 6  91226098.96506        37.594    22278342.252 7  87425020.78607        43.688
G06  21838814.895 7 114763804.91507        44.844    21838814.712 6        41.594    21838815.851 6  89426368.69606        41.594    21838816.231 6  89426333.70306        38.125    21838816.073 7  85700298.03307        45.469
G09  22507941.127 7 118280042.11807        42.469    22507940.555 4        25.844    22507941.397 4  92166284.18104        25.844    22507941.872 6  92166261.19206        36.531    22507941.747 7  88326019.76507        44.156
G14  23031060.194 6 121029068.28506        40.656    23031059.944 3        21.719    23031059.947 3  94308376.58603        21.719    23031059.482 5  94308377.58905        35.875    23031063.350 7  90378872.81707        42.094
G17  20208079.256 8 106194213.65408        49.094    20208078.756 8        51.281    20208076.724 8  82748747.76108        51.281    20208076.619 7  82748742.76807        43.031
G19  20413576.471 8 107274109.54308        48.031    20413575.202 6        36.781    20413572.569 6  83590220.55006        36.781
G22  24352029.657 6 127970855.66706        39.125    24352028.405 2        16.250    24352025.290 2  99717589.30302        16.250
G28  22328884.824 7 117339120.10807        42.594    22328883.957 3        23.313    22328882.945 3  91433080.76003        23.313
J01  36953777.120 7 194193496.83607        44.063    36953775.645 6 151319553.76006        37.875    36953777.526 7 145014547.80007        45.344
J02  37361808.769 6 196337656.96606        36.000    37361808.771 5 152990363.67905        32.531    37361809.670 6 146615774.22106        37.938
J03  38198599.475 7 200735032.64307        47.875    38198598.942 7 156416925.89907        43.938    38198600.403 8 149899507.89808        49.344
J07  37147565.849 6 195211775.90006        39.188    37147564.640 6 152113066.16906        39.969    37147565.815 7 145775057.35007        45.625
> 2021 03 19 12 00 15.0000000  0 23
E01  27529637.488 5 144669239.63205        35.750    27529640.003 6 108032231.30906        37.219    27529639.298 6 110850460.23306        37.375    27529639.528 6 109441345.31606        40.313
E03  25657059.048 7 134828801.74107        42.281    25657061.438 6 100683866.04106        41.969    25657060.732 6 103310392.56406        41.969    25657060.972 7 101997130.34507        44.938
E07  26994961.655 6 141859521.89806        36.938    26994963.850 6 105934089.16806        37.125    26994963.251 6 108697583.88906        37.250    26994963.652 6 107315841.57006        40.250
E08  22555010.874 7 118527408.51907        45.531    22555011.550 7  88510746.06507        45.375    22555010.569 7  90819715.19207        45.531    22555011.070 8  89665230.67008        48.469
E13  23624426.537 8 124147417.66208        48.094    23624427.529 7  92707599.41507        47.125    23624426.813 7  95126060.55007        47.875    23624427.192 8  93916842.52508        50.531
E15  24634005.498 7 129452797.45707        43.750    24634008.640 7  96669441.47807        44.063    24634007.323 7  99191230.23207        43.844    24634008.004 7  97930337.39807        46.906
E21  26152384.241 6 137431741.44506        39.156    26152386.869 6 102627617.20806        40.594    26152385.536 6 105304852.59006        40.250    26152386.234 7 103966237.94007        43.438
E26  26199653.789 6 137680121.38106        36.250    26199657.280 6 102813092.79806        38.500    26199656.563 6 105495170.33006        39.313    26199656.829 6 104154131.10906        41.969
E27  27210212.334 5 142990656.08805        35.500    27210214.719 5 106778771.04905        35.375    27210213.646 5 109564298.15805        35.063    27210214.141 6 108171535.14606        38.281
G01  23740809.355 6 124758980.84706        36.656    23740809.025 2        14.656    23740811.259 2  97214845.66502        14.656    23740809.774 5  97214698.69105        31.531    23740809.304 6  93164355.66406        39.219
G03  21795043.799 7 114533804.60607        45.344    21795043.683 5        30.500    21795044.484 5  89247137.33705        30.500    21795044.500 6  89247123.34206        38.688    21795044.003 7  85528545.42307        46.281
G04  22278161.975 7 117072546.83407        42.531    22278161.698 4        25.469    22278161.468 4  91225371.15604        25.469    22278161.641 6  91225372.15606        37.500    22278164.761 7  87424324.26107        43.656
G06  21838526.458 7 114762289.71807        44.813    21838526.275 6        41.625    21838527.526 6  89425188.02406        41.625    21838528.088 6  89425153.03306        38.188    21838527.749 7  85699166.56207        45.406
G09  22507447.213 7 118277445.63007        42.375    22507446.641 4        25.688    22507447.314 4  92164260.94504        25.688    22507448.059 6  92164237.95906        36.594    22507447.669 7  88324080.83107        44.219
G14  23031699.494 6 121032428.12606        40.625    23031699.249 3        21.781    23031699.278 3  94310994.64403        21.781    23031698.623 5  94310995.63805        35.531    23031702.770 7  90381381.78107        42.000
G17  20208021.207 8 106193908.60308        49.188    20208020.707 8        51.344    20208018.669 8  82748510.05908        51.344    20208018.692 7  82748505.06507        42.906
G19  20413273.206 8 107272515.85708        48.000    20413271.941 6        36.875    20413269.295 6  83588978.71706        36.875
G22  24352670.066 6 127974221.24906        39.125    24352668.819 2        16.281    24352665.725 2  99720211.82402        16.281
G28  22329412.961 7 117341895.00607        42.656    22329412.098 3        23.219    22329410.972 3  91435243.02203        23.219
J01  36953834.226 7 194193796.80907        44.000    36953832.815 6 151319787.51006        38.094    36953834.617 7 145014771.80807        45.250
J02  37361932.089 6 196338306.36606        36.219    37361932.762 5 152990869.70405        32.844    37361933.169 6 146616259.16506        37.781
J03  38198505.283 7 200734537.78207        47.875    38198504.843 7 156416540.29007        43.844    38198506.229 8 149899138.36408        49.313
J07  37147592.154 6 195211915.15906        39.188    37147591.251 6 152113174.64906        39.875    37147592.293 7 145775161.32107        45.563
> 2021 03 19 12 00 16.0000000  0 23
E01  27529573.194 6 144668902.37806        36.000    27529575.888 6 108031979.46406        37.406    27529575.063 6 110850201.81806        37.563    27529575.369 6 109441090.18606        40.469
E03  25657266.808 7 134829893.30807        42.469    25657269.147 6 100684681.16206        41.875    25657268.390 7 103311228.95507        42.063    25657268.693 7 101997956.10207        44.969
E07  26994407.391 6 141856609.24606        37.250    26994409.658 6 105931914.13706        37.313    26994409.056 6 108695352.10706        37.125    26994409.385 6 107313638.16606        40.281
E08  22554715.280 7 118525855.72607        45.531    22554716.053 7  88509586.51007        45.313    22554715.088 7  90818525.39607        45.531    22554715.572 8  89664055.99508        48.469
E13  23624334.888 8 124146936.07908        48.063    23624335.888 7  92707239.78707        47.125    23624335.168 8  95125691.54108        48.000    23624335.551 8  93916478.20608        50.531
E15  24634249.359 7 129454078.77807        43.625    24634252.487 7  96670398.29907        44.219    24634251.135 7  99192212.01407        44.063    24634251.837 7  97931306.70007        47.094
E21  26152730.843 6 137433562.58106        39.375    26152733.337 6 102628977.14506        40.625    26152732.169 6 105306248.01206        40.438    26152732.789 7 103967615.62107        43.531
E26  26199325.154 5 137678392.78305        35.938    26199328.211 6 102811801.96006        38.594    26199327.703 6 105493845.79106        39.531    26199327.878 7 104152823.41907        42.063
E27  27210774.358 5 142993610.46605        35.625    27210777.110 5 106780977.22005        35.844    27210775.782 5 109566561.86705        35.281    27210776.336 6 108173770.08806        38.594
G01  23741326.196 6 124761697.70706        36.500    23741325.870 2        15.031    23741328.250 2  97216962.70502        15.031    23741326.500 5  97216815.73005        31.375    23741326.352 6  93166384.50306        39.156
G03  21795588.004 7 114536664.50307        45.281    21795587.888 5        30.531    21795588.685 5  89249365.82805        30.531    21795588.553 6  89249351.83806        38.719    21795588.225 7  85530681.06107        46.313
G04  22277984.566 7 117071615.11707        42.531    22277984.285 4        25.438    22277984.186 4  91224645.13804        25.438    22277983.969 6  91224646.15306        37.500    22277987.406 7  87423628.48507        43.594
G06  21838238.208 7 114760775.10407        44.813    21838238.025 6        41.688    21838239.307 6  89424007.80506        41.688    21838239.909 6  89423972.82606        38.156    21838239.467 7  85698035.52707        45.469
G09  22506953.355 7 118274849.92407        42.500    22506952.779 4        25.625    22506953.374 4  92162238.31804        25.625    22506954.128 6  92162215.32006        36.594    22506953.724 7  88322142.47607        44.188
G14  23032339.041 6 121035788.56006        40.875    23032338.791 3        21.906    23032338.782 3  94313613.16503        21.906    23032338.111 5  94313614.17305        35.594    23032342.252 7  90383891.20707        42.063
G17  20207963.321 8 106193604.48508        49.188    20207962.821 8        51.406    20207960.793 8  82748273.08208        51.406    20207960.766 7  82748268.08907        43.094
G19  20412970.035 8 107270923.08608        48.125    20412968.770 6        36.938    20412966.200 6  83587737.59606        36.938
G22  24353310.437 6 127977587.33006        39.313    24353309.199 2        16.688    24353306.289 2  99722834.74602        16.688
G28  22329941.207 7 117344670.65207        42.656    22329940.340 3        23.125    22329939.116 3  91437405.85903        23.125
J01  36953891.333 7 194194097.33607        44.094    36953889.797 6 151320021.67906        37.906    36953891.846 7 145014996.22907        45.313
J02  37362055.800 6 196338956.23506        36.156    37362056.124 5 152991376.08005        33.000    37362056.889 6 146616744.45706        37.781
J03  38198411.252 7 200734043.35307        47.875    38198410.808 7 156416155.02107        43.969    38198412.136 8 149898769.14208        49.281
J07  37147618.862 6 195212054.81406        39.031    37147617.653 6 152113283.47706        39.844    37147618.867 7 145775265.62507        45.656
> 2021 03 19 12 00 17.0000000  0 23
E01  27529509.287 5 144668565.76605        35.906    27529511.837 6 108031728.09806        37.406    27529511.014 6 110849943.89006        37.500    27529511.313 6 109440835.53806        40.469
E03  25657474.560 7 134830985.46507        42.281    25657476.913 6 100685496.73006        41.938    25657476.226 6 103312065.81406        41.938    25657476.516 7 101998782.31407        44.906
E07  26993853.111 6 141853696.77106        37.219    26993855.405 6 105929739.23306        37.500    26993854.818 6 108693120.49606        37.344    26993855.159 6 107311434.90506        40.406
E08  22554419.880 7 118524303.49107        45.594    22554420.684 7  88508427.37307        45.375    22554419.684 7  90817336.01507        45.563    22554420.190 8  89662881.73608        48.500
E13  23624243.287 8 124146454.74708        48.125    23624244.249 7  92706880.34507        47.156    23624243.590 7  95125322.72907        47.938    23624243.949 8  93916114.07908        50.531
E15  24634493.270 7 129455360.35907        43.781    24634496.318 7  96671355.32607        44.063    24634495.086 7  99193194.00707        44.000    24634495.715 7  97932276.20807        47.000
E21  26153077.418 6 137435384.23206        39.375    26153079.960 6 102630337.46506        40.563    26153078.800 6 105307643.81506        40.344    26153079.429 7 103968993.68107        43.469
E26  26198996.101 5 137676664.31305        35.781    26198999.294 6 102810511.22006        38.438    26198998.761 6 105492521.38006        39.438    26198998.959 6 104151515.84506        41.969
E27  27211336.450 5 142996564.95105        35.500    27211339.358 5 106783183.49505        35.500    27211338.186 5 109568825.71105        35.188    27211338.549 6 108176005.14606        38.406
G01  23741843.016 6 124764414.78506        36.344    23741842.695 2        14.688    23741845.291 2  97219079.89502        14.688    23741844.141 5  97218932.93305        31.563    23741843.333 6  93168413.49106        39.375
G03  21796132.332 7 114539524.85407        45.375    21796132.221 5        30.563    21796132.980 5  89251594.67105        30.563    21796133.104 6  89251580.67506        38.625    21796132.495 7  85532817.03607        46.281
G04  22277807.416 7 117070684.13607        42.375    22277807.139 4        25.531    22277807.038 4  91223919.69904        25.531    22277806.894 6  91223920.68906        37.719    22277810.271 7  87422933.27707        43.656
G06  21837950.031 7 114759260.81407        44.656    21837949.848 6        41.688    21837951.151 6  89422827.83806        41.688    21837951.587 6  89422792.85306        38.188    21837951.282 7  85696904.71907        45.469
G09  22506459.568 7 118272254.69907        42.500    22506458.992 4        25.531    22506459.523 4  92160216.05904        25.531    22506459.852 6  92160193.07606        36.406    22506459.867 7  88320204.48107        44.188
G14  23032978.650 6 121039149.33706        40.906    23032978.400 3        22.000    23032978.314 3  94316231.94503        22.000    23032977.694 5  94316232.96305        35.594    23032981.789 7  90386400.87307        42.063
G17  20207905.594 8 106193301.01808        49.250    20207905.094 8        51.344    20207903.042 8  82748036.61208        51.344    20207903.079 7  82748031.62307        43.031
G19  20412667.040 8 107269330.94008        48.094    20412665.775 6        36.906    20412663.229 6  83586496.96206        36.906
G22  24353950.995 6 127980953.59806        39.406    24353949.757 2        16.406    24353946.894 2  99725457.81302        16.406
G28  22330469.497 7 117347446.75207        42.781    22330468.630 3        23.313    22330467.295 3  91439569.05403        23.313
J01  36953948.531 7 194194398.12607        44.063    36953946.852 6 151320256.05906        37.906    36953949.112 7 145015220.84107        45.344
J02  37362179.414 6 196339606.28206        36.156    37362179.363 5 152991882.62405        32.844    37362180.531 6 146617229.88806        37.813
J03  38198317.221 7 200733549.05707        47.844    38198316.739 7 156415769.86507        43.875    38198318.068 8 149898400.02708        49.313
J07  37147645.459 6 195212194.65706        39.000    37147644.397 6 152113392.45306        39.719    37147645.487 7 145775370.05507        45.625
> 2021 03 19 12 00 18.0000000  0 23
E01  27529445.275 6 144668229.22406        36.063    27529447.809 6 108031476.77906        37.531    27529446.966 6 110849686.04206        37.438    27529447.252 6 109440580.95506        40.500
E03  25657682.413 7 134832077.71107        42.438    25657684.744 7 100686312.36507        42.094    25657684.086 7 103312902.70707        42.031    25657684.370 7 101999608.57907        45.031
E07  26993298.792 6 141850783.96006        37.313    26993301.109 6 105927564.08306        37.281    26993300.575 6 108690888.59406        37.500    26993300.888 6 107309231.38106        40.438
E08  22554124.545 7 118522751.26207        45.500    22554125.264 7  88507268.23907        45.438    22554124.328 7  90816146.64507        45.656    22554124.799 8  89661707.48308        48.563
E13  23624151.615 8 124145973.10508        48.281    23624152.587 7  92706520.68807        47.094    23624151.949 7  95124953.68107        47.969    23624152.304 8  93915749.72708        50.500
E15  24634737.141 7 129456641.67507        43.938    24634740.114 7  96672312.14807        44.219    24634738.987 7  99194175.79507        44.063    24634739.534 7  97933245.51507        47.094
E21  26153424.132 6 137437205.84506        39.406    26153426.632 6 102631697.76506        40.625    26153425.386 6 105309039.59306        40.500    26153426.078 7 103970371.72007        43.594
E26  26198667.107 6 137674935.43506        36.156    26198670.322 6 102809220.17506        38.469    26198669.851 6 105491196.67306        39.500    26198669.946 7 104150207.96807        42.063
E27  27211898.746 5 142999519.01605        35.656    27211901.515 5 106785389.44705        35.531    27211900.473 5 109571089.20905        35.156    27211900.672 6 108178239.87106        38.375
G01  23742360.077 6 124767131.52806        36.250    23742359.751 2        14.688    23742362.273 2  97221196.85302        14.688    23742361.403 5  97221049.85105        31.781    23742360.332 6  93170442.22406        39.219
G03  21796676.568 7 114542385.11307        45.344    21796676.452 5        30.531    21796677.257 5  89253823.44405        30.531    21796677.405 6  89253809.44806        38.875    21796676.790 7  85534952.94107        46.375
G04  22277630.274 7 117069753.33607        42.406    22277630.002 4        25.531    22277629.962 4  91223194.40204        25.531    22277629.458 6  91223195.39106        37.719    22277633.129 7  87422238.19307        43.594
G06  21837661.887 7 114757746.27807        44.750    21837661.704 6        41.594    21837662.942 6  89421647.67906        41.594    21837663.553 6  89421612.68906        38.156    21837663.069 7  85695773.73807        45.531
G09  22505965.744 7 118269659.40307        42.531    22505965.168 4        25.625    22505965.655 4  92158193.75404        25.625    22505965.887 6  92158170.77706        36.313    22505966.023 7  88318266.43507        44.250
G14  23033618.195 6 121042509.89406        40.938    23033617.950 3        21.719    23033617.742 3  94318850.56303        21.719    23033617.368 5  94318851.57505        35.875    23033621.220 7  90388910.37707        42.125
G17  20207847.855 8 106192997.65808        49.281    20207847.355 8        51.344    20207845.304 8  82747800.22808        51.344    20207845.383 7  82747795.23607        43.063
G19  20412364.166 8 107267738.87808        48.094    20412362.901 6        36.875    20412360.268 6  83585256.39506        36.875
G22  24354591.587 6 127984319.52806        39.281    24354590.353 2        15.875    24354587.391 2  99728080.63102        15.875
G28  22330997.934 7 117350222.75907        42.750    22330997.071 3        23.156    22330995.505 3  91441732.17103        23.156
J01  36954005.756 7 194194698.62107        44.094    36954004.084 6 151320490.19106        37.563    36954006.263 7 145015445.23507        45.250
J02  37362303.165 5 196340255.96105        35.844    37362302.996 5 152992388.85205        33.125    37362304.192 6 146617715.04206        38.063
J03  38198223.055 7 200733054.35707        47.781    38198222.588 7 156415384.37307        43.875    38198223.907 8 149898030.60408        49.250
J07  37147672.104 6 195212334.11706        39.063    37147671.251 6 152113501.13706        39.844    37147672.010 7 145775474.20207        45.688
> 2021 03 19 12 00 19.0000000  0 23
E01  27529381.416 6 144667893.16306        36.156    27529383.883 6 108031225.83706        37.656    27529383.062 6 110849428.52006        37.281    27529383.304 6 109440326.72306        40.469
E03  25657890.349 7 134833170.38307        42.531    25657892.586 7 100687128.32907        42.000    25657892.019 6 103313739.96006        41.938    25657892.301 7 102000435.18707        44.938
E07  26992744.421 6 141847871.18706        37.438    26992746.870 6 105925388.95506        37.250    26992746.261 6 108688656.72906        37.594    26992746.613 6 107307027.88606        40.438
E08  22553829.285 7 118521199.41707        45.656    22553829.966 7  88506109.39307        45.406    22553829.046 7  90814957.56807        45.563    22553829.489 8  89660533.52208        48.500
E13  23624059.988 8 124145491.57308        48.313    23624060.982 7  92706161.10007        47.156    23624060.318 7  95124584.71507        47.906    23624060.676 8  93915385.45008        50.531
E15  24634981.033 7 129457923.10307        43.875    24634983.983 7  96673269.06507        44.125    24634982.838 7  99195157.66407        43.969    24634983.385 7  97934214.90607        47.031
E21  26153770.868 6 137439027.78506        39.250    26153773.353 6 102633058.31706        40.625    26153772.074 6 105310435.62906        40.406    26153772.776 7 103971750.01507        43.531
E26  26198338.170 6 137673206.55406        36.094    26198341.326 6 102807929.13706        38.625    26198340.798 6 105489871.94906        39.281    26198340.938 7 104148900.08607        42.000
E27  27212460.888 5 143002473.07205        35.531    27212463.778 5 106787595.38105        35.938    27212462.636 5 109573352.69305        35.125    27212462.782 6 108180474.58006        38.563
G01  23742876.919 6 124769848.30606        36.156    23742876.593 2        14.750    23742879.291 2  97223313.81402        14.750    23742878.565 5  97223166.84205        31.438    23742877.293 6  93172470.98806        39.219
G03  21797220.913 7 114545245.68007        45.281    21797220.797 5        30.688    21797221.574 5  89256052.45705        30.688    21797221.865 6  89256038.46606        38.688    21797221.130 7  85537089.08107        46.344
G04  22277453.205 7 117068823.10707        42.438    22277452.933 4        25.688    22277453.002 4  91222469.55004        25.688    22277452.305 6  91222470.54506        37.656    22277456.116 7  87421543.54207        43.688
G06  21837373.658 7 114756231.89407        44.656    21837373.480 6        41.688    21837374.755 6  89420467.64206        41.688    21837375.225 6  89420432.67206        38.031    21837374.882 7  85694642.86707        45.438
G09  22505472.006 7 118267064.43607        42.406    22505471.430 4        25.813    22505471.863 4  92156171.69904        25.813    22505471.725 6  92156148.73306        36.469    22505472.226 7  88316328.63907        44.219
G14  23034257.729 6 121045870.61106        40.750    23034257.484 3        21.719    23034257.193 3  94321469.30503        21.719    23034256.832 5  94321470.32105        35.750    23034260.660 7  90391420.00107        42.000
G17  20207790.240 8 106192694.77908        49.188    20207789.740 8        51.438    20207787.665 8  82747564.21808        51.438    20207787.747 7  82747559.23007        43.000
G19  20412061.362 8 107266147.27608        48.031    20412060.097 6        37.000    20412057.392 6  83584016.18606        37.000
G22  24355232.235 6 127987685.49206        39.063    24355231.010 2        16.094    24355227.929 2  99730703.45302        16.094
G28  22331526.190 7 117352999.05907        42.688    22331525.327 3        23.188    22331523.810 3  91443895.52803        23.188
J01  36954062.859 7 194194999.22007        44.094    36954061.407 6 151320724.44806        37.906    36954063.473 7 145015669.70907        45.375
J02  37362426.816 5 196340905.64405        35.813    37362426.425 5 152992895.15205        32.719    37362427.797 6 146618200.20906        38.000
J03  38198128.997 7 200732559.63107        47.688    38198128.280 7 156414998.87607        43.875    38198129.772 8 149897661.16808        49.313
J07  37147698.457 6 195212473.62306        39.094    37147697.809 6 152113609.82806        39.656    37147698.533 7 145775578.36307        45.625
> 2021 03 19 12 00 20.0000000  0 23
E01  27529317.632 6 144667557.60306        36.094    27529320.033 6 108030975.26406        37.500    27529319.286 6 110849171.41706        37.563    27529319.449 6 109440072.88406        40.531
E03  25658098.328 7 134834263.55107        42.531    25658100.632 7 100687944.65807        42.094    25658100.087 6 103314577.59206        41.969    25658100.321 7 102001262.16807        45.000
E07  26992190.231 6 141844958.46406        37.531    26992192.576 6 105923213.87906        37.250    26992192.003 6 108686424.90906        37.594    26992192.359 6 107304824.43806        40.438
E08  22553534.141 7 118519647.99707        45.656    22553534.716 7  88504950.86407        45.469    22553533.833 7  90813768.81407        45.625    22553534.259 8  89659359.88108        48.531
E13  23623968.392 8 124145010.16108        48.281    23623969.379 7  92705801.60607        47.219    23623968.676 8  95124215.84508        48.031    23623969.065 8  93915021.26808        50.625
E15  24635224.989 7 129459204.68207        43.813    24635227.842 7  96674226.09107        44.188    24635226.775 7  99196139.66307        44.000    24635227.263 7  97935184.41807        47.031
E21  26154117.677 6 137440850.11106        39.406    26154120.088 6 102634419.13206        40.625    26154118.912 6 105311831.95806        40.375    26154119.560 7 103973128.58607        43.531
E26  26198009.150 6 137671477.71206        36.219    26198012.319 6 102806638.11106        38.500    26198011.839 6 105488547.23706        39.563    26198011.960 7 104147592.21807        42.094
E27  27213023.001 5 143005427.09505        35.844    27213025.851 5 106789801.32905        35.875    27213024.686 5 109575616.16705        35.031    27213024.923 6 108182709.28906        38.469
G01  23743393.777 6 124772565.14706        36.031    23743393.456 2        14.219    23743396.286 2  97225430.82502        14.219    23743395.683 5  97225283.86205        31.531    23743394.261 6  93174499.79306        39.219
G03  21797765.317 7 114548106.58007        45.188    21797765.206 5        30.656    21797765.922 5  89258281.73105        30.656    21797766.084 6  89258267.75506        38.688    21797765.571 7  85539225.46907        46.344
G04  22277276.385 7 117067893.49807        42.469    22277276.113 4        25.719    22277276.145 4  91221745.17604        25.719    22277275.494 6  91221746.17606        37.844    22277279.242 7  87420849.35807        43.719
G06  21837085.546 7 114754717.69207        44.719    21837085.363 6        41.719    21837086.608 6  89419287.74406        41.719    21837086.984 6  89419252.76506        38.188    21837086.758 7  85693512.12607        45.500
G09  22504978.325 7 118264469.82007        42.375    22504977.744 4        25.688    22504978.133 4  92154149.92204        25.688    22504978.016 6  92154126.93906        36.313    22504978.511 7  88314391.10807        44.250
G14  23034897.152 6 121049231.52506        40.688    23034896.911 3        21.625    23034896.747 3  94324088.20303        21.625    23034896.371 5  94324089.20705        35.563    23034900.234 7  90393929.77107        42.000
G17  20207732.701 8 106192392.43708        49.156    20207732.205 8        51.438    20207730.129 8  82747328.62708        51.438    20207730.176 7  82747323.63307        43.094
G19  20411758.616 8 107264556.18808        48.094    20411757.351 6        37.000    20411754.613 6  83582776.37706        37.000
G22  24355872.949 6 127991051.53706        39.063    24355871.724 2        16.188    24355868.462 2  99733326.34602        16.188
G28  22332054.629 7 117355775.71007        42.781    22332053.762 3        23.063    22332052.163 3  91446059.16203        23.063
J01  36954120.010 7 194195299.95507        43.938    36954118.384 6 151320958.77406        38.031    36954120.751 7 145015894.28707        45.313
J02  37362550.605 5 196341555.40905        35.781    37362550.389 5 152993401.44405        32.844    37362551.454 6 146618685.41206        38.000
J03  38198034.840 7 200732064.92307        47.719    38198034.008 7 156414613.38707        43.813    38198035.638 8 149897291.74408        49.281
J07  37147725.082 6 195212613.17006        39.313    37147724.145 6 152113718.54506        39.750    37147725.169 7 145775682.56307        45.656
> 2021 03 19 12 00 21.0000000  0 23
E01  27529254.028 6 144667222.39906        36.063    27529256.303 6 108030724.94206        37.719    27529255.687 6 110848914.57206        37.563    27529255.652 6 109439819.30206        40.625
E03  25658306.468 7 134835357.06907        42.563    25658308.702 7 100688761.25207        42.000    25658308.239 7 103315415.47107        42.000    25658308.408 7 102002089.40507        44.938
E07  26991635.900 6 141842045.67506        37.375    26991638.362 6 105921038.75006        37.031    26991637.685 6 108684193.02706        37.375    26991638.071 6 107302620.93006        40.250
E08  22553238.969 7 118518096.85107        45.688    22553239.545 7  88503792.54707        45.531    22553238.645 7  90812580.27607        45.656    22553239.087 8  89658186.45408        48.594
E13  23623876.778 8 124144528.71808        48.313    23623877.775 7  92705442.08607        47.250    23623877.044 8  95123846.94808        48.031    23623877.442 8  93914657.05908        50.625
E15  24635468.881 7 129460486.24407        44.000    24635471.693 7  96675183.10707        44.250    24635470.674 7  99197121.63807        44.031    24635471.136 7  97936153.91507        47.125
E21  26154464.573 6 137442672.65706        39.469    26154466.878 6 102635780.11906        40.719    26154465.782 6 105313228.46106        40.344    26154466.379 7 103974507.33107        43.563
E26  26197680.130 6 137669748.72406        36.219    26197683.282 6 102805346.97406        38.563    26197682.796 6 105487222.43306        39.625    26197682.929 7 104146284.24507        42.125
E27  27213585.117 5 143008380.97505        35.656    27213587.995 5 106792007.13405        35.719    27213586.713 5 109577879.54905        35.188    27213587.015 6 108184943.88306        38.438
G01  23743910.854 6 124775281.94306        36.219    23743910.533 2        14.000    23743913.269 2  97227547.81902        14.000    23743912.448 5  97227400.81205        31.469    23743911.271 6  93176528.55506        39.375
G03  21798309.701 7 114550967.66307        45.250    21798309.585 5        30.688    21798310.320 5  89260511.14505        30.688    21798310.478 6  89260497.17106        38.625    21798310.023 7  85541361.99307        46.469
G04  22277099.489 7 117066964.34107        42.531    22277099.217 4        25.594    22277099.386 4  91221021.15704        25.594    22277098.920 6  91221022.14406        37.906    22277102.466 7  87420155.50707        43.688
G06  21836797.341 7 114753203.50707        44.875    21836797.158 6        41.781    21836798.470 6  89418107.86106        41.781    21836798.711 6  89418072.87406        38.219    21836798.628 7  85692381.41407        45.625
G09  22504484.641 7 118261875.42007        42.344    22504484.065 4        25.719    22504484.426 4  92152128.31504        25.719    22504484.564 6  92152105.34106        36.375    22504484.796 7  88312453.72007        44.313
G14  23035536.762 6 121052592.47006        40.719    23035536.526 3        21.563    23035536.346 3  94326707.12003        21.563    23035535.548 5  94326708.14905        35.719    23035539.775 7  90396439.58007        42.031
G17  20207675.288 8 106192090.46608        49.281    20207674.788 8        51.375    20207672.664 8  82747093.32408        51.375    20207672.684 7  82747088.34107        43.031
G19  20411455.932 8 107262965.44808        48.063    20411454.667 6        36.938    20411451.907 6  83581536.83906        36.938
G22  24356513.473 6 127994417.49806        39.188    24356512.235 2        15.844    24356508.982 2  99735949.16802        15.844
G28  22332583.028 7 117358552.53107        42.969    22332582.161 3        22.906    22332580.570 3  91448222.91903        22.906
J01  36954177.195 7 194195600.66207        44.000    36954175.785 6 151321193.10306        37.844    36954177.974 7 145016118.83607        45.313
J02  37362673.807 6 196342205.06106        36.063    37362673.353 5 152993907.66505        32.875    37362675.042 6 146619170.55306        37.813
J03  38197940.614 7 200731570.07007        47.750    38197939.935 7 156414227.78807        43.906    38197941.449 8 149896922.20908        49.313
J07  37147751.573 6 195212752.59206        38.969    37147750.638 6 152113827.19706        39.500    37147751.703 7 145775786.67907        45.688
> 2021 03 19 12 00 22.0000000  0 23
E01  27529190.154 6 144666887.31206        36.063    27529192.518 6 108030474.70506        37.750    27529191.916 6 110848657.80606        37.750    27529191.869 6 109439565.79906        40.750
E03  25658514.672 7 134836450.66207        42.469    25658516.864 7 100689577.88507        42.000    25658516.320 7 103316253.41707        42.063    25658516.508 7 102002916.69307        44.969
E07  26991081.628 6 141839132.53606        37.281    26991084.102 6 105918863.35806        37.313    26991083.475 6 108681960.89506        37.531    26991083.706 6 107300417.16706        40.406
E08  22552943.813 7 118516545.75007        45.844    22552944.412 7  88502634.25707        45.563    22552943.492 7  90811391.77107        45.688    22552943.924 8  89657013.05708        48.625
E13  23623785.152 8 124144047.01608        48.344    23623786.117 7  92705082.37207        47.281    23623785.397 7  95123477.85107        47.969    23623785.783 8  93914292.65408        50.594
E15  24635712.727 7 129461767.58007        43.781    24635715.507 7  96676139.93707        44.281    24635714.435 7  99198103.43407        44.063    24635714.965 7  97937123.22807        47.125
E21  26154811.472 6 137444495.18206        39.563    26154813.680 6 102637141.09706        40.656    26154812.687 6 105314624.93706        40.375    26154813.193 7 103975886.05707        43.531
E26  26197351.216 6 137668019.37006        36.344    26197354.214 6 102804055.57706        38.719    26197353.694 6 105485897.33906        39.594    26197353.872 7 104144976.00007        42.156
E27  27214147.151 5 143011334.46305        35.469    27214150.130 5 106794212.67805        35.906    27214148.734 5 109580142.61505        35.063    27214149.089 6 108187178.18706        38.500
G01  23744427.804 6 124777998.39206        36.250    23744427.487 2        14.750    23744430.193 2  97229664.53602        14.750    23744428.690 5  97229517.53805        31.219    23744428.279 6  93178557.08606        39.500
G03  21798854.096 7 114553828.70607        45.219    21798853.985 5        30.625    21798854.731 5  89262740.52905        30.625    21798854.868 6  89262726.54006        38.688    21798854.543 7  85543498.47707        46.406
G04  22276922.689 7 117066035.40407        42.438    22276922.417 4        25.781    22276922.690 4  91220297.30904        25.781    22276922.383 6  91220298.31006        38.094    22276925.693 7  87419461.81507        43.844
G06  21836509.302 7 114751689.11607        44.938    21836509.119 6        41.688    21836510.292 6  89416927.81506        41.688    21836510.600 6  89416892.84706        38.094    21836510.465 7  85691250.53107        45.563
G09  22503990.900 7 118259280.97007        42.406    22503990.324 4        25.531    22503990.691 4  92150106.66404        25.531    22503991.012 6  92150083.69406        36.500    22503991.098 7  88310516.31607        44.344
G14  23036176.380 6 121055953.23706        40.781    23036176.144 3        21.563    23036175.926 3  94329325.89803        21.563    23036175.069 5  94329326.92005        35.750    23036179.303 7  90398949.23807        42.125
G17  20207617.877 8 106191788.62508        49.344    20207617.377 8        51.406    20207615.222 8  82746858.12308        51.406    20207615.258 7  82746853.13207        43.031
G19  20411153.261 8 107261374.81508        48.188    20411152.001 6        36.938    20411149.214 6  83580297.38306        36.938
G22  24357153.942 6 127997783.14506        39.156    24357152.695 2        15.406    24357149.421 2  99738571.74102        15.406
G28  22333111.321 7 117361329.29307        42.906    22333110.454 3        22.813    22333108.991 3  91450386.62403        22.813
J01  36954234.398 7 194195901.11207        44.000    36954232.842 6 151321427.21706        38.000    36954235.137 7 145016343.20607        45.344
J02  37362797.545 6 196342854.39006        36.000    37362797.104 5 152994413.64205        32.750    37362798.673 6 146619655.43606        37.781
J03  38197846.337 7 200731074.83607        47.719    38197845.642 7 156413841.90107        43.844    38197847.227 8 149896552.39508        49.344
J07  37147778.323 6 195212891.66606        39.219    37147776.764 6 152113935.56306        39.719    37147778.177 7 145775890.53207        45.594
> 2021 03 19 12 00 23.0000000  0 23
E01  27529126.383 6 144666552.51406        36.031    27529128.793 6 108030224.69406        37.938    27529128.109 6 110848401.27706        37.594    27529128.162 6 109439312.53106        40.750
E03  25658722.806 7 134837544.55007        42.406    25658725.081 7 100690394.76307        42.063    25658724.549 7 103317091.59607        42.000    25658724.671 7 102003744.22407        44.969
E07  26990527.169 6 141836219.27806        37.344    26990529.760 6 105916687.85706        37.375    26990529.071 6 108679728.65406        37.719    26990529.359 6 107298213.29706        40.563
E08  22552648.693 7 118514994.86807        45.875    22552649.265 7  88501476.13307        45.563    22552648.355 7  90810203.43507        45.688    22552648.811 8  89655839.82608        48.625
E13  23623693.429 8 124143565.25208        48.313    23623694.411 7  92704722.60507        47.313    23623693.757 8  95123108.70008        48.000    23623694.105 8  93913928.19508        50.656
E15  24635956.418 7 129463048.85707        44.031    24635959.330 7  96677096.73107        44.250    24635958.208 7  99199085.19207        43.969    24635958.794 7  97938092.50307        47.063
E21  26155158.330 6 137446317.89006        39.531    26155160.573 6 102638502.22106        40.781    26155159.512 6 105316021.55506        40.438    26155160.057 7 103977264.92807        43.656
E26  26197022.069 6 137666289.84006        36.563    26197025.016 6 102802764.03806        38.656    26197024.704 6 105484572.10806        39.844    26197024.756 7 104143667.61607        42.281
E27  27214708.960 5 143014287.78305        35.625    27214712.175 5 106796418.07605        35.969    27214710.728 5 109582405.53705        35.344    27214711.082 6 108189412.34506        38.594
G01  23744944.421 6 124780714.73906        36.156    23744944.095 2        14.469    23744947.108 2  97231781.18102        14.469    23744945.639 5  97231634.16205        31.750    23744945.177 6  93180585.51306        39.469
G03  21799398.541 7 114556689.87407        45.313    21799398.430 5        30.500    21799399.165 5  89264970.01105        30.500    21799399.131 6  89264956.01506        38.750    21799398.962 7  85545635.06907        46.469
G04  22276746.096 7 117065106.87807        42.531    22276745.828 4        25.688    22276746.048 4  91219573.78304        25.688    22276745.905 6  91219574.77406        38.125    22276749.001 7  87418768.43507        43.844
G06  21836221.118 7 114750174.71207        44.906    21836220.935 6        41.594    21836222.109 6  89415747.76106        41.594    21836222.677 6  89415712.78006        38.188    21836222.248 7  85690119.65307        45.594
G09  22503497.296 7 118256686.67007        42.438    22503496.711 4        25.594    22503496.993 4  92148085.13904        25.594    22503497.432 6  92148062.15706        36.688    22503497.454 7  88308579.02507        44.438
G14  23036816.004 6 121059314.00806        40.750    23036815.763 3        21.500    23036815.489 3  94331944.67703        21.500    23036814.776 5  94331945.68305        35.969    23036818.850 7  90401458.90807        42.125
G17  20207560.449 8 106191487.11108        49.313    20207559.949 8        51.344    20207557.837 8  82746623.17608        51.344    20207557.883 7  82746618.18207        43.031
G19  20410850.611 8 107259784.48708        48.188    20410849.346 6        36.938    20410846.570 6  83579058.16806        36.938
G22  24357794.336 6 128001148.66806        39.250    24357793.084 2        15.844    24357789.896 2  99741194.23702        15.844
G28  22333639.771 7 117364106.19007        43.219    22333638.908 3        22.875    22333637.393 3  91452550.43003        22.875
J01  36954291.613 7 194196201.50507        44.125    36954289.931 6 151321661.27606        38.000    36954292.269 7 145016567.52207        45.375
J02  37362920.943 5 196343503.55605        35.969    37362920.933 5 152994919.51805        32.875    37362922.283 6 146620140.20306        37.844
J03  38197752.070 7 200730579.42407        47.750    38197751.402 7 156413455.85307        44.000    38197752.951 8 149896182.43908        49.375
J07  37147804.728 6 195213030.58406        39.250    37147803.200 6 152114043.81906        39.750    37147804.611 7 145775994.28407        45.688
> 2021 03 19 12 00 24.0000000  0 23
E01  27529062.553 5 144666218.07005        35.969    27529065.146 6 108029974.95806        37.781    27529064.260 6 110848145.02006        37.500    27529064.531 6 109439059.53306        40.656
E03  25658930.934 7 134838638.77907        42.438    25658933.389 7 100691211.87707        42.000    25658932.798 6 103317930.03906        41.938    25658932.901 7 102004572.00007        44.938
E07  26989972.756 6 141833305.97406        37.219    26989975.429 6 105914512.34006        37.563    26989974.805 6 108677496.36206        37.719    26989974.994 6 107296009.39306        40.625
E08  22552353.671 7 118513444.26907        45.844    22552354.224 7  88500318.21407        45.656    22552353.252 7  90809015.32007        45.781    22552353.755 8  89654666.80908        48.688
E13  23623601.783 8 124143083.44908        48.250    23623602.725 7  92704362.82707        47.156    23623602.077 7  95122739.53107        47.906    23623602.415 8  93913563.72108        50.531
E15  24636200.213 7 129464330.13507        43.969    24636203.106 7  96678053.52807        44.188    24636202.065 7  99200066.94507        44.000    24636202.596 7  97939061.77907        47.063
E21  26155505.177 6 137448140.82206        39.469    26155507.471 6 102639863.50606        40.625    26155506.404 6 105317418.35706        40.500    26155506.952 7 103978643.97107        43.594
E26  26196692.936 6 137664560.15906        36.375    26196695.911 6 102801472.40206        38.406    26196695.547 6 105483246.78306        39.594    26196695.617 7 104142359.13507        42.063
E27  27215270.910 5 143017240.94805        35.344    27215274.112 6 106798623.34906        36.063    27215272.629 5 109584668.33705        35.125    27215273.049 6 108191646.38506        38.594
G01  23745461.339 6 124783430.99006        36.063    23745461.004 2        14.219    23745463.974 2  97233897.70502        14.219    23745462.404 5  97233750.79005        31.594    23745462.055 6  93182613.90906        39.531
G03  21799943.059 7 114559551.22707        45.375    21799942.948 5        30.469    21799943.656 5  89267199.63905        30.469    21799943.905 6  89267185.65206        38.688    21799943.508 7  85547771.79607        46.563
G04  22276569.500 7 117064178.80507        42.531    22276569.232 4        25.656    22276569.490 4  91218850.61504        25.656    22276569.385 6  91218851.60806        37.875    22276572.402 7  87418075.39907        43.781
G06  21835933.022 7 114748660.34307        44.813    21835932.839 6        41.563    21835933.931 6  89414567.73406        41.563    21835934.271 6  89414532.74306        37.969    21835934.055 7  85688988.77707        45.531
G09  22503003.573 7 118254092.62107        42.469    22503002.992 4        25.563    22503003.348 4  92146063.80504        25.563    22503003.748 6  92146040.83306        36.375    22503003.831 7  88306641.90407        44.375
G14  23037455.453 6 121062674.82106        40.625    23037455.208 3        21.469    23037455.020 3  94334563.49703        21.469    23037454.454 5  94334564.50005        35.719    23037458.443 7  90403968.60407        42.188
G17  20207503.149 8 106191185.97408        49.281    20207502.649 8        51.344    20207500.538 8  82746388.52508        51.344    20207500.635 7  82746383.54007        43.063
G19  20410548.056 8 107258194.50608        48.219    20410546.791 6        36.906    20410543.998 6  83577819.22306        36.906
G22  24358434.627 6 128004514.11206        39.281    24358433.380 2        15.938    24358430.331 2  99743816.65302        15.938
G28  22334168.280 7 117366883.26607        43.188    22334167.413 3        22.906    22334165.787 3  91454714.39003        22.906
J01  36954348.870 7 194196501.87707        44.063    36954347.322 6 151321895.33506        37.906    36954349.455 7 145016791.82707        45.375
J02  37363044.608 5 196344152.65805        35.781    37363044.308 5 152995425.26805        32.625    37363045.834 6 146620624.90806        37.813
J03  38197657.724 7 200730083.87207        47.719    38197657.126 7 156413069.72107        43.906    38197658.663 8 149895812.38908        49.375
J07  37147830.862 6 195213169.38206        39.063    37147829.640 6 152114151.99606        39.719    37147831.045 7 145776097.95207        45.531
> 2021 03 19 12 00 25.0000000  0 23
E01  27528998.985 6 144665884.16306        36.000    27529001.578 6 108029725.59606        37.750    27529000.677 6 110847889.15806        37.406    27529000.980 6 109438806.92106        40.625
E03  25659139.259 7 134839733.50707        42.375    25659141.700 7 100692029.36007        42.000    25659141.111 7 103318768.85307        42.000    25659141.212 7 102005400.15007        44.938
E07  26989418.228 6 141830392.71106        37.156    26989421.094 6 105912336.85606        37.344    26989420.512 6 108675264.13106        37.594    26989420.629 6 107293805.53606        40.438
E08  22552058.659 7 118511894.11407        45.906    22552059.263 7  88499160.63207        45.531    22552058.280 7  90807827.53107        45.656    22552058.767 8  89653494.12308        48.594
E13  23623510.127 8 124142601.80008        48.250    23623511.108 7  92704003.15407        47.250    23623510.403 7  95122370.47307        47.844    23623510.769 8  93913199.35508        50.563
E15  24636444.090 7 129465611.57307        43.938    24636446.912 7  96679010.45607        44.250    24636445.909 7  99201048.82707        43.938    24636446.442 7  97940031.18407        47.031
E21  26155852.252 6 137449964.15406        39.625    26155854.419 6 102641225.08006        40.781    26155853.424 6 105318815.45606        40.313    26155853.937 7 103980023.30907        43.594
E26  26196363.707 6 137662830.55606        36.531    26196366.726 6 102800180.81006        38.625    26196366.517 6 105481921.49706        39.594    26196366.488 7 104141050.69807        42.156
E27  27215832.890 5 143020194.11005        35.656    27215836.044 6 106800828.66706        36.094    27215834.572 5 109586931.16905        35.094    27215835.025 6 108193880.45806        38.594
G01  23745978.496 5 124786147.36605        35.875    23745978.170 2        14.469    23745980.902 2  97236014.37602        14.469    23745979.419 5  97235867.39205        31.656    23745979.020 6  93184642.36106        39.563
G03  21800487.615 7 114562412.93907        45.250    21800487.504 5        30.500    21800488.210 5  89269429.54705        30.500    21800488.506 6  89269415.54606        38.719    21800488.078 7  85549908.78607        46.500
G04  22276392.957 7 117063251.36507        42.656    22276392.694 4        25.625    22276393.085 4  91218127.93504        25.625    22276393.047 6  91218128.93206        38.031    22276395.918 7  87417382.83307        43.813
G06  21835644.891 7 114747146.16107        44.844    21835644.708 6        41.563    21835645.784 6  89413387.85206        41.563    21835646.453 6  89413352.87006        38.313    21835645.939 7  85687858.07207        45.531
G09  22502510.021 7 118251498.91607        42.469    22502509.436 4        25.656    22502509.771 4  92144042.73104        25.656    22502510.457 6  92144019.75506        36.531    22502510.265 7  88304705.03907        44.406
G14  23038095.007 6 121066035.83506        40.750    23038094.762 3        21.563    23038094.632 3  94337182.47503        21.563    23038094.050 5  94337183.49105        35.813    23038097.978 7  90406478.46207        42.094
G17  20207445.943 8 106190885.37808        49.219    20207445.443 8        51.313    20207443.337 8  82746154.29308        51.313    20207443.455 7  82746149.29807        42.906
G19  20410245.554 8 107256605.04508        48.188    20410244.289 6        36.844    20410241.533 6  83576580.68006        36.844
G22  24359075.220 6 128007879.63006        39.375    24359073.977 2        16.250    24359070.792 2  99746439.14302        16.250
G28  22334696.767 7 117369660.67407        43.313    22334695.900 3        22.875    22334694.293 3  91456878.60603        22.875
J01  36954406.106 7 194196802.40307        43.938    36954404.277 6 151322129.51106        37.813    36954406.653 7 145017016.24707        45.313
J02  37363168.490 5 196344801.80805        35.688    37363168.017 5 152995931.09805        32.688    37363169.383 6 146621109.67906        37.781
J03  38197563.350 7 200729588.35407        47.594    38197562.841 7 156412683.59807        44.063    38197564.390 8 149895442.35708        49.281
J07  37147857.174 6 195213308.28106        38.875    37147856.174 6 152114260.21706        39.719    37147857.469 7 145776201.66107        45.531
> 2021 03 19 12 00 26.0000000  0 23
E01  27528935.627 5 144665551.16705        35.938    27528938.272 6 108029476.94706        37.844    27528937.232 6 110847634.02706        37.469    27528937.622 6 109438555.03206        40.656
E03  25659347.699 7 134840829.16507        42.375    25659350.208 7 100692847.54607        42.125    25659349.639 6 103319608.37606        41.969    25659349.714 7 102006229.00407        45.031
E07  26988863.971 6 141827479.95106        37.313    26988866.763 6 105910161.73906        37.625    26988866.161 6 108673032.28306        37.688    26988866.340 6 107291602.05106        40.656
E08  22551763.830 7 118510344.81007        45.969    22551764.456 7  88498003.67907        45.625    22551763.481 7  90806640.41107        45.594    22551763.939 8  89652322.08808        48.594
E13  23623418.609 8 124142120.70808        48.188    23623419.557 7  92703643.89107        47.250    23623418.846 7  95122001.84407        47.938    23623419.217 8  93912835.41108        50.594
E15  24636688.154 7 129466893.59407        43.906    24636690.837 7  96679967.79407        44.250    24636689.857 7  99202031.15607        43.813    24636690.383 7  97941001.01807        47.031
E21  26156199.292 6 137451788.29506        39.531    26156201.589 6 102642587.25906        40.688    26156200.581 6 105320213.16306        40.406    26156201.060 7 103981403.25307        43.563
E26  26196034.561 6 137661101.35106        36.563    26196037.742 6 102798889.55606        38.688    26196037.417 6 105480596.53706        39.594    26196037.453 7 104139742.58707        42.188
E27  27216395.057 5 143023147.70505        35.438    27216398.051 5 106803034.28905        35.906    27216396.469 5 109589194.32805        35.031    27216397.085 6 108196114.85006        38.500
G01  23746495.476 5 124788864.22505        35.969    23746495.146 2        14.281    23746497.911 2  97238131.41702        14.281    23746496.188 5  97237984.46405        31.281    23746496.015 6  93186671.19206        39.594
G03  21801032.277 7 114565275.41207        45.344    21801032.161 5        30.500    21801032.917 5  89271660.04305        30.500    21801033.128 6  89271646.05306        38.500    21801032.780 7  85552046.34907        46.500
G04  22276216.732 7 117062324.96607        42.875    22276216.464 4        25.719    22276216.885 4  91217406.07004        25.719    22276216.640 6  91217407.06806        38.031    22276219.597 7  87416691.03707        43.844
G06  21835356.923 7 114745632.59807        44.906    21835356.745 6        41.531    21835357.758 6  89412208.45406        41.531    21835358.432 6  89412173.46506        38.281    21835357.921 7  85686727.81107        45.531
G09  22502016.618 7 118248905.99807        42.563    22502016.033 4        25.688    22502016.336 4  92142022.27704        25.688    22502017.009 6  92141999.29306        36.688    22502016.838 7  88302768.77707        44.406
G14  23038734.703 6 121069397.49606        40.906    23038734.458 3        21.969    23038734.352 3  94339801.94503        21.969    23038733.831 6  94339802.96706        36.063    23038737.660 7  90408988.79207        42.063
G17  20207388.884 8 106190585.73408        49.281    20207388.384 8        51.375    20207386.310 8  82745920.80408        51.375    20207386.407 7  82745915.81607        42.906
G19  20409943.217 8 107255016.52908        48.219    20409941.952 6        36.906    20409939.247 6  83575342.87506        36.906
G22  24359715.586 6 128011245.66906        39.281    24359714.357 2        16.219    24359711.361 2  99749062.03002        16.219
G28  22335225.410 7 117372438.86707        43.500    22335224.539 3        22.750    22335223.049 3  91459043.43503        22.750
J01  36954463.459 7 194197103.49907        43.938    36954461.412 6 151322364.13206        37.594    36954463.950 7 145017241.08907        45.344
J02  37363292.177 5 196345451.45505        35.781    37363291.492 5 152996437.31005        32.844    37363293.026 6 146621594.80406        37.875
J03  38197469.064 7 200729093.27407        47.469    38197468.636 7 156412297.82207        43.938    38197470.174 8 149895072.65308        49.281
J07  37147883.644 6 195213447.64906        38.813    37147882.767 6 152114368.80906        39.750    37147884.009 7 145776305.73307        45.625
> 2021 03 19 12 00 27.0000000  0 23
E01  27528872.403 5 144665218.92705        35.938    27528875.109 6 108029228.83506        37.781    27528874.074 6 110847379.42706        37.250    27528874.406 6 109438303.67706        40.531
E03  25659556.318 7 134841925.50307        42.125    25659558.812 6 100693666.24006        41.906    25659558.164 6 103320448.42806        41.938    25659558.338 7 102007058.37607        44.875
E07  26988309.752 6 141824567.48406        37.031    26988312.640 6 105907986.86306        37.375    26988311.826 6 108670800.63606        37.469    26988312.136 6 107289398.79406        40.438
E08  22551469.126 7 118508796.15007        45.844    22551469.783 7  88496847.21207        45.594    22551468.734 7  90805453.76307        45.625    22551469.237 8  89651150.53008        48.563
E13  23623327.145 8 124141639.93408        48.094    23623328.089 7  92703284.86807        47.219    23623327.346 7  95121633.45607        47.813    23623327.732 8  93912471.70408        50.563
E15  24636932.012 7 129468175.97107        43.875    24636934.838 7  96680925.41307        44.156    24636933.855 7  99203013.74907        43.844    24636934.426 7  97941971.12407        46.969
E21  26156546.588 6 137453613.00706        39.719    26156548.891 6 102643949.87006        40.781    26156547.841 6 105321611.31606        40.438    26156548.290 7 103982783.63507        43.625
E26  26195705.408 6 137659372.41806        36.156    26195708.750 6 102797598.46006        38.594    26195708.338 6 105479271.76606        39.313    26195708.458 7 104138434.65607        42.000
E27  27216957.082 5 143026101.54005        35.406    27216960.124 5 106805240.04005        35.969    27216958.525 5 109591457.66005        35.000    27216959.182 6 108198349.38606        38.438
G01  23747012.524 5 124791581.39705        35.938    23747012.189 2        14.094    23747014.978 2  97240248.70902        14.094    23747013.255 5  97240101.70105        31.625    23747013.078 6  93188700.23606        39.750
G03  21801577.147 7 114568138.43907        45.438    21801577.031 5        30.531    21801577.717 5  89273890.97305        30.531    21801578.033 6  89273876.98406        38.656    21801577.539 7  85554184.32207        46.438
G04  22276040.469 7 117061399.38607        42.906    22276040.206 4        25.656    22276040.806 4  91216684.83804        25.656    22276040.153 6  91216685.82606        38.000    22276043.475 7  87415999.85907        43.688
G06  21835068.941 7 114744119.42407        45.000    21835068.758 6        41.656    21835069.803 6  89411029.35706        41.656    21835070.356 6  89410994.36406        38.188    21835069.952 7  85685597.84007        45.531
G09  22501523.392 7 118246313.67107        42.688    22501522.807 4        25.688    22501523.027 4  92140002.28304        25.688    22501523.755 6  92139979.29606        36.656    22501523.515 7  88300832.94007        44.281
G14  23039374.374 6 121072759.56506        40.938    23039374.129 3        22.063    23039374.134 3  94342421.73503        22.063    23039373.750 5  94342422.74605        35.656    23039377.470 6  90411499.41706        41.906
G17  20207331.948 8 106190286.83408        49.406    20207331.448 8        51.375    20207329.427 8  82745687.89508        51.375    20207329.403 7  82745682.90807        43.031
G19  20409641.093 8 107253428.72208        48.375    20409639.828 6        36.844    20409637.090 6  83574105.62306        36.844
G22  24360355.918 6 128014612.00406        39.375    24360354.698 2        16.188    24360351.957 2  99751685.14002        16.188
G28  22335754.117 7 117375217.59007        43.656    22335753.246 3        22.750    22335751.796 3  91461208.67203        22.750
J01  36954520.745 7 194197404.93507        44.031    36954519.015 6 151322599.01906        37.625    36954521.311 7 145017466.18207        45.250
J02  37363415.753 5 196346101.35605        35.656    37363415.264 5 152996943.72905        32.813    37363416.654 6 146622080.10006        37.938
J03  38197375.026 7 200728598.42007        47.531    38197374.466 7 156411912.21307        43.938    38197376.012 8 149894703.12008        49.250
J07  37147910.226 6 195213587.26806        38.625    37147909.323 6 152114477.60406        39.781    37147910.539 7 145776409.98707        45.594
> 2021 03 19 12 00 28.0000000  0 23
E01  27528809.206 6 144664887.16206        36.094    27528812.023 6 108028981.07806        37.938    27528810.914 6 110847125.23506        37.344    27528811.285 6 109438052.70106        40.656
E03  25659764.994 7 134843022.32707        42.156    25659767.532 6 100694485.30706        41.969    25659766.910 6 103321288.85906        41.719    25659767.064 7 102007888.12707        44.813
E07  26987755.536 6 141821655.06406        37.344    26987758.486 6 105905812.00506        37.625    26987757.630 6 108668569.07206        37.594    26987757.927 6 107287195.58206        40.594
E08  22551174.532 7 118507247.90907        45.844    22551175.138 7  88495691.06707        45.500    22551174.086 7  90804267.45407        45.531    22551174.615 8  89649979.30308        48.531
E13  23623235.669 8 124141159.30208        48.031    23623236.651 7  92702925.96207        47.188    23623235.875 7  95121265.17707        47.781    23623236.283 8  93912108.11308        50.500
E15  24637175.951 7 129469458.49907        43.906    24637178.926 7  96681883.14907        44.156    24637177.868 7  99203996.47007        43.813    24637178.491 7  97942941.35207        46.969
E21  26156893.929 6 137455438.11106        39.438    26156896.246 6 102645312.78006        40.594    26156895.172 6 105323009.77606        40.344    26156895.610 7 103984164.31807        43.469
E26  26195376.293 6 137657643.52706        36.438    26195379.903 6 102796307.37506        38.531    26195379.299 6 105477947.01706        39.469    26195379.467 7 104137126.73807        42.063
E27  27217519.222 5 143029055.36705        35.031    27217522.317 5 106807445.82905        35.906    27217520.561 5 109593720.97005        34.688    27217521.291 6 108200583.93706        38.375
G01  23747529.693 5 124794298.64205        35.844    23747529.367 2        14.094    23747532.086 2  97242366.02702        14.094    23747531.096 5  97242219.02305        32.000    23747530.142 6  93190729.33806        39.688
G03  21802122.043 7 114571001.79507        45.375    21802121.927 5        30.469    21802122.597 5  89276122.16205        30.469    21802122.893 6  89276108.17606        38.656    21802122.413 7  85556322.54207        46.406
G04  22275864.489 7 117060474.41707        43.094    22275864.226 4        25.813    22275864.829 4  91215964.08104        25.813    22275863.848 6  91215965.06906        38.063    22275867.474 7  87415309.13607        43.625
G06  21834781.059 7 114742606.42707        44.969    21834780.876 6        41.594    21834781.898 6  89409850.39906        41.594    21834782.113 6  89409815.41606        38.156    21834782.044 7  85684468.01107        45.500
G09  22501030.107 7 118243721.68407        42.875    22501029.522 4        25.813    22501029.802 4  92137982.55204        25.813    22501030.612 6  92137959.56906        36.531    22501030.267 7  88298897.37107        44.281
G14  23040014.265 6 121076121.82606        40.906    23040014.024 3        22.125    23040013.929 3  94345041.67603        22.125    23040013.681 5  94345042.68005        35.750    23040017.348 6  90414010.19606        41.906
G17  20207275.128 8 106189988.46208        49.406    20207274.628 8        51.406    20207272.646 8  82745455.39608        51.406    20207272.731 7  82745450.40307        43.125
G19  20409338.970 8 107251841.42208        48.438    20409337.705 6        36.906    20409335.019 6  83572868.76506        36.906
G22  24360996.458 6 128017978.39006        39.500    24360995.238 2        15.563    24360992.593 2  99754308.28002        15.563
G28  22336282.882 7 117377996.64607        43.719    22336282.006 3        22.813    22336280.623 3  91463374.16703        22.813
J01  36954578.072 7 194197706.49707        43.938    36954576.392 6 151322834.00906        37.813    36954578.686 7 145017691.38407        45.281
J02  37363539.327 5 196346751.31605        35.781    37363538.888 5 152997450.19005        32.594    37363540.368 6 146622565.45806        37.875
J03  38197280.882 7 200728103.57807        47.500    38197280.325 7 156411526.63107        43.813    38197281.844 8 149894333.59508        49.250
J07  37147936.889 6 195213726.93106        38.938    37147935.939 6 152114586.43606        39.688    37147937.106 7 145776514.28307        45.563
> 2021 03 19 12 00 29.0000000  0 23
E01  27528746.347 5 144664556.10005        35.906    27528748.971 6 108028733.87206        38.000    27528747.991 6 110846871.55506        37.531    27528748.289 6 109437802.25806        40.750
E03  25659973.854 7 134844119.86107        42.094    25659976.392 7 100695304.88307        42.000    25659975.749 6 103322129.81706        41.844    25659975.907 7 102008718.39207        44.875
E07  26987201.122 6 141818742.94906        37.219    26987204.453 6 105903637.37506        37.344    26987203.462 6 108666337.69006        37.281    26987203.768 6 107284992.57606        40.375
E08  22550880.052 7 118505700.29507        45.875    22550880.593 7  88494535.37907        45.500    22550879.574 7  90803081.62307        45.500    22550880.114 8  89648808.54308        48.500
E13  23623144.286 8 124140678.99608        48.031    23623145.259 7  92702567.28707        47.156    23623144.517 7  95120897.15407        47.813    23623144.887 8  93911744.76308        50.500
E15  24637420.022 7 129470741.37107        43.844    24637423.086 7  96682841.14107        44.188    24637421.949 7  99204979.45007        43.813    24637422.606 7  97943911.83807        46.969
E21  26157241.248 6 137457263.78706        39.344    26157243.655 6 102646676.10306        40.750    26157242.565 6 105324408.67206        40.281    26157243.010 7 103985545.42807        43.531
E26  26195047.370 6 137655914.82706        36.531    26195050.897 6 102795016.47406        38.625    26195050.347 6 105476622.43506        39.531    26195050.512 7 104135818.99707        42.125
E27  27218081.408 5 143032009.39905        34.906    27218084.520 5 106809651.76305        35.875    27218082.575 5 109595984.44105        34.844    27218083.432 6 108202818.64206        38.406
G01  23748046.364 5 124797016.15405        35.969    23748046.034 2        13.938    23748049.175 2  97244483.55502        13.938    23748049.021 5  97244336.56205        31.750    23748047.280 6  93192758.64806        39.656
G03  21802666.927 7 114573865.69507        45.313    21802666.816 5        30.469    21802667.594 5  89278353.77305        30.469    21802668.028 6  89278339.78406        38.719    21802667.417 7  85558461.17207        46.375
G04  22275688.686 7 117059550.26307        43.063    22275688.427 4        25.594    22275688.992 4  91215243.96004        25.594    22275687.687 6  91215244.94706        37.813    22275691.670 7  87414619.01607        43.656
G06  21834493.170 7 114741093.82007        44.875    21834492.987 6        41.594    21834494.059 6  89408671.74006        41.594    21834494.275 6  89408636.75906        38.188    21834494.210 7  85683338.46607        45.531
G09  22500537.020 7 118241130.25707        42.813    22500536.435 4        25.750    22500536.658 4  92135963.25604        25.750    22500537.357 6  92135940.26206        36.688    22500537.105 7  88296962.21307        44.250
G14  23040654.322 6 121079484.48506        40.938    23040654.081 3        22.125    23040653.796 3  94347661.92703        22.125    23040653.358 5  94347662.94205        35.906    23040657.200 6  90416521.27006        41.906
G17  20207218.412 8 106189690.81408        49.375    20207217.916 8        51.344    20207216.004 8  82745223.46408        51.344    20207216.002 7  82745218.47407        43.156
G19  20409037.064 8 107250254.82408        48.344    20409035.799 6        36.844    20409033.090 6  83571632.45406        36.844
G22  24361636.977 6 128021345.04706        39.188    24361635.757 2        15.688    24361633.233 2  99756931.64902        15.688
G28  22336811.928 7 117380776.23207        43.625    22336811.052 3        23.063    22336809.518 3  91465540.07903        23.063
J01  36954635.457 7 194198008.40107        43.906    36954633.697 6 151323069.25506        37.656    36954636.122 7 145017916.83107        45.344
J02  37363662.784 5 196347401.52505        35.813    37363662.847 5 152997956.86705        32.719    37363664.120 6 146623051.02606        37.688
J03  38197186.784 7 200727608.95207        47.469    38197186.271 7 156411141.20207        43.875    38197187.693 8 149893964.23108        49.250
J07  37147963.760 6 195213866.84406        39.125    37147962.507 6 152114695.45406        39.656    37147963.729 7 145776618.76107        45.594
> 2021 03 19 12 00 30.0000000  0 23
E01  27528683.354 5 144664225.11105        35.656    27528685.887 6 108028486.71006        38.000    27528685.092 6 110846617.95506        37.469    27528685.297 6 109437551.87606        40.719
E03  25660182.714 7 134845217.42607        42.063    25660185.175 7 100696124.48807        42.063    25660184.599 6 103322970.80106        41.781    25660184.759 7 102009548.68707        44.906
E07  26986646.764 6 141815830.44506        37.250    26986650.054 6 105901462.45106        37.656    26986649.146 6 108664106.03806        37.406    26986649.524 6 107282789.28606        40.531
E08  22550585.542 7 118504152.67307        45.844    22550586.100 7  88493379.68507        45.500    22550585.029 7  90801895.78107        45.594    22550585.608 8  89647637.77508        48.563
E13  23623052.829 7 124140198.37607        47.875    23623053.812 7  92702208.38807        47.250    23623053.059 7  95120528.88807        47.844    23623053.429 8  93911381.18108        50.531
E15  24637664.089 7 129472023.95907        43.906    24637667.143 7  96683798.91607        44.188    24637666.018 7  99205962.21007        43.906    24637666.663 7  97944882.10607        47.031
E21  26157588.526 6 137459089.39406        39.219    26157591.052 6 102648039.38706        40.656    26157589.912 6 105325807.52006        40.344    26157590.415 7 103986926.49507        43.500
E26  26194718.423 6 137654185.69406        36.656    26194721.817 6 102793725.25606        38.750    26194721.360 6 105475297.52306        39.656    26194721.450 7 104134510.93307        42.250
E27  27218643.564 5 143034962.97605        34.969    27218646.506 6 106811857.34206        36.000    27218644.702 5 109598247.60305        34.844    27218645.471 6 108205053.01006        38.406
G01  23748563.174 6 124799733.31506        36.063    23748562.839 2        14.219    23748566.233 2  97246600.81102        14.219    23748566.023 5  97246453.81305        31.906    23748564.385 6  93194787.69806        39.438
G03  21803211.986 7 114576729.49307        45.188    21803211.870 5        30.406    21803212.538 5  89280585.30205        30.406    21803213.041 6  89280571.31506        38.594    21803212.390 7  85560599.71507        46.344
G04  22275512.840 7 117058626.27407        43.125    22275512.577 4        25.625    22275513.226 4  91214523.96704        25.625    22275511.731 6  91214524.97006        37.781    22275515.876 7  87413929.03807        43.625
G06  21834205.328 7 114739580.94907        45.063    21834205.145 6        41.563    21834206.176 6  89407492.88206        41.563    21834206.242 6  89407457.91006        38.156    21834206.324 7  85682208.72407        45.406
G09  22500043.757 7 118238538.75407        42.875    22500043.172 4        25.813    22500043.492 4  92133943.90504        25.813    22500043.913 6  92133920.91406        36.594    22500043.977 7  88295027.00307        44.188
G14  23041294.150 6 121082846.89706        40.875    23041293.909 3        22.219    23041293.622 3  94350281.98803        22.219    23041292.940 6  94350283.03006        36.000    23041297.054 6  90419032.16406        41.875
G17  20207161.805 8 106189393.25208        49.406    20207161.305 8        51.438    20207159.380 8  82744991.59708        51.438    20207159.411 7  82744986.60507        43.313
G19  20408735.177 8 107248668.29008        48.344    20408733.912 6        36.938    20408731.180 6  83570396.19406        36.938
G22  24362277.735 6 128024711.36306        39.281    24362276.524 2        16.094    24362273.820 2  99759554.75802        16.094
G28  22337340.840 7 117383555.71507        43.438    22337339.960 3        23.000    22337338.439 3  91467705.91103        23.000
J01  36954692.774 7 194198310.00407        43.938    36954691.200 6 151323304.25706        37.500    36954693.463 7 145018142.05307        45.219
J02  37363786.478 5 196348051.37105        35.500    37363786.206 5 152998463.21505        32.688    37363787.658 6 146623536.28106        37.813
J03  38197092.625 7 200727113.90207        47.438    38197092.110 7 156410755.44407        43.844    38197093.495 8 149893594.54908        49.219
J07  37147990.310 6 195214006.34906        38.688    37147989.004 6 152114804.17606        39.750    37147990.238 7 145776722.94407        45.594
> 2021 03 19 12 00 31.0000000  0 23
E01  27528620.426 5 144663894.25405        35.594    27528622.914 6 108028239.65406        38.000    27528622.190 6 110846364.44306        37.406    27528622.327 6 109437301.59206        40.688
E03  25660391.635 7 134846315.12107        42.250    25660394.088 6 100696944.20906        41.906    25660393.432 6 103323811.89406        41.750    25660393.646 7 102010379.09507        44.813
E07  26986092.691 6 141812917.66006        37.375    26986095.756 6 105899287.31206        37.625    26986094.816 6 108661874.15706        37.563    26986095.248 6 107280585.77606        40.656
E08  22550291.093 7 118502605.11807        46.063    22550291.566 7  88492224.03807        45.500    22550290.566 7  90800709.99007        45.531    22550291.112 8  89646467.05708        48.500
E13  23622961.344 8 124139717.52308        48.000    23622962.301 7  92701849.31107        47.250    23622961.537 7  95120160.44107        47.750    23622961.922 8  93911017.41908        50.469
E15  24637908.095 7 129473306.32307        44.063    24637911.118 7  96684756.52607        44.094    24637910.079 7  99206944.80407        43.844    24637910.684 7  97945852.20807        46.938
E21  26157935.997 6 137460915.03406        39.688    26157938.367 6 102649402.67406        40.688    26157937.265 6 105327206.37206        40.406    26157937.816 7 103988307.56207        43.563
E26  26194389.392 6 137652456.24606        36.781    26194392.676 6 102792433.78506        38.406    26194392.219 6 105473972.36306        39.438    26194392.338 6 104133202.61706        41.969
E27  27219205.645 5 143037916.22105        35.000    27219208.400 5 106814062.71005        35.781    27219206.562 5 109600510.45805        34.563    27219207.482 6 108207287.12406        38.188
G01  23749080.186 5 124802450.16805        35.781    23749079.847 2        14.219    23749083.269 2  97248717.85702        14.219    23749082.942 5  97248570.89905        32.000    23749081.380 6  93196816.51906        39.719
G03  21803757.136 7 114579593.26307        44.938    21803757.025 5        30.500    21803757.503 5  89282816.80805        30.500    21803757.927 6  89282802.82506        38.563    21803757.375 7  85562738.24607        46.344
G04  22275337.103 7 117057702.54107        42.938    22275336.835 4        25.719    22275337.478 4  91213804.16904        25.719    22275336.204 6  91213805.18106        37.594    22275340.123 7  87413239.22207        43.656
G06  21833917.330 7 114738067.90707        44.875    21833917.147 6        41.594    21833918.249 6  89406313.88906        41.594    21833918.053 6  89406278.90406        38.125    21833918.428 7  85681078.85607        45.469
G09  22499550.623 7 118235947.26207        42.969    22499550.038 4        26.000    22499550.330 4  92131924.55704        26.000    22499550.525 6  92131901.55006        36.281    22499550.769 7  88293091.79207        44.156
G14  23041933.950 6 121086209.15906        40.594    23041933.709 3        22.188    23041933.503 3  94352901.93003        22.188    23041932.860 6  94352902.95106        36.125    23041936.884 7  90421542.95107        42.000
G17  20207105.273 8 106189095.87008        49.281    20207104.777 8        51.500    20207102.787 8  82744759.86908        51.500    20207102.716 7  82744754.87407        43.188
G19  20408433.325 8 107247081.89808        48.344    20408432.056 6        36.969    20408429.282 6  83569160.04406        36.969
G22  24362918.273 6 128028077.38106        38.875    24362917.066 2        16.094    24362914.384 2  99762177.62002        16.094
G28  22337869.866 7 117386335.15207        43.094    22337868.986 3        23.000    22337867.343 3  91469871.70503        23.000
J01  36954750.018 7 194198611.37807        43.938    36954748.347 6 151323539.11506        37.594    36954750.844 7 145018367.09807        45.219
J02  37363909.879 5 196348700.88405        35.656    37363909.745 5 152998969.34105        32.750    37363911.298 6 146624021.32206        37.781
J03  38196998.430 7 200726618.49507        47.375    38196997.796 7 156410369.41907        43.750    38196999.218 8 149893224.61008        49.281
J07  37148016.838 6 195214145.55606        38.906    37148015.343 6 152114912.63406        39.750    37148016.720 7 145776826.90107        45.594
> 2021 03 19 12 00 32.0000000  0 23
E01  27528557.632 5 144663563.80105        35.969    27528559.976 6 108027992.86406        38.094    27528559.210 6 110846111.23506        37.313    27528559.430 6 109437051.59206        40.719
E03  25660600.624 7 134847413.17507        42.063    25660603.064 7 100697764.16907        42.063    25660602.349 6 103324653.27406        41.875    25660602.596 7 102011209.76507        44.938
E07  26985538.410 6 141810004.79006        37.500    26985541.440 6 105897112.13406        37.438    26985540.519 6 108659642.24506        37.406    26985540.946 6 107278382.23106        40.438
E08  22549996.648 7 118501057.86107        46.000    22549997.128 7  88491068.62107        45.469    22549996.161 7  90799524.43507        45.438    22549996.682 8  89645296.57008        48.469
E13  23622869.800 8 124139236.67408        48.063    23622870.825 7  92701490.23707        47.125    23622870.030 7  95119792.00107        47.719    23622870.419 8  93910653.66108        50.438
E15  24638152.110 7 129474588.72007        43.969    24638155.097 7  96685714.15407        44.063    24638154.207 7  99207927.41507        43.813    24638154.718 7  97946822.32707        46.906
E21  26158283.511 6 137462740.91006        39.594    26158285.746 6 102650766.14906        40.688    26158284.709 6 105328605.43406        40.344    26158285.270 7 103989688.83207        43.531
E26  26194060.259 6 137650726.69406        36.719    26194063.596 6 102791142.23206        38.375    26194063.093 6 105472647.12406        39.594    26194063.222 7 104131894.22007        42.031
E27  27219767.530 5 143040869.34005        35.188    27219770.311 5 106816267.95305        35.750    27219768.479 5 109602773.24705        34.750    27219769.458 6 108209521.14006        38.344
G01  23749597.193 6 124805166.99106        36.125    23749596.872 2        14.406    23749600.256 2  97250834.88802        14.406    23749599.655 5  97250687.85905        32.094    23749598.377 6  93198845.31206        39.781
G03  21804302.130 7 114582457.24307        44.844    21804302.019 5        30.594    21804302.491 5  89285048.48205        30.594    21804302.800 6  89285034.50406        38.531    21804302.374 7  85564876.93207        46.344
G04  22275161.436 7 117056779.28307        42.750    22275161.173 4        25.563    22275161.792 4  91213084.75004        25.563    22275160.734 6  91213085.75606        37.688    22275164.419 7  87412549.78607        43.656
G06  21833629.538 7 114736554.91107        44.656    21833629.355 6        41.625    21833630.334 6  89405134.93306        41.625    21833630.255 6  89405099.95406        38.031    21833630.464 7  85679949.01907        45.469
G09  22499057.374 7 118233355.97207        42.656    22499056.789 4        25.875    22499057.213 4  92129905.37404        25.875    22499057.127 5  92129882.38905        35.938    22499057.664 7  88291156.74307        44.156
G14  23042573.821 6 121089571.47806        40.688    23042573.580 3        21.938    23042573.356 3  94355521.92003        21.938    23042572.669 5  94355522.94705        35.719    23042576.649 6  90424053.77806        41.969
G17  20207048.760 8 106188798.87008        49.313    20207048.260 8        51.469    20207046.270 8  82744528.44108        51.469    20207046.202 7  82744523.45407        43.094
G19  20408131.572 8 107245495.88708        48.063    20408130.303 6        36.938    20408127.470 6  83567924.19506        36.938
G22  24363558.843 6 128031443.34306        39.000    24363557.636 2        16.125    24363554.891 2  99764800.44402        16.125
G28  22338398.732 7 117389114.80507        43.250    22338397.852 3        23.094    22338396.264 3  91472037.67103        23.094
J01  36954807.346 7 194198912.75407        43.906    36954805.624 6 151323773.95106        37.531    36954808.187 7 145018592.16507        45.156
J02  37364033.384 5 196349350.35805        35.813    37364033.704 5 152999475.41005        32.688    37364034.834 6 146624506.31506        37.906
J03  38196904.160 7 200726122.98607        47.313    38196903.593 7 156409983.31007        43.781    38196904.952 8 149892854.58008        49.219
J07  37148043.351 6 195214284.68306        39.000    37148041.738 6 152115021.05906        39.688    37148043.147 7 145776930.79807        45.625
> 2021 03 19 12 00 33.0000000  0 23
E01  27528494.885 5 144663233.83805        35.625    27528497.174 6 108027746.46906        37.969    27528496.533 6 110845858.39906        37.313    27528496.626 6 109436801.97806        40.656
E03  25660809.741 7 134848511.71907        42.094    25660812.160 6 100698584.51806        41.688    25660811.415 6 103325495.00606        41.688    25660811.649 7 102012040.80407        44.656
E07  26984984.219 6 141807092.00906        37.188    26984987.130 6 105894936.99906        37.406    26984986.346 6 108657410.35906        37.094    26984986.671 6 107276178.72106        40.281
E08  22549702.307 7 118499511.03607        46.063    22549702.753 7  88489913.53307        45.313    22549701.785 7  90798339.20107        45.406    22549702.338 8  89644126.41008        48.375
E13  23622778.271 8 124138755.95008        48.031    23622779.307 7  92701131.25007        47.063    23622778.530 7  95119423.65107        47.719    23622778.939 8  93910289.99408        50.406
E15  24638396.183 7 129475871.26607        43.969    24638399.160 7  96686671.90707        43.906    24638398.308 7  99208910.15107        43.813    24638398.779 7  97947792.57207        46.813
E21  26158631.024 6 137464567.16306        39.406    26158633.322 6 102652129.91606        40.531    26158632.263 6 105330004.77506        40.188    26158632.786 7 103991070.38707        43.375
E26  26193731.341 6 137648997.17806        36.938    26193734.440 6 102789850.68906        38.219    26193733.987 6 105471321.88906        39.563    26193734.080 6 104130585.83106        41.938
E27  27220329.370 5 143043822.46005        35.000    27220332.240 5 106818473.19705        35.188    27220330.250 5 109605036.01905        34.906    27220331.424 6 108211755.14906        38.094
G01  23750114.285 6 124807883.89906        36.188    23750113.964 2        14.500    23750117.278 2  97252951.95402        14.500    23750117.247 5  97252804.93305        32.094    23750115.446 6  93200874.17306        39.656
G03  21804847.095 7 114585321.56007        44.875    21804846.979 5        30.469    21804847.528 5  89287280.41805        30.469    21804847.994 6  89287266.42506        38.656    21804847.397 7  85567015.87107        46.344
G04  22274986.046 7 117055856.65207        42.531    22274985.778 4        25.500    22274986.187 4  91212365.81704        25.500    22274985.149 6  91212366.82106        37.625    22274988.837 7  87411860.80807        43.594
G06  21833341.627 7 114735042.09507        44.719    21833341.440 6        41.656    21833342.456 6  89403956.11706        41.656    21833342.577 6  89403921.13606        38.063    21833342.626 7  85678819.32807        45.531
G09  22498564.388 7 118230765.07407        42.688    22498563.803 4        25.875    22498564.185 4  92127886.49304        25.875    22498564.169 6  92127863.49006        36.188    22498564.586 7  88289221.97507        44.188
G14  23043213.925 6 121092934.00706        40.406    23043213.680 3        21.813    23043213.200 3  94358142.07703        21.813    23043212.655 5  94358143.07805        35.688    23043216.495 7  90426564.75107        42.000
G17  20206992.376 8 106188502.40908        49.281    20206991.876 8        51.406    20206989.861 8  82744297.43308        51.406    20206989.855 7  82744292.43507        43.031
G19  20407829.910 8 107243910.37908        48.188    20407828.641 6        36.875    20407825.756 6  83566688.73406        36.875
G22  24364199.228 6 128034809.37706        39.031    24364198.021 2        15.938    24364195.410 2  99767423.32402        15.938
G28  22338927.582 7 117391894.77407        43.063    22338926.702 3        23.063    22338925.266 3  91474203.88403        23.063
J01  36954864.702 7 194199214.26707        43.781    36954862.888 6 151324008.90406        37.625    36954865.604 7 145018817.31907        45.188
J02  37364156.985 5 196349999.86005        35.625    37364157.933 5 152999981.50305        32.688    37364158.472 6 146624991.32506        37.563
J03  38196809.841 7 200725627.48807        47.406    38196809.305 7 156409597.20307        43.844    38196810.666 8 149892484.56908        49.156
J07  37148070.048 6 195214423.85906        38.875    37148068.357 6 152115129.51106        39.531    37148069.624 7 145777034.72107        45.531
> 2021 03 19 12 00 34.0000000  0 23
E01  27528432.192 5 144662904.62705        35.688    27528434.483 6 108027500.63006        37.813    27528433.796 6 110845606.14306        37.344    27528433.996 6 109436552.93106        40.594
E03  25661018.988 7 134849611.00307        42.063    25661021.292 6 100699405.41806        41.719    25661020.717 6 103326337.32606        41.875    25661020.849 7 102012872.41407        44.781
E07  26984430.039 6 141804179.56506        37.344    26984432.963 6 105892762.10506        37.625    26984432.015 6 108655178.74506        37.344    26984432.435 6 107273975.46806        40.500
E08  22549408.083 7 118497964.89607        46.031    22549408.529 7  88488758.94107        45.281    22549407.579 7  90797154.49107        45.406    22549408.118 8  89642956.75908        48.375
E13  23622686.879 8 124138275.61908        48.125    23622687.909 7  92700772.55807        47.000    23622687.118 7  95119055.60907        47.781    23622687.534 8  93909926.62708        50.406
E15  24638640.385 7 129477154.21307        43.813    24638643.363 7  96687629.95207        44.031    24638642.464 7  99209893.18307        43.781    24638642.912 7  97948763.10907        46.875
E21  26158978.660 6 137466394.05606        39.625    26158980.961 6 102653494.15706        40.531    26158979.968 6 105331404.59706        40.313    26158980.433 7 103992452.41707        43.406
E26  26193402.179 6 137647267.91306        36.688    26193405.415 6 102788559.38106        38.531    26193404.937 6 105469996.88906        39.438    26193405.022 7 104129277.67707        42.031
E27  27220891.440 5 143046775.83905        34.938    27220894.312 5 106820678.65705        35.563    27220892.243 5 109607299.01305        34.469    27220893.467 6 108213989.37206        38.063
G01  23750631.533 6 124810601.12806        36.125    23750631.220 2        14.125    23750634.368 2  97255069.25902        14.125    23750634.382 5  97254922.22305        32.313    23750632.497 6  93202903.28106        39.906
G03  21805392.223 7 114588186.47907        44.844    21805392.107 5        30.469    21805392.691 5  89289512.82305        30.469    21805393.306 6  89289498.82706        38.844    21805392.534 7  85569155.25707        46.313
G04  22274810.750 7 117054934.88307        42.656    22274810.482 4        25.656    22274810.770 4  91211647.55504        25.656    22274809.724 6  91211648.56006        37.750    22274813.432 7  87411172.46907        43.719
G06  21833053.904 7 114733529.73807        44.656    21833053.721 6        41.594    21833054.662 6  89402777.65806        41.594    21833054.858 6  89402742.66406        37.938    21833054.852 7  85677689.96107        45.438
G09  22498071.492 7 118228174.77407        42.688    22498070.907 4        25.688    22498071.283 4  92125868.08504        25.688    22498071.099 5  92125845.09905        35.844    22498071.645 7  88287287.66607        44.156
G14  23043853.912 6 121096296.97206        40.500    23043853.667 3        22.000    23043853.157 3  94360762.57303        22.000    23043852.564 5  94360763.58105        35.656    23043856.431 6  90429076.07406        41.813
G17  20206936.088 8 106188206.73008        49.344    20206935.592 8        51.406    20206933.594 8  82744067.03408        51.406    20206933.593 7  82744062.03307        43.156
G19  20407528.345 8 107242325.63808        48.063    20407527.080 6        36.906    20407524.181 6  83565453.87006        36.906
G22  24364839.779 6 128038175.74806        39.000    24364838.563 2        15.563    24364836.010 2  99770046.50402        15.563
G28  22339456.701 7 117394675.36307        43.063    22339455.821 3        23.063    22339454.469 3  91476370.57403        23.063
J01  36954922.127 7 194199516.17407        43.813    36954920.350 6 151324244.16406        37.813    36954923.009 7 145019042.76707        45.156
J02  37364280.629 5 196350649.68805        35.406    37364281.442 5 153000487.86505        32.813    37364282.091 6 146625476.60106        37.844
J03  38196715.636 7 200725132.26207        47.406    38196715.098 7 156409211.31607        43.906    38196716.398 8 149892114.75308        49.219
J07  37148096.654 6 195214563.32906        38.781    37148094.978 6 152115238.18106        39.719    37148096.159 7 145777138.87607        45.500
> 2021 03 19 12 00 35.0000000  0 23
E01  27528369.748 5 144662575.76305        35.688    27528371.898 6 108027255.05806        38.000    27528371.229 6 110845354.15406        37.656    27528371.416 6 109436304.14806        40.813
E03  25661228.336 6 134850710.62306        41.875    25661230.492 6 100700226.55906        41.844    25661229.972 6 103327179.88406        41.813    25661230.094 7 102013704.26307        44.813
E07  26983875.795 6 141801267.00406        37.188    26983878.710 6 105890587.15606        37.531    26983877.768 6 108652947.04006        37.219    26983878.196 6 107271772.14106        40.406
E08  22549113.884 7 118496419.02607        45.969    22549114.326 7  88487604.55907        45.250    22549113.450 7  90795970.00007        45.500    22549113.948 8  89641787.32208        48.406
E13  23622595.470 8 124137795.24308        48.000    23622596.504 7  92700413.83907        47.063    23622595.731 7  95118687.52907        47.688    23622596.125 8  93909563.22608        50.375
E15  24638884.594 7 129478437.15207        43.781    24638887.554 7  96688587.99007        44.094    24638886.604 7  99210876.21207        43.938    24638887.040 7  97949733.64407        46.969
E21  26159326.212 6 137468221.16406        39.594    26159328.594 6 102654858.54806        40.563    26159327.657 6 105332804.58806        40.406    26159328.110 7 103993834.60807        43.469
E26  26193073.146 6 137645538.50906        36.688    26193076.288 6 102787267.94106        38.281    26193075.804 6 105468671.76206        39.375    26193075.960 6 104127969.39406        41.906
E27  27221453.385 5 143049729.05005        34.781    27221456.234 5 106822883.97305        35.500    27221454.250 5 109609561.85605        34.438    27221455.438 6 108216223.45306        38.000
G01  23751148.954 6 124813318.26606        36.344    23751148.624 2        14.500    23751151.408 2  97257186.51202        14.500    23751151.517 5  97257039.51005        32.156    23751149.574 6  93204932.31706        39.844
G03  21805937.485 7 114591051.56307        45.000    21805937.369 5        30.375    21805937.889 5  89291745.35705        30.375    21805938.500 6  89291731.36106        38.719    21805937.722 7  85571294.76307        46.344
G04  22274635.291 7 117054013.55907        42.500    22274635.028 4        25.625    22274635.460 4  91210929.64104        25.625    22274634.154 6  91210930.65506        37.719    22274638.115 7  87410484.47207        43.750
G06  21832766.109 7 114732017.37007        44.875    21832765.926 6        41.500    21832766.868 6  89401599.18906        41.500    21832766.987 6  89401564.20406        38.219    21832767.082 7  85676560.60407        45.500
G09  22497578.715 7 118225584.66807        42.719    22497578.130 4        25.563    22497578.421 4  92123849.81804        25.563    22497578.088 6  92123826.82906        36.094    22497578.772 7  88285353.50907        44.125
G14  23044493.729 6 121099659.99806        40.594    23044493.484 3        22.031    23044493.108 3  94363383.10503        22.031    23044492.543 5  94363384.12505        35.625    23044496.368 6  90431587.41506        41.813
G17  20206879.915 8 106187911.41108        49.500    20206879.419 8        51.344    20206877.399 8  82743836.91408        51.344    20206877.341 7  82743831.91807        43.094
G19  20407226.804 8 107240741.22508        48.188    20407225.535 6        36.813    20407222.660 6  83564219.26106        36.813
G22  24365480.217 6 128041542.01706        39.063    24365479.001 2        15.688    24365476.624 2  99772669.56702        15.688
G28  22339985.824 7 117397456.08507        43.250    22339984.948 3        23.063    22339983.672 3  91478537.36703        23.063
J01  36954979.707 7 194199818.06007        43.750    36954977.949 6 151324479.37506        37.531    36954980.459 7 145019268.19507        45.125
J02  37364404.433 5 196351299.40805        35.469    37364404.651 5 153000994.13705        32.844    37364405.778 6 146625961.78706        37.531
J03  38196621.392 7 200724636.88907        47.500    38196620.873 7 156408825.30507        43.844    38196622.140 8 149891744.83508        49.188
J07  37148123.075 6 195214702.68606        38.875    37148121.659 6 152115346.77006        39.656    37148122.672 7 145777242.94207        45.438
> 2021 03 19 12 00 36.0000000  0 23
E01  27528307.243 5 144662247.22805        35.344    27528309.484 6 108027009.73006        38.063    27528308.649 6 110845102.43406        37.531    27528308.871 6 109436055.62706        40.781
E03  25661437.656 6 134851810.55106        41.875    25661439.814 6 100701047.94206        41.875    25661439.259 6 103328022.69006        41.906    25661439.389 7 102014536.35907        44.906
E07  26983321.451 6 141798354.35806        37.188    26983324.399 6 105888412.13406        37.531    26983323.483 6 108650715.27506        37.188    26983323.929 6 107269568.74806        40.375
E08  22548819.694 7 118494873.40607        46.094    22548820.245 7  88486450.36307        45.375    22548819.354 7  90794785.69507        45.500    22548819.827 8  89640618.07208        48.469
E13  23622504.090 8 124137314.82108        48.000    23622505.099 7  92700055.08307        47.063    23622504.298 7  95118319.40707        47.781    23622504.698 8  93909199.78908        50.406
E15  24639128.760 7 129479720.06907        43.656    24639131.635 7  96689546.00807        44.094    24639130.670 7  99211859.22807        43.875    24639131.164 7  97950704.16207        46.938
E21  26159673.880 6 137470048.46506        39.469    26159676.283 6 102656223.11406        40.656    26159675.399 6 105334204.72706        40.500    26159675.859 7 103995216.96007        43.594
E26  26192744.006 6 137643808.98206        36.906    26192747.150 6 102785976.40906        38.375    26192746.614 6 105467346.53806        39.750    26192746.835 7 104126661.01707        42.094
E27  27222015.307 5 143052682.10105        34.656    27222018.112 5 106825089.15305        35.438    27222016.063 5 109611824.55505        34.531    27222017.387 6 108218457.39406        38.094
G01  23751665.916 6 124816035.31606        36.031    23751665.603 2        15.000    23751668.444 2  97259303.69202        15.000    23751668.625 5  97259156.69005        32.438    23751666.733 6  93206961.28806        40.000
G03  21806482.780 7 114593916.80807        44.844    21806482.664 5        30.375    21806483.132 5  89293978.01605        30.375    21806483.652 6  89293964.02006        38.938    21806482.935 7  85573434.39907        46.375
G04  22274459.964 7 117053092.67707        42.406    22274459.701 4        25.656    22274460.248 4  91210212.07204        25.656    22274458.738 6  91210213.08206        37.563    22274462.858 7  87409796.80207        43.688
G06  21832478.203 7 114730505.03007        44.688    21832478.020 6        41.594    21832479.079 6  89400420.74406        41.594    21832479.436 6  89400385.75206        37.969    21832479.272 7  85675431.25107        45.563
G09  22497085.842 7 118222994.76407        42.563    22497085.257 4        25.813    22497085.549 4  92121831.71104        25.813    22497085.163 6  92121808.72606        36.125    22497085.940 7  88283419.48107        44.188
G14  23045133.736 6 121103023.03806        40.438    23045133.482 3        22.031    23045133.065 3  94366003.65703        22.031    23045132.003 5  94366004.65805        35.625    23045136.244 7  90434098.76507        42.063
G17  20206823.768 8 106187616.46208        49.281    20206823.268 8        51.406    20206821.272 8  82743607.08208        51.406    20206821.336 7  82743602.09207        43.250
G19  20406925.275 8 107239157.15408        48.000    20406924.006 6        36.906    20406921.210 6  83562984.91806        36.906
G22  24366120.859 6 128044908.20806        39.000    24366119.639 2        15.938    24366117.184 2  99775292.56302        15.938
G28  22340514.910 7 117400236.98807        42.969    22340514.034 3        23.063    22340512.938 3  91480704.30503        23.063
J01  36955037.190 7 194200119.90307        43.813    36955035.655 6 151324714.57606        37.563    36955037.902 7 145019493.59207        45.094
J02  37364527.618 5 196351949.00705        35.438    37364528.296 5 153001500.34205        32.844    37364529.479 6 146626446.86906        37.813
J03  38196527.046 7 200724141.35407        47.469    38196526.581 7 156408439.17907        43.875    38196527.852 8 149891374.79208        49.156
J07  37148149.620 6 195214841.92106        38.844    37148148.083 6 152115455.26806        39.781    37148149.137 7 145777346.91207        45.469
> 2021 03 19 12 00 37.0000000  0 23
E01  27528244.829 5 144661919.41105        35.344    27528247.294 6 108026764.92206        38.094    27528246.233 6 110844851.24506        37.313    27528246.492 6 109435807.62706        40.719
E03  25661647.136 6 134852911.15606        41.750    25661649.301 6 100701869.81806        41.813    25661648.686 7 103328866.01207        42.000    25661648.817 7 102015368.95807        44.844
E07  26982767.329 6 141795441.99506        37.594    26982770.249 6 105886237.29506        37.625    26982769.148 6 108648483.71606        37.313    26982769.730 6 107267365.55006        40.469
E08  22548525.675 7 118493328.42007        46.000    22548526.305 7  88485296.63207        45.375    22548525.314 7  90793601.86707        45.625    22548525.818 8  89639449.29208        48.500
E13  23622412.718 8 124136834.72808        48.063    23622413.753 7  92699696.57307        47.031    23622412.931 7  95117951.54807        47.781    23622413.334 8  93908836.60308        50.406
E15  24639372.976 7 129481003.33607        43.594    24639375.794 7  96690504.28907        44.031    24639374.870 7  99212842.50707        43.844    24639375.355 7  97951674.94107        46.906
E21  26160021.635 6 137471876.35506        39.500    26160024.233 6 102657588.08306        40.688    26160023.276 6 105335605.31106        40.406    26160023.685 7 103996599.73807        43.563
E26  26192414.913 6 137642079.66706        36.781    26192418.066 6 102784685.03106        38.500    26192417.558 6 105466021.48806        39.531    26192417.755 7 104125352.80107        42.063
E27  27222577.335 5 143055635.33305        34.500    27222580.024 5 106827294.52805        35.469    27222578.101 5 109614087.45805        34.594    27222579.394 6 108220691.53206        38.094
G01  23752182.876 6 124818752.65706        36.125    23752182.563 2        15.125    23752185.520 2  97261421.10502        15.125    23752185.326 5  97261274.11805        32.344    23752183.922 6  93208990.48306        40.063
G03  21807028.134 7 114596782.58807        44.844    21807028.018 5        30.219    21807028.504 5  89296211.09205        30.219    21807029.102 6  89296197.08906        39.125    21807028.288 7  85575574.43407        46.438
G04  22274284.855 7 117052172.60507        42.281    22274284.596 4        25.594    22274285.153 4  91209495.13204        25.594    22274283.591 6  91209496.14206        37.563    22274287.724 7  87409109.73707        43.750
G06  21832190.517 7 114728993.06407        44.531    21832190.330 6        41.438    21832191.362 6  89399242.58706        41.438    21832191.845 6  89399207.60006        38.188    21832191.625 7  85674302.19307        45.625
G09  22496592.956 7 118220405.41707        42.594    22496592.366 4        25.656    22496592.803 4  92119814.04004        25.656    22496592.469 5  92119791.03805        35.969    22496593.163 7  88281485.87307        44.188
G14  23045773.806 6 121106386.47606        40.375    23045773.552 3        21.844    23045773.160 3  94368624.51203        21.844    23045772.137 5  94368625.51505        35.625    23045776.287 6  90436610.42806        41.875
G17  20206767.797 8 106187322.23608        49.125    20206767.301 8        51.313    20206765.282 8  82743377.81508        51.313    20206765.510 7  82743372.82307        43.219
G19  20406623.982 7 107237573.77807        47.844    20406622.713 6        36.813    20406619.912 6  83561751.12006        36.813
G22  24366761.378 6 128048274.65606        38.656    24366760.158 2        15.875    24366757.833 2  99777915.75902        15.875
G28  22341044.173 7 117403018.41807        42.844    22341043.293 3        22.969    22341042.284 3  91482871.65603        22.969
J01  36955094.635 7 194200422.07707        43.688    36955093.237 6 151324950.05506        37.594    36955095.386 7 145019719.25107        45.125
J02  37364651.427 5 196352598.86605        35.281    37364651.788 5 153002006.69505        32.406    37364653.067 6 146626932.15706        37.813
J03  38196432.861 7 200723646.03307        47.500    38196432.200 7 156408053.21807        44.031    38196433.593 8 149891004.91008        49.125
J07  37148176.259 6 195214981.39606        38.938    37148174.738 6 152115563.94406        39.844    37148175.717 7 145777451.06907        45.375
> 2021 03 19 12 00 38.0000000  0 23
E01  27528182.681 5 144661592.71705        35.156    27528185.052 6 108026520.94606        38.094    27528184.004 6 110844600.90706        37.344    27528184.328 6 109435560.46906        40.719
E03  25661856.815 6 134854012.86306        41.750    25661859.000 6 100702692.52206        41.750    25661858.285 6 103329710.17806        41.906    25661858.469 7 102016202.39207        44.813
E07  26982213.156 6 141792530.25706        37.281    26982216.064 6 105884062.96306        37.719    26982215.005 6 108646252.65006        37.438    26982215.651 6 107265162.85106        40.594
E08  22548231.849 7 118491784.43307        45.938    22548232.513 7  88484143.66707        45.313    22548231.501 7  90792418.82507        45.531    22548232.015 8  89638281.29008        48.438
E13  23622321.517 8 124136355.35808        48.000    23622322.512 7  92699338.60207        47.031    23622321.730 7  95117584.24007        47.688    23622322.122 8  93908473.96508        50.375
E15  24639617.302 7 129482287.33807        43.656    24639620.103 7  96691463.11907        43.906    24639619.224 7  99213826.35307        43.906    24639619.693 7  97952646.28007        46.875
E21  26160369.566 6 137473705.19706        39.500    26160372.216 6 102658953.78406        40.531    26160371.310 6 105337006.64006        40.500    26160371.706 7 103997983.25207        43.531
E26  26192085.901 6 137640350.95206        36.813    26192089.104 6 102783394.11906        38.563    26192088.610 6 105464696.88506        39.563    26192088.809 7 104124045.04507        42.094
E27  27223139.392 5 143058589.18705        34.188    27223142.045 5 106829500.32405        35.219    27223140.385 5 109616350.77505        34.406    27223141.504 6 108222926.09006        37.844
G01  23752700.300 5 124821470.65205        35.969    23752699.987 2        15.125    23752702.797 2  97263538.99602        15.125    23752702.446 5  97263392.02605        32.406    23752701.114 6  93211020.15206        40.031
G03  21807573.681 7 114599649.31507        44.813    21807573.565 5        30.313    21807574.042 5  89298444.90105        30.313    21807574.545 6  89298430.89606        39.063    21807573.793 7  85577715.16707        46.438
G04  22274109.911 7 117051253.73807        42.281    22274109.652 4        25.375    22274110.294 4  91208779.13704        25.375    22274108.896 6  91208780.13306        37.688    22274112.853 7  87408423.56607        43.813
G06  21831902.932 7 114727481.87307        44.656    21831902.745 6        41.438    21831903.787 6  89398065.03606        41.438    21831904.380 6  89398030.05206        38.000    21831904.041 7  85673173.70707        45.625
G09  22496100.368 7 118217817.00307        42.500    22496099.783 4        25.406    22496100.245 4  92117797.09304        25.406    22496100.400 6  92117774.10806        36.000    22496100.595 7  88279552.96307        44.031
G14  23046413.871 6 121109750.69806        40.500    23046413.617 3        21.688    23046413.398 3  94371245.99503        21.688    23046412.432 5  94371246.99705        35.875    23046416.499 6  90439122.67406        41.969
G17  20206712.024 8 106187029.12608        49.188    20206711.524 8        51.250    20206709.499 8  82743149.41508        51.250    20206709.881 7  82743144.42607        43.219
G19  20406322.909 7 107235991.50007        47.875    20406321.640 6        36.750    20406318.824 6  83560518.17506        36.750
G22  24367402.458 6 128051641.78106        38.750    24367401.242 2        16.063    24367398.559 2  99780539.49802        16.063
G28  22341573.634 7 117405800.76607        42.906    22341572.758 3        22.813    22341571.751 3  91485039.71903        22.813
J01  36955152.253 7 194200724.97107        43.656    36955150.919 6 151325186.06406        37.938    36955153.030 7 145019945.44407        45.156
J02  37364775.323 5 196353249.36905        35.219    37364775.444 5 153002513.62305        32.750    37364776.906 6 146627417.90906        37.688
J03  38196338.680 7 200723151.31707        47.500    38196338.039 7 156407667.72307        43.906    38196339.455 8 149890635.48008        49.063
J07  37148202.846 6 195215121.49206        38.625    37148201.276 6 152115673.12706        39.781    37148202.391 7 145777555.69007        45.375
> 2021 03 19 12 00 39.0000000  0 23
E01  27528120.621 5 144661266.45405        35.375    27528122.928 6 108026277.32106        38.000    27528121.746 6 110844350.92306        37.469    27528122.252 6 109435313.66406        40.750
E03  25662066.572 6 134855115.02006        41.719    25662068.759 6 100703515.56206        41.781    25662068.040 6 103330554.68906        41.781    25662068.193 7 102017036.16707        44.750
E07  26981659.090 6 141789618.59006        37.250    26981662.177 6 105881888.67906        37.406    26981660.964 6 108644021.65006        37.156    26981661.586 6 107262960.21006        40.281
E08  22547938.111 7 118490240.87507        45.844    22547938.775 7  88482991.00807        45.281    22547937.772 7  90791236.09207        45.469    22547938.274 8  89637113.59308        48.406
E13  23622230.316 8 124135876.08608        48.063    23622231.272 7  92698980.70207        47.031    23622230.527 7  95117217.01007        47.781    23622230.914 8  93908111.39908        50.406
E15  24639861.686 7 129483571.46607        43.625    24639864.491 7  96692422.04507        44.000    24639863.574 7  99214810.29807        43.750    24639864.054 7  97953617.71507        46.844
E21  26160717.665 6 137475534.41306        39.500    26160720.236 6 102660319.73906        40.469    26160719.370 6 105338408.23606        40.281    26160719.786 7 103999367.02907        43.406
E26  26191757.043 6 137638622.25106        37.000    26191760.128 6 102782103.20306        38.375    26191759.646 6 105463372.28906        39.656    26191759.836 7 104122737.28707        42.094
E27  27223701.314 5 143061543.03505        34.250    27223703.987 5 106831706.07905        35.250    27223702.642 5 109618614.12105        34.719    27223703.587 6 108225160.63906        38.031
G01  23753217.569 6 124824188.73506        36.031    23753217.261 2        14.875    23753220.025 2  97265656.99402        14.875    23753219.841 5  97265510.00705        32.125    23753218.395 6  93213049.87406        40.063
G03  21808119.342 7 114602516.34007        44.750    21808119.226 5        30.281    21808119.638 5  89300678.94505        30.281    21808120.136 6  89300664.95606        39.000    21808119.402 7  85579856.12907        46.375
G04  22273935.158 7 117050335.45207        42.469    22273934.899 4        25.375    22273935.552 4  91208063.59504        25.375    22273934.121 6  91208064.60206        37.500    22273938.003 7  87407737.84707        43.813
G06  21831615.474 7 114725970.84207        44.594    21831615.287 6        41.375    21831616.248 6  89396887.61206        41.375    21831616.946 6  89396852.61406        38.094    21831616.483 7  85672045.34707        45.563
G09  22495607.811 7 118215228.95607        42.719    22495607.221 4        25.281    22495607.750 4  92115780.42904        25.281    22495608.128 5  92115757.43505        35.969    22495608.072 7  88277620.33107        44.063
G14  23047054.070 6 121113115.09906        40.500    23047053.816 3        21.844    23047053.636 3  94373867.60703        21.844    23047052.427 5  94373868.60605        35.750    23047056.742 6  90441635.05606        41.844
G17  20206656.348 8 106186736.52608        49.250    20206655.848 8        51.188    20206653.823 8  82742921.41608        51.188    20206654.086 7  82742916.42707        43.188
G19  20406021.784 7 107234409.70907        47.813    20406020.515 6        36.688    20406017.817 6  83559285.61306        36.688
G22  24368043.560 6 128055008.93806        38.813    24368042.344 2        15.844    24368039.226 2  99783163.27102        15.844
G28  22342103.070 7 117408583.41607        42.938    22342102.194 3        22.750    22342101.240 3  91487208.01803        22.750
J01  36955209.883 7 194201027.99607        43.500    36955208.743 6 151325422.19506        37.906    36955210.699 7 145020171.71907        45.188
J02  37364899.077 5 196353899.90805        35.219    37364899.166 5 153003020.48905        32.844    37364900.583 6 146627903.71106        37.813
J03  38196244.474 7 200722656.59507        47.375    38196243.806 7 156407282.21907        43.938    38196245.310 8 149890266.04008        49.094
J07  37148229.466 6 195215261.64106        38.813    37148227.831 6 152115782.32506        39.844    37148229.077 7 145777660.34507        45.469
> 2021 03 19 12 00 40.0000000  0 23
E01  27528058.485 5 144660940.89605        35.375    27528060.928 6 108026034.22206        38.000    27528059.721 6 110844101.48506        37.219    27528060.307 6 109435067.39806        40.625
E03  25662276.512 6 134856217.87406        41.813    25662278.630 6 100704339.11806        41.844    25662277.792 6 103331399.71906        41.813    25662278.064 7 102017870.46207        44.813
E07  26981104.983 6 141786707.19706        37.406    26981108.202 6 105879714.57806        37.625    26981106.834 6 108641790.83306        36.906    26981107.547 6 107260757.75006        40.313
E08  22547644.483 7 118488697.93607        45.906    22547645.163 7  88481838.81607        45.406    22547644.156 7  90790053.84307        45.500    22547644.654 8  89635946.37108        48.469
E13  23622139.206 8 124135397.15108        48.094    23622140.106 7  92698623.05507        47.031    23622139.352 7  95116850.03107        47.656    23622139.778 8  93907749.08708        50.344
E15  24640106.205 7 129484855.95007        43.625    24640108.937 7  96693381.23607        44.000    24640108.075 7  99215794.50907        43.656    24640108.486 7  97954589.41607        46.813
E21  26161065.905 6 137477364.20006        39.688    26161068.479 6 102661686.13506        40.563    26161067.566 6 105339810.27706        40.344    26161067.987 7 104000751.24807        43.500
E26  26191428.074 6 137636893.78506        36.906    26191431.229 6 102780812.45606        38.500    26191430.739 6 105462047.87406        39.594    26191430.926 7 104121429.70707        42.094
E27  27224263.439 5 143064497.04605        33.938    27224266.067 5 106833912.02205        35.313    27224264.789 5 109620877.58105        34.500    27224265.697 6 108227395.34106        37.969
G01  23753734.835 6 124826907.05806        36.188    23753734.527 2        14.938    23753737.289 2  97267775.17302        14.938    23753736.901 5  97267628.20005        32.063    23753735.689 6  93215079.78906        40.219
G03  21808665.025 7 114605383.91007        44.750    21808664.909 5        30.250    21808665.350 5  89302913.41405        30.250    21808665.902 6  89302899.42406        39.063    21808665.111 7  85581997.48807        46.375
G04  22273760.623 7 117049417.99207        42.344    22273760.364 4        25.313    22273760.980 4  91207348.68804        25.313    22273759.932 6  91207349.68306        37.750    22273763.413 7  87407052.72107        43.750
G06  21831327.957 7 114724460.20707        44.750    21831327.770 6        41.313    21831328.786 6  89395710.49406        41.313    21831329.575 6  89395675.49106        38.250    21831329.066 7  85670917.26407        45.563
G09  22495115.447 7 118212641.46007        42.781    22495114.862 4        25.500    22495115.312 4  92113764.19804        25.500    22495116.005 6  92113741.20106        36.031    22495115.684 7  88275688.11407        44.063
G14  23047694.308 6 121116479.89606        40.656    23047694.054 3        21.688    23047693.945 3  94376489.52503        21.688    23047692.877 5  94376490.53705        35.656    23047697.038 6  90444147.72306        41.813
G17  20206600.779 8 106186444.65708        49.313    20206600.283 8        51.219    20206598.285 8  82742693.98608        51.219    20206598.562 7  82742688.98807        43.094
G19  20405720.885 7 107232828.62507        47.844    20405719.616 6        36.688    20405716.948 6  83558053.59906        36.688
G22  24368684.400 6 128058376.39106        38.906    24368683.180 2        15.688    24368680.010 2  99785787.25902        15.688
G28  22342632.735 7 117411366.61507        42.938    22342631.859 3        22.625    22342630.819 3  91489376.74503        22.625
J01  36955267.802 7 194201331.34507        43.531    36955266.525 6 151325658.57106        37.594    36955268.465 7 145020398.25007        45.188
J02  37365022.771 5 196354550.69005        35.219    37365023.502 5 153003527.62405        32.750    37365024.481 6 146628389.68806        37.750
J03  38196150.333 7 200722162.08307        47.375    38196149.683 7 156406896.89407        43.969    38196151.227 8 149889896.76808        49.125
J07  37148256.237 6 195215402.03406        38.813    37148254.617 6 152115891.72006        39.688    37148255.830 7 145777765.18607        45.469
> 2021 03 19 12 00 41.0000000  0 23
E01  27527996.669 5 144660615.69105        34.813    27527999.055 6 108025791.35906        38.125    27527997.823 6 110843852.29306        37.188    27527998.420 6 109434821.36806        40.656
E03  25662486.369 6 134857321.01506        41.625    25662488.533 6 100705162.89106        41.875    25662487.686 6 103332244.98306        41.844    25662487.975 7 102018704.98007        44.781
E07  26980550.856 6 141783795.65906        37.344    26980554.234 6 105877540.39306        37.719    26980552.681 6 108639559.93006        37.000    26980553.473 6 107258555.20706        40.406
E08  22547350.932 7 118487155.24307        45.969    22547351.606 7  88480686.80207        45.375    22547350.555 7  90788871.77807        45.531    22547351.083 8  89634779.33308        48.469
E13  23622048.026 8 124134918.14208        48.000    23622048.913 7  92698265.35807        47.094    23622048.203 7  95116483.00107        47.750    23622048.624 8  93907386.72308        50.438
E15  24640350.594 7 129486140.38707        43.656    24640353.311 7  96694340.40207        44.031    24640352.513 7  99216778.69007        43.781    24640352.910 7  97955561.09107        46.813
E21  26161414.057 6 137479194.16706        39.750    26161416.709 6 102663052.68006        40.688    26161415.784 6 105341212.47206        40.313    26161416.215 7 104002135.61607        43.531
E26  26191099.110 6 137635165.13406        37.063    26191102.346 6 102779521.58606        38.563    26191101.838 6 105460723.33506        39.563    26191101.984 7 104120122.00207        42.125
E27  27224825.698 5 143067450.89005        34.281    27224828.113 5 106836117.80205        35.469    27224827.078 5 109623140.91805        34.375    27224827.824 6 108229629.89606        37.938
G01  23754252.416 6 124829625.29606        36.000    23754252.117 2        15.219    23754254.571 2  97269893.28602        15.219    23754254.161 5  97269746.31505        32.469    23754253.009 6  93217109.64006        40.188
G03  21809210.709 7 114608251.61807        44.719    21809210.589 5        30.375    21809211.058 5  89305147.99205        30.375    21809211.616 6  89305133.98106        39.063    21809210.812 7  85584138.95907        46.375
G04  22273586.035 7 117048500.94707        42.438    22273585.776 4        25.438    22273586.466 4  91206634.10204        25.438    22273585.430 6  91206635.10706        37.438    22273588.870 7  87406367.91307        43.656
G06  21831040.402 7 114722949.55407        44.688    21831040.215 6        41.406    21831041.314 6  89394533.35906        41.406    21831041.670 6  89394498.36706        38.063    21831041.585 7  85669789.17907        45.563
G09  22494623.246 7 118210054.11407        42.969    22494622.656 4        25.625    22494622.951 4  92111748.08704        25.625    22494623.449 5  92111725.09105        35.938    22494623.298 7  88273756.00607        44.063
G14  23048334.536 6 121119844.70206        40.500    23048334.277 3        21.781    23048334.259 3  94379111.45603        21.781    23048333.129 5  94379112.45605        35.563    23048337.303 6  90446660.40206        41.813
G17  20206545.290 8 106186153.11908        49.344    20206544.790 8        51.313    20206542.815 8  82742466.81308        51.313    20206543.099 7  82742461.81507        43.063
G19  20405420.065 8 107231247.85408        48.000    20405418.796 6        36.750    20405416.142 6  83556821.82906        36.750
G22  24369325.079 6 128061743.72106        38.969    24369323.859 2        15.938    24369320.793 2  99788411.16102        15.938
G28  22343162.470 7 117414149.94107        43.000    22343161.590 3        22.719    22343160.434 3  91491545.57303        22.719
J01  36955325.529 7 194201634.64707        43.469    36955324.241 6 151325894.90906        37.656    36955326.195 7 145020624.73607        45.219
J02  37365146.535 5 196355201.34505        35.469    37365147.215 5 153004034.63105        32.531    37365148.258 6 146628875.55706        37.781
J03  38196056.199 7 200721667.39907        47.344    38196055.472 7 156406511.42607        43.875    38196057.077 8 149889527.35608        49.188
J07  37148282.730 6 195215542.27506        38.844    37148281.312 6 152116000.99206        39.688    37148282.537 7 145777869.90207        45.438
> 2021 03 19 12 00 42.0000000  0 23
E01  27527934.961 5 144660290.78305        34.969    27527937.258 6 108025548.73006        38.125    27527936.074 6 110843603.32506        37.375    27527936.600 6 109434575.57106        40.750
E03  25662696.335 6 134858424.44006        41.563    25662698.498 6 100705986.88606        41.906    25662697.652 6 103333090.47506        41.844    25662697.962 7 102019539.72307        44.844
E07  26979996.878 6 141780884.00906        37.406    26980000.281 6 105875366.10606        37.594    26979998.532 6 108637328.91206        37.063    26979999.403 6 107256352.55506        40.344
E08  22547057.381 7 118485612.76607        45.781    22547058.085 7  88479534.95407        45.375    22547057.061 7  90787689.88007        45.563    22547057.565 8  89633612.45908        48.469
E13  23621956.942 7 124134439.07307        47.969    23621957.745 7  92697907.61007        47.063    23621957.047 7  95116115.91707        47.750    23621957.466 8  93907024.30608        50.406
E15  24640595.002 7 129487424.77607        43.500    24640597.673 7  96695299.51907        43.938    24640596.876 7  99217762.82907        43.875    24640597.320 7  97956532.71707        46.875
E21  26161762.348 6 137481024.30906        39.500    26161764.939 6 102664419.34706        40.531    26161764.070 6 105342614.79606        40.375    26161764.478 7 104003520.11107        43.438
E26  26190770.239 6 137633436.30006        36.938    26190773.371 6 102778230.58106        38.375    26190772.848 6 105459398.64006        39.656    26190772.994 7 104118814.15207        42.094
E27  27225387.778 5 143070404.50705        34.094    27225390.052 5 106838323.45205        35.219    27225389.244 5 109625404.09405        34.688    27225389.876 6 108231864.31206        38.000
G01  23754769.711 6 124832343.41206        36.375    23754769.412 2        15.031    23754771.871 2  97272011.30102        15.031    23754771.133 5  97271864.28605        32.281    23754770.111 6  93219139.39306        40.156
G03  21809756.407 7 114611119.46707        44.719    21809756.282 5        30.313    21809756.797 5  89307382.67605        30.313    21809757.454 6  89307368.67906        39.031    21809756.530 7  85586280.53407        46.406
G04  22273411.738 7 117047584.31607        42.406    22273411.475 4        25.406    22273412.015 4  91205919.84604        25.406    22273410.980 6  91205920.84806        37.375    22273414.405 7  87405683.42107        43.750
G06  21830752.800 7 114721438.88207        44.813    21830752.613 6        41.344    21830753.838 6  89393356.21006        41.344    21830754.070 6  89393321.22706        38.188    21830754.080 7  85668661.07107        45.563
G09  22494130.934 7 118207466.95407        43.000    22494130.344 4        25.594    22494130.648 4  92109732.11904        25.594    22494131.460 6  92109709.11306        36.156    22494130.940 7  88271824.04107        44.125
G14  23048974.826 6 121123209.49106        40.813    23048974.567 3        21.688    23048974.573 3  94381733.37703        21.688    23048973.582 5  94381734.38205        35.688    23048977.640 6  90449173.08406        41.875
G17  20206489.857 8 106185861.90908        49.469    20206489.357 8        51.250    20206487.402 8  82742239.89408        51.250    20206487.497 7  82742234.89907        43.063
G19  20405119.288 8 107229667.39208        48.094    20405118.019 6        36.688    20405115.381 6  83555590.30006        36.688
G22  24369965.751 6 128065110.91506        39.281    24369964.535 2        15.688    24369961.568 2  99791034.94602        15.688
G28  22343692.189 7 117416933.39307        43.188    22343691.309 3        22.719    22343690.084 3  91493714.49203        22.719
J01  36955383.340 7 194201937.87107        43.438    36955382.039 6 151326131.18306        38.000    36955383.940 7 145020851.17907        45.219
J02  37365270.534 5 196355851.84905        35.219    37365270.549 5 153004541.53405        32.656    37365272.090 6 146629361.34406        37.781
J03  38195962.096 7 200721172.52507        47.344    38195961.316 7 156406125.81007        44.000    38195962.907 8 149889157.80608        49.188
J07  37148309.190 6 195215682.36006        38.719    37148308.005 6 152116110.15106        39.813    37148309.193 7 145777974.51907        45.500
> 2021 03 19 12 00 43.0000000  0 23
E01  27527872.973 5 144659965.93005        34.875    27527875.532 6 108025306.14306        38.188    27527874.206 6 110843354.43606        37.375    27527874.793 6 109434329.83406        40.719
E03  25662906.273 6 134859527.93206        41.625    25662908.547 6 100706810.92306        41.813    25662907.640 6 103333936.00906        41.813    25662907.963 7 102020374.50807        44.813
E07  26979442.861 6 141777972.01006        37.250    26979446.126 6 105873191.54906        37.844    26979444.444 6 108635097.63806        37.000    26979445.275 6 107254149.63906        40.438
E08  22546763.878 7 118484070.29407        45.719    22546764.519 7  88478383.10107        45.313    22546763.507 7  90786507.97607        45.563    22546764.044 8  89632445.58108        48.500
E13  23621865.659 8 124133959.69108        48.094    23621866.514 7  92697549.62807        46.969    23621865.857 7  95115748.60007        47.813    23621866.249 8  93906661.65708        50.406
E15  24640839.356 7 129488708.88507        43.563    24640842.052 7  96696258.43407        43.969    24640841.291 7  99218746.75607        43.656    24640841.685 7  97957504.13907        46.781
E21  26162110.598 6 137482854.39806        39.563    26162113.226 6 102665785.97206        40.500    26162112.302 6 105344017.06506        40.438    26162112.742 7 104004904.56007        43.500
E26  26190441.147 6 137631707.05506        36.906    26190444.321 6 102776939.26006        38.406    26190443.803 6 105458073.62806        39.656    26190443.949 7 104117505.98607        42.125
E27  27225949.690 5 143073357.74505        33.938    27225951.982 5 106840528.75205        35.031    27225951.271 5 109627666.96005        34.688    27225951.856 6 108234098.39606        37.938
G01  23755286.627 5 124835061.13905        35.906    23755286.323 2        15.031    23755288.991 2  97274129.01702        15.031    23755288.198 5  97273982.01205        32.594    23755287.250 6  93221168.87406        40.156
G03  21810302.095 7 114613987.21807        44.594    21810301.975 5        30.281    21810302.537 5  89309617.28805        30.281    21810303.215 6  89309603.28306        39.063    21810302.239 7  85588422.03607        46.313
G04  22273237.509 7 117046667.86007        42.125    22273237.250 4        25.250    22273237.581 4  91205205.72304        25.250    22273236.791 6  91205206.72406        37.438    22273239.968 7  87404999.04607        43.656
G06  21830465.208 7 114719927.95607        44.688    21830465.021 6        41.313    21830466.321 6  89392178.86406        41.313    21830466.580 6  89392143.87306        38.188    21830466.567 7  85667532.79507        45.531
G09  22493638.606 7 118204879.71507        42.906    22493638.016 4        25.625    22493638.313 4  92107716.08704        25.625    22493639.398 6  92107693.08206        36.188    22493638.590 7  88269892.00307        44.031
G14  23049615.069 6 121126574.06406        40.438    23049614.810 3        21.688    23049614.856 3  94384355.11903        21.688    23049614.173 5  94384356.12105        35.719    23049617.912 6  90451685.58506        41.656
G17  20206434.464 8 106185570.79608        49.281    20206433.968 8        51.344    20206432.012 8  82742013.05208        51.344    20206431.960 7  82742008.06107        42.875
G19  20404818.555 8 107228086.99108        48.000    20404817.286 6        36.719    20404814.628 6  83554358.82006        36.719
G22  24370606.221 6 128068477.75806        38.813    24370604.996 2        16.031    24370602.280 2  99793658.44702        16.031
G28  22344221.916 7 117419716.75107        42.844    22344221.040 3        22.656    22344219.748 3  91495883.34503        22.656
J01  36955440.987 7 194202240.80307        43.469    36955439.707 6 151326367.24306        37.875    36955441.583 7 145021077.38807        45.188
J02  37365394.717 5 196356501.97205        35.281    37365394.244 5 153005048.11405        32.688    37365395.786 6 146629846.81706        37.500
J03  38195867.864 7 200720677.23007        47.344    38195866.963 7 156405739.86307        43.875    38195868.658 8 149888787.94908        49.125
J07  37148335.843 6 195215822.06906        38.594    37148334.516 6 152116219.02406        39.969    37148335.784 7 145778078.84107        45.469
> 2021 03 19 12 00 44.0000000  0 23
E01  27527811.244 5 144659642.06505        35.156    27527813.966 6 108025064.29306        38.219    27527812.688 6 110843106.24106        37.344    27527813.187 6 109434084.81106        40.781
E03  25663116.475 6 134860632.36206        41.719    25663118.717 6 100707635.65206        41.906    25663117.939 6 103334782.26106        41.938    25663118.134 7 102021209.99807        44.875
E07  26978888.824 6 141775060.53906        37.625    26978891.913 6 105871017.39206        37.594    26978890.430 6 108632866.76306        37.031    26978891.223 6 107251947.12206        40.375
E08  22546470.484 7 118482528.70507        45.938    22546471.202 7  88477231.92207        45.406    22546470.141 7  90785326.77307        45.563    22546470.696 8  89631279.38908        48.500
E13  23621774.551 8 124133480.90108        48.125    23621775.439 7  92697192.08907        47.063    23621774.728 7  95115381.73207        47.750    23621775.144 8  93906299.45208        50.406
E15  24641083.821 7 129489993.59007        43.688    24641086.595 7  96697217.79607        44.063    24641085.757 7  99219731.15407        43.781    24641086.148 7  97958476.01707        46.875
E21  26162458.991 6 137484685.32506        39.844    26162461.663 6 102667153.21706        40.625    26162460.667 6 105345419.97106        40.375    26162461.166 7 104006289.63507        43.500
E26  26190112.131 6 137629978.30306        37.000    26190115.473 6 102775648.31106        38.469    26190114.822 6 105456749.01106        39.625    26190114.985 7 104116198.20507        42.094
E27  27226511.961 5 143076311.40505        34.031    27226514.153 5 106842734.42305        35.250    27226513.313 5 109629930.15305        34.656    27226513.957 6 108236332.82806        38.000
G01  23755803.816 6 124837779.43906        36.344    23755803.512 2        15.188    23755806.255 2  97276247.15902        15.188    23755805.265 5  97276100.12905        32.438    23755804.527 6  93223198.76706        40.156
G03  21810847.831 7 114616855.75107        44.813    21810847.711 5        30.406    21810848.405 5  89311852.50905        30.406    21810849.008 6  89311838.52206        38.688    21810848.120 7  85590564.13407        46.313
G04  22273063.222 7 117045752.47007        42.281    22273062.963 4        25.344    22273063.349 4  91204492.43404        25.344    22273062.184 6  91204493.43006        37.281    22273065.797 7  87404315.48407        43.656
G06  21830177.947 7 114718417.67707        44.906    21830177.760 6        41.375    21830178.930 6  89391002.02406        41.375    21830179.506 6  89390967.02606        38.156    21830179.170 7  85666404.99007        45.563
G09  22493146.339 7 118202293.31007        42.844    22493145.749 4        25.594    22493146.117 4  92105700.70604        25.594    22493147.071 6  92105677.70606        36.219    22493146.491 7  88267960.60007        44.031
G14  23050255.467 6 121129939.29106        40.688    23050255.213 3        21.594    23050255.228 3  94386977.37103        21.594    23050254.800 5  94386978.37005        35.969    23050258.298 6  90454198.56906        41.906
G17  20206379.220 8 106185280.66608        49.500    20206378.720 8        51.313    20206376.806 8  82741786.97708        51.313    20206376.812 7  82741781.98707        42.938
G19  20404518.063 8 107226507.56808        48.219    20404516.794 6        36.750    20404514.064 6  83553128.09906        36.750
G22  24371247.078 6 128071845.12706        39.156    24371245.849 2        16.125    24371243.085 2  99796282.37102        16.125
G28  22344751.611 7 117422500.90307        43.063    22344750.735 3        22.563    22344749.568 3  91498052.80903        22.563
J01  36955498.669 7 194202544.32807        43.500    36955497.524 6 151326603.74506        37.813    36955499.365 7 145021304.05107        45.344
J02  37365518.801 5 196357152.62705        35.719    37365517.475 5 153005555.12305        32.719    37365519.576 6 146630332.69806        37.656
J03  38195773.633 7 200720182.40407        47.469    38195773.036 7 156405354.28607        43.969    38195774.478 8 149888418.43408        49.156
J07  37148362.355 6 195215962.26506        38.688    37148361.256 6 152116328.26706        39.969    37148362.459 7 145778183.54707        45.469
> 2021 03 19 12 00 45.0000000  0 23
E01  27527749.765 5 144659318.53505        35.344    27527752.362 6 108024822.69606        38.031    27527751.173 6 110842858.34706        37.250    27527751.604 6 109433840.06406        40.656
E03  25663326.726 6 134861737.13206        41.875    25663328.895 6 100708460.65006        41.719    25663328.179 6 103335628.76506        41.844    25663328.372 7 102022045.74907        44.750
E07  26978334.884 6 141772148.96206        37.469    26978337.743 6 105868843.16906        37.563    26978336.469 6 108630635.82406        37.063    26978337.162 6 107249744.54106        40.344
E08  22546177.191 7 118480987.39907        46.000    22546177.903 7  88476080.94607        45.344    22546176.849 7  90784145.76807        45.469    22546177.398 8  89630113.39908        48.406
E13  23621683.398 8 124133002.08408        48.281    23621684.339 7  92696834.53207        47.031    23621683.592 7  95115014.84907        47.656    23621684.031 8  93905937.23308        50.375
E15  24641328.312 7 129491278.31607        43.781    24641331.042 7  96698177.15107        43.938    24641330.225 7  99220715.53907        43.750    24641330.625 7  97959447.88907        46.813
E21  26162807.507 6 137486516.48006        39.531    26162810.156 6 102668520.63406        40.531    26162809.140 6 105346823.05806        40.375    26162809.608 7 104007674.88607        43.406
E26  26189783.081 6 137628249.41906        37.250    26189786.471 6 102774357.25706        38.531    26189785.804 6 105455424.29006        39.563    26189785.999 7 104114890.31507        42.094
E27  27227074.006 5 143079264.93205        34.125    27227076.246 5 106844939.96705        35.219    27227075.441 5 109632193.22905        34.844    27227076.013 6 108238567.13806        38.063
G01  23756321.174 6 124840497.65106        36.406    23756320.866 2        15.313    23756323.461 2  97278365.24802        15.313    23756322.786 5  97278218.24805        32.531    23756321.819 6  93225228.60206        40.219
G03  21811393.672 7 114619724.48807        44.781    21811393.552 5        30.438    21811394.324 5  89314087.89005        30.438    21811394.600 6  89314073.89506        38.750    21811393.969 7  85592706.36207        46.344
G04  22272889.104 7 117044837.55007        42.375    22272888.845 4        25.406    22272889.215 4  91203779.51504        25.406    22272888.289 6  91203780.51906        37.156    22272891.670 7  87403632.26907        43.719
G06  21829890.539 7 114716907.44407        44.906    21829890.352 6        41.375    21829891.553 6  89389825.22006        41.375    21829892.084 6  89389790.22906        38.125    21829891.778 7  85665277.20607        45.531
G09  22492654.029 7 118199707.10007        42.906    22492653.439 4        25.594    22492653.988 4  92103685.47604        25.594    22492654.992 6  92103662.49906        36.031    22492654.369 7  88266029.33707        44.063
G14  23050895.799 6 121133304.56306        40.563    23050895.545 3        21.375    23050895.604 3  94389599.65903        21.375    23050895.416 5  94389600.64305        35.688    23050898.689 6  90456711.59206        41.719
G17  20206324.044 8 106184990.92508        49.438    20206323.544 8        51.344    20206321.675 8  82741561.20508        51.344    20206321.677 7  82741556.21507        42.844
G19  20404217.524 8 107224928.49808        48.125    20404216.255 6        36.750    20404213.566 6  83551897.65806        36.750
G22  24371888.212 6 128075212.41606        39.063    24371886.983 2        16.281    24371883.873 2  99798906.22702        16.281
G28  22345281.448 7 117425285.23607        42.969    22345280.572 3        22.625    22345279.415 3  91500222.41903        22.625
J01  36955556.399 7 194202847.84007        43.594    36955555.137 6 151326840.26106        38.063    36955557.099 7 145021530.69607        45.219
J02  37365642.404 5 196357803.18605        35.500    37365641.188 5 153006062.03405        33.000    37365643.290 6 146630818.49506        37.938
J03  38195679.449 7 200719687.45107        47.438    38195678.987 7 156404968.60607        44.063    38195680.270 8 149888048.82808        49.188
J07  37148389.014 6 195216102.38606        38.813    37148388.071 6 152116437.44806        39.750    37148389.116 7 145778288.17307        45.375
> 2021 03 19 12 00 46.0000000  0 23
E01  27527688.293 5 144658995.17705        35.219    27527690.817 6 108024581.23306        38.125    27527689.689 6 110842610.57606        37.219    27527690.070 6 109433595.44606        40.688
E03  25663537.102 6 134862842.05206        41.688    25663539.149 6 100709285.73806        41.750    25663538.335 6 103336475.38806        41.906    25663538.614 7 102022881.60607        44.781
E07  26977780.931 6 141769237.14306        37.438    26977783.610 6 105866668.75106        37.531    26977782.359 6 108628404.67706        36.969    26977783.039 6 107247541.75806        40.313
E08  22545883.897 7 118479446.18307        46.063    22545884.616 7  88474930.03407        45.375    22545883.535 7  90782964.83307        45.531    22545884.118 8  89628947.47608        48.469
E13  23621592.304 8 124132523.06508        48.219    23621593.179 7  92696476.81907        47.000    23621592.445 7  95114647.80607        47.781    23621592.876 8  93905574.85608        50.406
E15  24641572.734 7 129492562.83207        43.813    24641575.482 7  96699136.37407        44.000    24641574.676 7  99221699.77307        43.750    24641575.062 7  97960419.61807        46.844
E21  26163156.142 6 137488347.66406        39.781    26163158.709 6 102669888.07506        40.594    26163157.595 6 105348226.16606        40.344    26163158.077 7 104009060.16007        43.500
E26  26189454.100 6 137626520.22106        37.188    26189457.403 6 102773065.98106        38.469    26189456.698 6 105454099.31906        39.719    26189456.950 7 104113582.19107        42.156
E27  27227636.075 5 143082218.12205        34.281    27227638.184 5 106847145.25805        35.250    27227637.375 5 109634456.04905        34.875    27227637.962 6 108240801.19506        38.094
G01  23756838.310 6 124843215.60506        36.531    23756838.006 2        15.500    23756840.658 2  97280483.13802        15.500    23756840.096 5  97280336.10605        32.156    23756839.069 6  93227258.23306        40.250
G03  21811939.623 7 114622593.21707        44.875    21811939.503 5        30.500    21811940.251 5  89316323.26205        30.500    21811940.270 6  89316309.25306        38.750    21811939.862 7  85594848.59807        46.219
G04  22272715.058 7 117043922.89307        42.375    22272714.799 4        25.531    22272715.126 4  91203066.79504        25.531    22272714.164 6  91203067.80806        37.156    22272717.636 7  87402949.24907        43.656
G06  21829603.113 7 114715397.02807        44.813    21829602.926 6        41.406    21829604.126 6  89388648.27306        41.406    21829604.406 6  89388613.28106        38.281    21829604.341 7  85664149.31107        45.500
G09  22492161.853 7 118197120.90207        42.875    22492161.263 4        25.594    22492161.841 4  92101670.25804        25.594    22492162.638 6  92101647.27406        36.219    22492162.265 7  88264098.08207        44.063
G14  23051536.143 6 121136669.66906        40.625    23051535.884 3        21.500    23051535.959 3  94392221.81703        21.500    23051535.404 5  94392222.83905        35.531    23051539.086 6  90459224.51206        41.781
G17  20206268.912 8 106184701.37408        49.469    20206268.412 8        51.313    20206266.580 8  82741335.58108        51.313    20206266.532 7  82741330.59207        42.969
G19  20403917.177 8 107223349.58608        48.188    20403915.912 6        36.719    20403913.100 6  83550667.33506        36.719
G22  24372528.874 6 128078579.44606        39.156    24372527.636 2        16.219    24372524.608 2  99801529.89702        16.219
G28  22345811.166 7 117428069.55107        43.125    22345810.295 3        22.750    22345809.244 3  91502392.01803        22.750
J01  36955614.077 7 194203151.14507        43.719    36955612.617 6 151327076.58706        37.969    36955614.763 7 145021757.18207        45.313
J02  37365766.278 5 196358453.44705        35.750    37365765.073 5 153006568.76205        32.875    37365767.016 6 146631304.08806        37.750
J03  38195585.173 7 200719192.17007        47.563    38195584.744 7 156404582.68707        44.094    38195586.025 8 149887678.96908        49.313
J07  37148415.568 6 195216242.21406        39.000    37148414.711 6 152116546.40106        39.875    37148415.681 7 145778392.57607        45.625
> 2021 03 19 12 00 47.0000000  0 23
E01  27527626.895 5 144658672.12805        35.281    27527629.315 6 108024339.98406        38.281    27527628.319 6 110842363.06406        37.313    27527628.594 6 109433351.06606        40.781
E03  25663747.428 6 134863947.27206        41.750    25663749.475 6 100710111.07906        41.813    25663748.582 6 103337322.25306        41.875    25663748.946 7 102023717.70807        44.813
E07  26977226.788 6 141766325.20506        37.656    26977229.328 6 105864494.26206        37.500    26977228.207 6 108626173.46006        37.188    26977228.857 6 107245338.90506        40.375
E08  22545590.669 7 118477905.19707        46.094    22545591.410 7  88473779.30607        45.438    22545590.317 7  90781784.08207        45.438    22545590.882 8  89627781.73608        48.469
E13  23621501.095 8 124132043.97708        48.344    23621502.048 7  92696119.06407        46.969    23621501.259 7  95114280.71007        47.719    23621501.705 8  93905212.43008        50.406
E15  24641817.182 7 129493847.32307        44.031    24641819.914 7  96700095.56807        44.000    24641819.111 7  99222683.99707        43.844    24641819.495 7  97961391.32607        46.875
E21  26163504.665 6 137490179.04306        39.719    26163507.238 6 102671255.67706        40.719    26163506.090 6 105349629.44906        40.375    26163506.578 7 104010445.60307        43.531
E26  26189124.937 6 137624790.86506        37.438    26189128.391 6 102771774.58006        38.594    26189127.618 6 105452774.22006        39.594    26189127.879 7 104112273.94007        42.188
E27  27228197.852 5 143085171.13505        34.219    27228200.148 5 106849350.45605        35.188    27228199.402 5 109636718.77205        34.719    27228199.879 6 108243035.14906        38.000
G01  23757355.629 6 124845933.42506        36.563    23757355.334 2        15.031    23757357.819 2  97282600.91002        15.031    23757357.796 5  97282453.93905        32.375    23757356.285 6  93229287.80206        40.281
G03  21812485.651 7 114625462.08707        44.938    21812485.531 5        30.500    21812486.213 5  89318558.74605        30.500    21812486.092 6  89318544.75406        38.781    21812485.768 7  85596990.94107        46.188
G04  22272541.101 7 117043008.68207        42.469    22272540.842 4        25.531    22272541.153 4  91202354.42404        25.531    22272540.254 6  91202355.42306        37.000    22272543.696 7  87402266.56007        43.594
G06  21829315.711 7 114713886.61807        44.813    21829315.524 6        41.375    21829316.708 6  89387471.33306        41.375    21829317.070 6  89387436.34706        38.375    21829316.942 7  85663021.41207        45.563
G09  22491669.731 7 118194534.89707        42.875    22491669.141 4        25.656    22491669.708 4  92099655.18904        25.656    22491670.303 6  92099632.20906        36.313    22491670.207 7  88262166.98207        44.031
G14  23052176.538 6 121140034.81006        40.531    23052176.284 3        21.375    23052176.291 3  94394844.00303        21.375    23052175.843 5  94394845.02305        35.531    23052179.505 6  90461737.44306        41.844
G17  20206213.825 8 106184412.17308        49.500    20206213.325 8        51.344    20206211.552 8  82741110.23008        51.344    20206211.469 7  82741105.24007        42.813
G19  20403616.800 8 107221770.99808        48.219    20403615.535 6        36.750    20403612.692 6  83549437.26806        36.750
G22  24373169.297 6 128081946.37206        38.969    24373168.059 2        15.938    24373165.239 2  99804153.46002        15.938
G28  22346341.109 7 117430854.01907        43.000    22346340.233 3        22.656    22346339.078 3  91504561.73203        22.656
J01  36955671.720 7 194203454.38907        43.719    36955670.159 6 151327312.89006        38.000    36955672.514 7 145021983.64107        45.438
J02  37365890.051 5 196359103.60205        35.813    37365888.744 5 153007075.34805        32.969    37365890.727 6 146631789.59306        37.875
J03  38195490.949 7 200718696.71807        47.500    38195490.563 7 156404196.61607        44.000    38195491.739 8 149887308.99408        49.313
J07  37148442.201 6 195216381.88406        39.000    37148441.327 6 152116655.22706        40.031    37148442.250 7 145778496.88807        45.594
> 2021 03 19 12 00 48.0000000  0 23
E01  27527565.733 5 144658349.83605        35.563    27527568.059 6 108024099.32206        38.063    27527566.903 6 110842116.11306        37.406    27527567.302 6 109433107.26106        40.719
E03  25663957.889 6 134865053.22906        41.875    25663959.943 6 100710936.95906        41.875    25663959.036 6 103338169.68006        41.875    25663959.398 7 102024554.36107        44.844
E07  26976672.633 6 141763413.57406        37.688    26976675.073 6 105862319.99306        37.656    26976674.328 6 108623942.47106        37.063    26976674.778 6 107243136.27606        40.375
E08  22545297.563 7 118476364.91507        46.031    22545298.363 7  88472629.09407        45.344    22545297.221 7  90780603.86607        45.469    22545297.776 8  89626616.52108        48.438
E13  23621409.992 8 124131565.27708        48.313    23621410.988 7  92695761.59707        47.000    23621410.157 7  95113913.91907        47.719    23621410.604 8  93904850.30008        50.375
E15  24642061.667 7 129495132.20407        44.063    24642064.434 7  96701055.06307        44.031    24642063.577 7  99223668.52407        43.844    24642064.003 7  97962363.33707        46.906
E21  26163853.329 6 137492011.04706        39.844    26163855.828 6 102672623.72406        40.656    26163854.655 6 105351033.18306        40.344    26163855.194 7 104011831.49507        43.563
E26  26188796.001 6 137623061.79306        37.563    26188799.303 6 102770483.36806        38.625    26188798.598 6 105451449.34806        39.563    26188798.826 7 104110965.89907        42.125
E27  27228760.092 5 143088124.37605        34.250    27228762.103 5 106851555.79605        35.156    27228761.413 5 109638981.64005        34.844    27228761.855 6 108245269.25606        38.094
G01  23757872.795 6 124848651.61306        36.531    23757872.482 2        15.406    23757875.132 2  97284719.00202        15.406    23757874.755 5  97284572.01105        31.844    23757873.517 6  93231317.62506        40.156
G03  21813031.688 7 114628331.56107        45.031    21813031.568 5        30.563    21813032.283 5  89320794.69805        30.563    21813032.021 6  89320780.69506        38.781    21813031.830 7  85599133.72107        46.188
G04  22272367.176 7 117042095.32407        42.656    22272366.917 4        25.500    22272367.395 4  91201642.71904        25.500    22272365.986 6  91201643.71806        37.188    22272369.855 7  87401584.50707        43.625
G06  21829028.368 7 114712376.63807        44.938    21829028.181 6        41.406    21829029.370 6  89386294.72506        41.406    21829029.901 6  89386259.73706        38.219    21829029.621 7  85661893.83207        45.563
G09  22491177.765 7 118191949.50507        42.938    22491177.175 4        25.813    22491177.718 4  92097640.59704        25.813    22491178.475 6  92097617.60106        36.219    22491178.287 7  88260236.32907        44.031
G14  23052817.099 6 121143400.40206        40.719    23052816.849 3        21.563    23052816.779 3  94397466.54803        21.563    23052816.242 5  94397467.54905        35.563    23052819.974 6  90464250.70906        41.781
G17  20206158.961 8 106184123.75408        49.500    20206158.465 8        51.281    20206156.672 8  82740885.48708        51.281    20206156.608 7  82740880.49707        42.688
G19  20403316.620 8 107220193.17508        48.250    20403315.355 6        36.719    20403312.436 6  83548207.79506        36.719
G22  24373809.893 6 128085313.61006        38.969    24373808.655 2        16.094    24373806.009 2  99806777.29002        16.094
G28  22346871.068 7 117433639.06507        42.969    22346870.188 3        22.656    22346869.014 3  91506731.89903        22.656
J01  36955729.403 7 194203758.03907        43.719    36955727.616 6 151327549.48906        37.750    36955730.291 7 145022210.38907        45.344
J02  37366013.916 5 196359754.06005        35.813    37366012.540 5 153007582.19705        32.969    37366014.595 6 146632275.32406        37.906
J03  38195396.807 7 200718201.54107        47.563    38195396.436 7 156403810.74607        44.000    38195397.522 8 149886939.21308        49.250
J07  37148468.835 6 195216521.88006        38.875    37148467.932 6 152116764.30306        39.813    37148468.868 7 145778601.41207        45.563
> 2021 03 19 12 00 49.0000000  0 24
E01  27527504.626 5 144658028.25505        35.094    27527506.876 6 108023859.16806        38.188    27527505.591 6 110841869.69906        37.344    27527506.103 6 109432863.97606        40.781
E03  25664168.499 6 134866159.85606        41.906    25664170.499 6 100711763.32806        41.750    25664169.562 6 103339017.61406        41.938    25664169.971 7 102025391.51307        44.813
E07  26976118.491 6 141760502.20706        37.719    26976121.108 6 105860145.92306        37.375    26976120.380 6 108621711.66106        37.156    26976120.758 6 107240933.83606        40.281
E08  22545004.539 7 118474825.22607        46.125    22545005.389 7  88471479.32507        45.406    22545004.257 7  90779424.10707        45.531    22545004.778 8  89625451.75908        48.500
E13  23621318.959 8 124131086.87808        48.344    23621319.945 7  92695404.34607        47.094    23621319.140 7  95113547.35507        47.781    23621319.571 8  93904488.39408        50.438
E15  24642306.275 7 129496417.42907        44.125    24642309.005 7  96702014.79707        44.063    24642308.148 7  99224653.29007        43.906    24642308.569 7  97963335.58807        46.938
E21  26164202.211 6 137493843.61006        39.844    26164204.531 6 102673992.18906        40.750    26164203.431 6 105352437.35906        40.500    26164203.918 7 104013217.81507        43.656
E26  26188467.011 6 137621332.89206        37.750    26188470.377 6 102769192.32006        38.719    26188469.566 6 105450124.60906        39.563    26188469.849 7 104109658.00707        42.188
E27  27229322.103 5 143091077.82405        34.031    27229324.268 5 106853761.29305        35.063    27229323.508 5 109641244.68505        34.906    27229323.875 6 108247503.52706        38.031
G01  23758390.079 6 124851370.05206        36.406    23758389.766 2        15.500    23758392.508 2  97286837.27002        15.500    23758392.062 5  97286690.24305        31.969    23758390.707 6  93233347.60806        40.063
G03  21813577.880 7 114631201.53407        45.000    21813577.760 5        30.563    21813578.461 5  89323031.04205        30.563    21813578.384 6  89323017.04506        38.750    21813577.964 7  85601276.88407        46.188
G04  22272193.429 7 117041182.74507        42.625    22272193.170 4        25.344    22272193.726 4  91200931.61804        25.344    22272192.171 6  91200932.64006        37.156    22272196.229 7  87400903.04307        43.594
G06  21828741.128 7 114710867.04107        44.906    21828740.936 6        41.375    21828742.104 6  89385118.41606        41.375    21828742.830 6  89385083.43306        38.219    21828742.341 7  85660766.53707        45.500
G09  22490685.933 7 118189364.65707        42.969    22490685.343 4        25.688    22490685.862 4  92095626.43004        25.688    22490686.655 6  92095603.43906        36.313    22490686.444 7  88258306.08307        44.031
G14  23053457.681 6 121146766.36406        40.500    23053457.431 3        21.313    23053457.321 3  94400089.37703        21.313    23053456.521 5  94400090.38005        35.844    23053460.548 6  90466764.24106        41.688
G17  20206104.230 8 106183836.04108        49.281    20206103.730 8        51.219    20206101.926 8  82740661.29508        51.219    20206101.819 7  82740656.29807        42.875
G19  20403016.489 8 107218616.02608        48.281    20403015.220 6        36.656    20403012.314 6  83546978.84606        36.656
G21  25672672.545 3                        19.281
G22  24374450.450 6 128088681.08806        38.719    24374449.207 2        15.938    24374446.855 2  99809401.30802        15.938
G28  22347401.248 7 117436424.61507        42.875    22347400.368 3        22.625    22347399.058 3  91508902.44603        22.625
J01  36955787.155 7 194204061.98107        43.719    36955785.518 6 151327786.34206        37.688    36955788.074 7 145022437.36507        45.281
J02  37366137.632 6 196360404.74006        36.000    37366136.493 5 153008089.23005        32.844    37366138.379 6 146632761.21806        37.781
J03  38195302.610 7 200717706.54307        47.563    38195302.178 7 156403425.05107        44.000    38195303.328 8 149886569.57808        49.281
J07  37148495.452 6 195216662.06306        38.906    37148494.467 6 152116873.55006        40.000    37148495.570 7 145778706.10507        45.563
> 2021 03 19 12 00 50.0000000  0 24
E01  27527443.341 5 144657706.76305        35.313    27527445.726 6 108023619.10606        38.156    27527444.301 6 110841623.36606        37.219    27527444.922 6 109432620.77806        40.688
E03  25664379.120 6 134867266.57906        41.906    25664381.142 6 100712589.78006        41.844    25664380.195 7 103339865.62207        42.000    25664380.571 7 102026228.74207        44.875
E07  26975564.497 6 141757590.50606        37.594    26975567.004 6 105857971.59206        37.500    26975566.201 6 108619480.64806        37.156    26975566.692 6 107238731.16406        40.375
E08  22544711.516 7 118473285.57407        46.125    22544712.459 7  88470329.58207        45.406    22544711.250 7  90778244.36707        45.656    22544711.788 8  89624287.01708        48.531
E13  23621227.932 8 124130608.21708        48.344    23621228.840 7  92695046.90707        47.063    23621228.044 7  95113180.58707        47.719    23621228.484 8  93904126.28908        50.406
E15  24642550.909 7 129497702.39607        44.063    24642553.514 7  96702974.35707        44.000    24642552.714 7  99225637.88707        43.844    24642553.087 7  97964307.66507        46.906
E21  26164550.808 6 137495676.15306        40.063    26164553.330 6 102675360.65106        40.844    26164552.150 6 105353841.50606        40.563    26164552.647 7 104014604.12007        43.750
E26  26188138.050 6 137619603.64306        37.781    26188141.281 6 102767900.99206        38.656    26188140.575 6 105448799.59106        39.594    26188140.786 7 104108349.83207        42.188
E27  27229884.040 5 143094030.87105        34.406    27229886.270 5 106855966.49305        35.063    27229885.451 5 109643507.38805        34.906    27229885.824 6 108249737.48206        38.063
G01  23758907.331 6 124854088.16206        36.094    23758907.018 2        15.875    23758909.767 2  97288955.27602        15.875    23758908.973 5  97288808.27405        32.125    23758907.924 6  93235377.37806        40.219
G03  21814124.050 7 114634071.44307        44.906    21814123.930 5        30.531    21814124.598 5  89325267.33105        30.531    21814124.482 6  89325253.34206        38.563    21814124.095 7  85603420.00007        46.219
G04  22272019.853 7 117040270.40407        42.594    22272019.599 4        25.094    22272020.097 4  91200220.70604        25.094    22272018.521 6  91200221.72206        37.313    22272022.627 7  87400221.74007        43.594
G06  21828453.778 7 114709357.20907        44.750    21828453.586 6        41.313    21828454.798 6  89383941.92306        41.313    21828455.494 6  89383906.91706        38.438    21828455.006 7  85659639.05807        45.531
G09  22490194.064 7 118186779.77007        42.719    22490193.474 4        25.688    22490194.005 4  92093612.23104        25.688    22490194.553 6  92093589.22806        36.156    22490194.595 7  88256375.80507        44.000
G14  23054098.199 6 121150132.11506        40.469    23054097.954 3        21.219    23054097.765 3  94402712.04503        21.219    23054096.826 5  94402713.05405        35.719    23054101.083 6  90469277.63906        41.656
G17  20206049.506 8 106183548.46208        49.281    20206049.006 8        51.219    20206047.207 8  82740437.20708        51.219    20206047.052 7  82740432.22107        42.844
G19  20402716.382 8 107217038.99908        48.156    20402715.117 6        36.656    20402712.219 6  83545749.99506        36.656
G21  25673095.838 3                        21.063
G22  24375091.319 6 128092048.25906        38.813    24375090.067 2        15.875    24375087.617 2  99812025.07402        15.875
G28  22347931.149 7 117439210.10907        42.719    22347930.273 3        22.500    22347929.039 3  91511072.96503        22.500
J01  36955844.843 7 194204365.68307        43.844    36955843.051 6 151328022.97706        37.875    36955845.902 7 145022664.15107        45.313
J02  37366261.352 6 196361055.08606        36.031    37366260.159 5 153008595.97105        32.813    37366262.092 6 146633246.86106        37.875
J03  38195208.309 7 200717211.17607        47.594    38195207.983 7 156403039.04407        44.031    38195209.063 8 149886199.65908        49.281
J07  37148521.968 6 195216801.90206        39.031    37148520.968 6 152116982.51606        39.844    37148522.113 7 145778810.54507        45.625
> 2021 03 19 12 00 51.0000000  0 23
E01  27527382.335 5 144657386.03605        35.250    27527384.669 6 108023379.60506        38.156    27527383.194 6 110841377.62506        37.188    27527383.880 6 109432378.15506        40.688
E03  25664589.934 6 134868374.04406        41.844    25664591.899 6 100713416.79506        41.813    25664590.992 7 103340714.20307        42.000    25664591.315 7 102027066.54007        44.875
E07  26975010.517 6 141754679.15106        37.594    26975012.971 6 105855797.54006        37.469    26975012.202 6 108617249.86106        37.281    26975012.676 6 107236528.74506        40.375
E08  22544418.637 7 118471746.61707        46.281    22544419.594 7  88469180.36307        45.500    22544418.384 7  90777065.17307        45.656    22544418.937 8  89623122.81008        48.563
E13  23621136.924 8 124130129.95008        48.375    23621137.818 7  92694689.76207        47.125    23621137.043 7  95112814.12207        47.813    23621137.482 8  93903764.48508        50.469
E15  24642795.534 7 129498987.78207        44.000    24642798.141 7  96703934.22507        43.969    24642797.333 7  99226622.79107        44.000    24642797.689 7  97965280.05207        46.938
E21  26164899.499 6 137497509.33006        40.031    26164902.175 6 102676729.58206        40.781    26164901.004 6 105355246.16506        40.438    26164901.487 7 104015990.91507        43.656
E26  26187809.058 6 137617874.68006        37.813    26187812.304 6 102766609.88906        38.594    26187811.666 6 105447474.80706        39.813    26187811.769 7 104107041.88807        42.250
E27  27230446.163 5 143096984.22005        34.219    27230448.373 5 106858171.90005        34.906    27230447.298 5 109645770.32905        35.188    27230447.786 6 108251971.65406        38.094
G01  23759424.908 6 124856806.65106        36.219    23759424.595 2        15.656    23759427.058 2  97291073.56902        15.656    23759426.114 5  97290926.55605        31.781    23759425.241 6  93237407.39706        40.031
G03  21814670.381 7 114636941.96907        45.031    21814670.261 5        30.563    21814670.829 5  89327504.10405        30.563    21814670.750 6  89327490.10606        38.969    21814670.309 7  85605563.56907        46.125
G04  22271846.419 7 117039358.93907        42.750    22271846.165 4        25.125    22271846.705 4  91199510.48104        25.125    22271844.916 6  91199511.47306        37.125    22271849.180 7  87399541.10507        43.500
G06  21828166.609 7 114707847.83007        44.688    21828166.422 6        41.313    21828167.572 6  89382765.78406        41.313    21828168.289 6  89382730.79606        38.219    21828167.804 7  85658511.93107        45.563
G09  22489702.271 7 118184195.49607        42.750    22489701.681 4        25.844    22489702.275 4  92091598.51104        25.844    22489702.820 6  92091575.51406        36.469    22489702.853 7  88254446.00307        44.125
G14  23054738.766 6 121153498.34806        40.250    23054738.521 3        21.344    23054738.329 3  94405335.07803        21.344    23054736.799 5  94405336.09505        35.688    23054741.634 6  90471791.38206        41.750
G17  20205995.005 8 106183261.67508        49.281    20205994.509 8        51.219    20205992.635 8  82740213.73808        51.219    20205992.484 7  82740208.74507        42.813
G19  20402416.428 8 107215462.74208        48.156    20402415.159 6        36.719    20402412.267 6  83544521.74206        36.719
G22  24375732.392 6 128095415.76006        38.656    24375731.140 2        16.250    24375728.414 2  99814649.10502        16.250
G28  22348461.488 7 117441996.19307        42.750    22348460.608 3        22.375    22348459.172 3  91513243.93903        22.375
J01  36955902.776 7 194204669.78307        43.938    36955901.090 6 151328259.94706        37.844    36955903.744 7 145022891.23707        45.250
J02  37366384.815 5 196361705.75305        35.719    37366384.314 5 153009103.02505        32.906    37366385.966 6 146633732.75606        37.813
J03  38195114.168 7 200716716.08307        47.563    38195113.672 7 156402653.25707        44.063    38195114.836 8 149885829.95208        49.281
J07  37148548.809 6 195216942.07006        38.656    37148547.704 6 152117091.76106        39.875    37148548.826 7 145778915.21207        45.656
> 2021 03 19 12 00 52.0000000  0 23
E01  27527321.397 5 144657065.97005        35.469    27527323.772 6 108023140.60506        38.250    27527322.317 6 110841132.38406        37.375    27527322.999 6 109432136.03606        40.813
E03  25664800.767 6 134869482.15806        41.938    25664802.726 6 100714244.27506        41.688    25664801.909 6 103341563.28206        41.938    25664802.183 7 102027904.82007        44.781
E07  26974456.387 6 141751768.01506        37.438    26974458.929 6 105853623.64606        37.344    26974458.314 6 108615019.24506        37.219    26974458.718 6 107234326.49006        40.313
E08  22544125.865 7 118470208.24007        46.375    22544126.806 7  88468031.57807        45.438    22544125.664 7  90775886.42007        45.688    22544126.189 8  89621959.04108        48.563
E13  23621045.937 8 124129651.96208        48.375    23621046.878 7  92694332.81907        47.094    23621046.122 7  95112447.87707        47.813    23621046.525 8  93903402.89108        50.469
E15  24643040.225 7 129500273.47407        44.094    24643042.844 7  96704894.31807        43.938    24643041.977 7  99227607.92607        44.000    24643042.345 7  97966252.66607        46.938
E21  26165248.412 6 137499343.04306        40.125    26165251.113 6 102678098.92206        40.625    26165249.879 6 105356651.21306        40.500    26165250.443 7 104017378.10807        43.594
E26  26187480.023 6 137616145.88306        38.031    26187483.271 6 102765318.90806        38.594    26187482.661 6 105446150.15506        39.594    26187482.783 7 104105734.07107        42.156
E27  27231008.204 5 143099937.64705        33.906    27231010.279 5 106860377.42005        35.219    27231009.309 5 109648033.38705        35.250    27231009.829 6 108254205.94306        38.219
G01  23759942.256 6 124859525.34206        36.156    23759941.939 2        15.219    23759944.420 2  97293192.01402        15.219    23759943.048 5  97293045.00505        31.906    23759942.569 6  93239437.59406        39.938
G03  21815216.674 7 114639812.97507        45.156    21815216.554 5        30.594    21815217.176 5  89329741.25305        30.594    21815216.830 6  89329727.25206        38.688    21815216.632 7  85607707.50207        46.031
G04  22271673.190 7 117038448.23807        42.719    22271672.940 4        25.125    22271673.435 4  91198800.84704        25.125    22271671.725 6  91198801.84306        36.688    22271675.884 7  87398861.03407        43.469
G06  21827879.477 7 114706338.78607        44.656    21827879.290 6        41.313    21827880.409 6  89381589.90606        41.313    21827880.926 6  89381554.93606        38.125    21827880.665 7  85657385.05407        45.469
G09  22489210.491 7 118181611.76007        42.813    22489209.901 4        25.844    22489210.633 4  92089585.20604        25.844    22489211.414 6  92089562.21806        36.344    22489211.163 7  88252516.57907        44.000
G14  23055379.341 6 121156864.91906        40.500    23055379.096 3        21.313    23055378.965 3  94407958.37903        21.313    23055377.435 5  94407959.38905        35.750    23055382.252 6  90474305.38306        41.813
G17  20205940.590 8 106182975.56908        49.406    20205940.090 8        51.188    20205938.202 8  82739990.79708        51.188    20205938.117 7  82739985.80907        42.813
G19  20402116.549 8 107213887.14008        48.250    20402115.280 6        36.656    20402112.436 6  83543294.00106        36.656
G22  24376373.304 6 128098783.50206        38.781    24376372.057 2        16.094    24376369.282 2  99817273.29902        16.094
G28  22348991.743 7 117444782.76807        42.750    22348990.867 3        22.531    22348989.359 3  91515415.29703        22.531
J01  36955960.682 7 194204974.16007        43.750    36955959.233 6 151328497.11106        37.781    36955961.670 7 145023118.54307        45.250
J02  37366508.387 5 196362356.61805        35.594    37366508.350 5 153009610.17705        33.000    37366509.708 6 146634218.80106        37.781
J03  38195019.914 7 200716221.15907        47.500    38195019.418 7 156402267.60307        44.031    38195020.624 8 149885460.36208        49.219
J07  37148575.385 6 195217082.43506        39.031    37148574.348 6 152117201.13306        39.688    37148575.563 7 145779020.02707        45.500
> 2021 03 19 12 00 53.0000000  0 23
E01  27527260.857 5 144656746.52005        35.250    27527263.037 6 108022902.04606        38.094    27527261.603 6 110840887.59506        37.125    27527262.194 6 109431894.36306        40.625
E03  25665011.768 6 134870590.85906        41.875    25665013.751 6 100715072.20006        41.688    25665012.859 6 103342412.79806        41.875    25665013.154 7 102028743.54007        44.750
E07  26973902.542 6 141748857.04606        37.344    26973905.041 6 105851449.86006        37.406    26973904.307 6 108612788.77106        37.250    26973904.778 6 107232124.35906        40.344
E08  22543833.254 7 118468670.39307        46.344    22543834.160 7  88466883.18507        45.438    22543833.038 7  90774708.06707        45.656    22543833.552 8  89620795.66908        48.531
E13  23620954.991 8 124129174.19408        48.375    23620955.981 7  92693976.04807        47.063    23620955.220 7  95112081.79807        47.813    23620955.612 8  93903041.46608        50.438
E15  24643284.877 7 129501559.41407        44.125    24643287.530 7  96705854.59107        43.844    24643286.634 7  99228593.26507        43.750    24643287.050 7  97967225.47107        46.750
E21  26165597.436 6 137501177.21506        40.000    26165600.160 6 102679468.58906        40.656    26165598.862 6 105358056.62506        40.375    26165599.471 7 104018765.64807        43.531
E26  26187151.070 6 137614417.20706        38.125    26187154.282 6 102764028.01606        38.656    26187153.726 6 105444825.58506        39.719    26187153.823 7 104104426.34107        42.219
E27  27231570.159 5 143102891.23805        34.375    27231572.288 5 106862582.98205        35.188    27231571.479 5 109650296.51805        35.188    27231571.876 6 108256440.28906        38.219
G01  23760459.710 6 124862244.19806        36.125    23760459.393 2        15.094    23760461.742 2  97295310.60602        15.094    23760460.842 5  97295163.63805        31.844    23760459.953 6  93241467.90906        40.094
G03  21815763.109 7 114642684.41407        45.250    21815762.989 5        30.500    21815763.595 5  89331978.73705        30.500    21815763.308 6  89331964.75406        38.688    21815763.042 7  85609851.76507        46.125
G04  22271500.065 7 117037538.24007        42.844    22271499.811 4        25.031    22271500.262 4  91198091.75304        25.031    22271498.533 6  91198092.74806        36.906    22271502.721 7  87398181.49407        43.469
G06  21827592.398 7 114704830.01907        44.688    21827592.211 6        41.281    21827593.304 6  89380414.24306        41.281    21827593.785 6  89380379.25006        38.281    21827593.552 7  85656258.37407        45.469
G09  22488718.873 7 118179028.44807        42.719    22488718.279 4        25.781    22488719.081 4  92087572.23804        25.781    22488719.650 6  92087549.25906        36.531    22488719.613 7  88250587.49507        44.000
G14  23056020.005 6 121160231.78206        40.438    23056019.760 3        21.406    23056019.726 3  94410581.90903        21.406    23056018.438 5  94410582.92305        35.406    23056022.840 6  90476819.59906        41.688
G17  20205886.292 8 106182690.08108        49.344    20205885.792 8        51.188    20205883.876 8  82739768.33708        51.188    20205883.983 7  82739763.34607        42.688
G19  20401816.705 8 107212312.14108        48.219    20401815.436 6        36.625    20401812.721 6  83542066.73006        36.625
G22  24377014.248 6 128102151.39906        38.781    24377012.996 2        16.063    24377010.186 2  99819897.63302        16.063
G28  22349522.254 7 117447569.76207        42.656    22349521.378 3        22.656    22349519.662 3  91517586.98703        22.656
J01  36956018.754 7 194205278.77707        43.750    36956017.282 6 151328734.46906        37.531    36956019.639 7 145023346.00607        45.281
J02  37366631.919 5 196363007.61105        35.594    37366632.542 5 153010117.47505        33.000    37366633.609 6 146634704.96106        37.656
J03  38194925.735 7 200715726.33907        47.563    38194925.166 7 156401882.02507        43.938    38194926.458 8 149885090.86008        49.281
J07  37148601.891 6 195217222.93906        38.906    37148601.341 6 152117310.61106        39.906    37148602.329 7 145779124.95007        45.625
> 2021 03 19 12 00 54.0000000  0 23
E01  27527200.217 5 144656427.07605        35.719    27527202.221 6 108022663.50406        38.250    27527200.802 6 110840642.83306        37.344    27527201.411 6 109431652.70906        40.813
E03  25665222.773 6 134871699.56206        41.844    25665224.691 6 100715900.12406        41.625    25665223.831 6 103343262.31806        41.969    25665224.134 7 102029582.26307        44.781
E07  26973348.472 6 141745945.67006        37.500    26973351.061 6 105849275.78806        37.469    26973350.258 6 108610557.99106        37.375    26973350.793 6 107229921.93106        40.406
E08  22543540.543 7 118467132.49107        46.406    22543541.496 7  88465734.74807        45.438    22543540.397 7  90773529.67707        45.656    22543540.898 8  89619632.25408        48.531
E13  23620864.010 8 124128696.08308        48.438    23620864.996 7  92693619.01207        47.156    23620864.250 7  95111715.44707        47.844    23620864.624 8  93902679.77308        50.500
E15  24643529.588 7 129502845.02207        44.125    24643532.208 7  96706814.62307        43.969    24643531.262 7  99229578.32307        44.000    24643531.692 7  97968198.01707        46.938
E21  26165946.639 6 137503011.31206        40.031    26165949.200 6 102680838.19706        40.656    26165947.928 6 105359461.96206        40.469    26165948.482 7 104020153.12107        43.594
E26  26186821.893 6 137612688.07606        37.875    26186825.191 6 102762736.79006        38.844    26186824.661 6 105443500.66206        39.688    26186824.779 7 104103118.26907        42.281
E27  27232132.140 5 143105844.30405        34.344    27232134.375 5 106864788.23105        35.313    27232133.450 5 109652559.27805        35.188    27232133.834 6 108258674.29606        38.281
G01  23760977.021 5 124864962.66605        35.969    23760976.700 2        14.750    23760979.091 2  97297428.89602        14.750    23760978.182 5  97297281.92005        32.063    23760977.255 6  93243497.94506        40.188
G03  21816309.478 7 114645555.70207        45.281    21816309.358 5        30.563    21816309.978 5  89334216.10205        30.563    21816309.862 6  89334202.11506        38.938    21816309.381 7  85611995.90807        46.156
G04  22271326.951 7 117036628.37507        42.969    22271326.701 4        25.188    22271327.116 4  91197382.76304        25.188    22271325.513 6  91197383.75906        36.688    22271329.623 7  87397502.04707        43.594
G06  21827305.230 7 114703320.95807        44.688    21827305.043 6        41.250    21827306.150 6  89379238.35206        41.250    21827306.605 6  89379203.36706        38.281    21827306.379 7  85655131.47407        45.469
G09  22488227.356 7 118176445.04807        42.781    22488226.766 4        25.625    22488227.498 4  92085559.19804        25.625    22488228.163 6  92085536.20506        36.844    22488228.043 7  88248658.32507        44.031
G14  23056660.744 6 121163598.36606        40.500    23056660.499 3        21.219    23056660.420 3  94413205.21903        21.219    23056659.455 5  94413206.22205        35.531    23056663.478 6  90479333.60406        41.781
G17  20205832.070 8 106182404.64508        49.500    20205831.570 8        51.188    20205829.564 8  82739545.91908        51.188    20205829.789 7  82739540.93807        42.781
G19  20401517.001 8 107210737.17308        48.281    20401515.732 6        36.625    20401513.015 6  83540839.48106        36.625
G22  24377654.948 6 128105518.90106        38.656    24377653.688 2        16.563    24377651.010 2  99822521.66102        16.563
G28  22350052.686 7 117450356.61007        42.844    22350051.806 3        22.719    22350049.934 3  91519758.55403        22.719
J01  36956076.683 7 194205583.04607        43.906    36956075.225 6 151328971.58606        37.750    36956077.535 7 145023573.23107        45.281
J02  37366755.672 5 196363658.24305        35.688    37366756.864 5 153010624.44105        33.125    37366757.457 6 146635190.79706        37.688
J03  38194831.362 7 200715231.06407        47.563    38194830.951 7 156401496.09007        44.031    38194832.222 8 149884721.00008        49.281
J07  37148628.596 6 195217363.02606        38.688    37148627.942 6 152117419.75206        39.813    37148628.995 7 145779229.55407        45.563
> 2021 03 19 12 00 55.0000000  0 23
E01  27527139.460 5 144656108.16305        35.594    27527141.533 6 108022425.35106        38.188    27527140.099 6 110840398.47106        37.281    27527140.740 6 109431411.45406        40.750
E03  25665433.862 6 134872808.74906        41.906    25665435.688 6 100716728.40806        41.594    25665434.931 7 103344112.22107        42.000    25665435.204 7 102030421.35707        44.781
E07  26972794.438 6 141743034.37106        37.688    26972796.973 6 105847101.76106        37.406    26972796.299 6 108608327.24606        37.375    26972796.777 6 107227719.54506        40.406
E08  22543247.945 7 118465595.01607        46.344    22543248.909 7  88464586.63507        45.406    22543247.833 7  90772351.61207        45.625    22543248.329 8  89618469.16508        48.531
E13  23620773.021 8 124128218.09308        48.438    23620774.020 7  92693262.06907        47.031    23620773.288 7  95111349.18707        47.750    23620773.662 8  93902318.17108        50.406
E15  24643774.212 7 129504130.77107        44.156    24643776.835 7  96707774.76207        44.000    24643775.887 7  99230563.51707        43.938    24643776.375 7  97969170.68407        46.938
E21  26166295.790 6 137504845.75906        40.000    26166298.249 6 102682208.08506        40.719    26166297.044 6 105360867.57906        40.563    26166297.550 7 104021540.87207        43.688
E26  26186492.926 6 137610958.95106        38.125    26186496.097 6 102761445.57006        38.719    26186495.550 6 105442175.75306        39.500    26186495.744 7 104101810.20507        42.156
E27  27232694.109 5 143108797.40205        34.094    27232696.418 5 106866993.45205        35.281    27232695.415 5 109654822.02105        35.219    27232695.805 6 108260908.27706        38.281
G01  23761494.454 5 124867681.21305        35.750    23761494.128 2        14.656    23761496.431 2  97299547.25902        14.656    23761495.946 5  97299400.28305        31.906    23761494.514 6  93245528.02906        40.094
G03  21816855.904 7 114648427.32807        45.219    21816855.779 5        30.594    21816856.433 5  89336453.73405        30.594    21816856.081 6  89336439.75106        38.719    21816855.785 7  85614140.30607        46.094
G04  22271153.775 7 117035719.12407        42.875    22271153.525 4        25.344    22271154.042 4  91196674.24904        25.344    22271152.479 6  91196675.25206        36.781    22271156.632 7  87396823.06007        43.438
G06  21827018.121 7 114701812.08107        44.594    21827017.934 6        41.250    21827019.022 6  89378062.60206        41.250    21827019.566 6  89378027.61606        38.219    21827019.270 7  85654004.71207        45.438
G09  22487735.754 7 118173862.00207        42.656    22487735.160 4        25.625    22487735.990 4  92083546.43604        25.625    22487736.861 6  92083523.45206        36.938    22487736.489 7  88246729.43507        44.063
G14  23057301.356 6 121166965.12706        40.344    23057301.111 3        21.250    23057301.052 3  94415828.66803        21.250    23057299.905 5  94415829.68405        35.094    23057304.086 6  90481847.75206        41.750
G17  20205777.847 8 106182119.73008        49.406    20205777.347 8        51.188    20205775.350 8  82739323.90608        51.188    20205775.539 7  82739318.92107        42.719
G19  20401217.362 8 107209162.69308        48.219    20401216.093 6        36.625    20401213.407 6  83539612.61406        36.625
G22  24378295.729 6 128108886.46206        38.750    24378294.473 2        16.594    24378291.852 2  99825145.72502        16.594
G28  22350583.006 7 117453143.75907        42.844    22350582.126 3        22.813    22350580.380 3  91521930.35703        22.813
J01  36956134.557 7 194205887.45307        43.750    36956133.270 6 151329208.78106        37.531    36956135.456 7 145023800.54107        45.406
J02  37366879.816 5 196364308.90405        35.719    37366880.824 5 153011131.45605        33.281    37366881.388 6 146635676.67106        37.781
J03  38194737.176 7 200714735.79107        47.531    38194736.650 7 156401110.16707        43.938    38194737.992 8 149884351.15508        49.250
J07  37148655.305 6 195217503.14206        38.750    37148654.529 6 152117528.93906        39.781    37148655.693 7 145779334.18807        45.625
> 2021 03 19 12 00 56.0000000  0 23
E01  27527078.732 6 144655789.79106        36.156    27527080.866 6 108022187.59506        38.156    27527079.497 6 110840154.52106        37.125    27527080.154 6 109431170.59906        40.688
E03  25665645.018 6 134873918.46706        41.656    25665646.866 6 100717557.10106        41.781    25665646.035 6 103344962.52106        41.938    25665646.376 7 102031260.85307        44.813
E07  26972240.370 6 141740123.16706        37.563    26972243.041 6 105844927.81906        37.500    26972242.381 6 108606096.58806        37.469    26972242.792 6 107225517.24406        40.500
E08  22542955.501 7 118464058.02707        46.438    22542956.404 7  88463438.88407        45.500    22542955.337 7  90771173.90807        45.688    22542955.849 8  89617306.43708        48.594
E13  23620682.057 8 124127740.27108        48.313    23620683.095 7  92692905.25707        47.063    23620682.365 7  95110983.07307        47.750    23620682.731 8  93901956.70908        50.438
E15  24644018.909 7 129505416.71907        44.219    24644021.482 7  96708735.04507        44.094    24644020.578 7  99231548.85507        43.906    24644021.080 7  97970143.49307        46.969
E21  26166644.849 6 137506680.62806        40.063    26166647.401 6 102683578.28606        40.656    26166646.210 6 105362273.51806        40.375    26166646.717 7 104022928.94407        43.563
E26  26186163.977 6 137609229.92506        38.063    26186167.050 6 102760154.39706        38.813    26186166.454 6 105440850.91406        39.500    26186166.717 7 104100502.19707        42.219
E27  27233256.095 5 143111750.53705        34.219    27233258.504 5 106869198.70505        35.375    27233257.337 5 109657084.80505        35.313    27233257.785 6 108263142.29606        38.313
G01  23762011.499 6 124870399.90006        36.156    23762011.186 2        14.750    23762013.762 2  97301665.69602        14.750    23762013.500 5  97301518.71005        32.094    23762011.836 6  93247558.19706        40.125
G03  21817402.415 7 114651299.34107        45.375    21817402.286 5        30.594    21817402.981 5  89338691.66305        30.594    21817402.745 6  89338677.67906        38.906    21817402.288 7  85616284.98907        46.125
G04  22270980.779 7 117034810.52907        42.969    22270980.529 4        25.281    22270981.075 4  91195966.25704        25.281    22270979.479 6  91195967.25806        36.875    22270983.736 7  87396144.57407        43.531
G06  21826730.989 7 114700303.42307        44.813    21826730.802 6        41.250    21826731.940 6  89376887.02406        41.250    21826732.548 6  89376852.03406        38.375    21826732.180 7  85652878.11707        45.469
G09  22487244.350 7 118171279.36207        42.531    22487243.751 4        25.594    22487244.572 4  92081533.99004        25.594    22487245.337 6  92081511.01806        36.844    22487245.033 7  88244800.84307        44.094
G14  23057942.171 6 121170332.15506        40.625    23057941.926 3        21.094    23057941.706 3  94418452.32603        21.094    23057940.663 5  94418453.33505        35.625    23057944.737 6  90484362.08206        41.719
G17  20205723.756 8 106181835.39208        49.594    20205723.256 8        51.156    20205721.244 8  82739102.34508        51.156    20205721.284 7  82739097.35507        42.781
G19  20400917.973 8 107207588.78408        48.406    20400916.704 6        36.563    20400913.916 6  83538386.19006        36.563
G22  24378936.456 6 128112254.14906        38.781    24378935.191 2        16.406    24378932.702 2  99827769.90502        16.406
G28  22351113.313 7 117455931.31107        43.000    22351112.437 3        22.656    22351110.844 3  91524102.47303        22.656
J01  36956192.523 7 194206192.04107        43.844    36956191.288 6 151329446.12606        37.594    36956193.397 7 145024027.99807        45.313
J02  37367003.430 5 196364959.65905        35.750    37367004.241 5 153011638.51305        32.844    37367005.156 6 146636162.62506        37.688
J03  38194642.971 7 200714240.58507        47.563    38194642.301 7 156400724.29207        43.906    38194643.760 8 149883981.36108        49.375
J07  37148682.116 6 195217643.33506        39.094    37148681.321 6 152117638.20106        39.813    37148682.381 7 145779438.89507        45.719
> 2021 03 19 12 00 57.0000000  0 23
E01  27527018.327 5 144655472.00305        35.625    27527020.384 6 108021950.29706        38.313    27527019.073 6 110839911.02306        37.281    27527019.685 6 109430930.20106        40.813
E03  25665856.304 6 134875028.77906        41.719    25665858.118 6 100718386.23006        41.875    25665857.335 7 103345813.27907        42.000    25665857.660 7 102032100.79707        44.906
E07  26971686.448 6 141737212.16706        37.469    26971689.184 6 105842754.01806        37.438    26971688.554 6 108603866.07306        37.500    26971688.870 6 107223315.08706        40.469
E08  22542663.175 7 118462521.55107        46.188    22542664.036 7  88462291.52107        45.531    22542662.981 7  90769996.62007        45.625    22542663.458 8  89616144.11208        48.563
E13  23620591.146 8 124127262.67708        48.438    23620592.224 7  92692548.61707        47.125    23620591.462 7  95110617.12307        47.813    23620591.859 8  93901595.41308        50.469
E15  24644263.599 7 129506702.91707        44.000    24644266.242 7  96709695.51707        44.031    24644265.289 7  99232534.39107        43.938    24644265.843 7  97971116.49807        46.938
E21  26166994.049 6 137508515.98306        40.000    26166996.692 6 102684948.83606        40.875    26166995.551 6 105363679.82206        40.438    26166995.977 7 104024317.37007        43.688
E26  26185835.003 6 137607501.00506        38.250    26185838.116 6 102758863.32806        38.688    26185837.424 6 105439526.16506        39.688    26185837.722 7 104099194.29007        42.250
E27  27233817.935 5 143114703.77105        33.625    27233820.470 5 106871404.07605        35.406    27233819.309 5 109659347.68005        35.250    27233819.747 6 108265376.42106        38.313
G01  23762529.049 6 124873118.70806        36.281    23762528.741 2        14.594    23762531.115 2  97303784.23802        14.594    23762530.831 5  97303637.26005        32.031    23762529.198 6  93249588.49606        40.000
G03  21817949.229 7 114654171.77307        45.344    21817949.104 5        30.594    21817949.619 5  89340929.92405        30.594    21817949.549 6  89340915.93906        38.906    21817948.914 7  85618429.99007        46.094
G04  22270808.081 7 117033902.64107        42.969    22270807.831 4        25.469    22270808.238 4  91195258.81404        25.469    22270806.878 6  91195259.82206        36.875    22270810.976 7  87395466.60807        43.594
G06  21826443.938 7 114698795.04807        44.938    21826443.751 6        41.250    21826444.902 6  89375711.66706        41.250    21826445.522 6  89375676.68706        38.438    21826445.202 7  85651751.74107        45.563
G09  22486752.999 7 118168697.18607        42.781    22486752.405 4        25.500    22486753.204 4  92079521.90404        25.500    22486753.944 6  92079498.92306        36.813    22486753.637 7  88242872.59907        44.125
G14  23058582.855 6 121173699.45106        40.750    23058582.610 3        21.156    23058582.489 3  94421076.19903        21.156    23058581.210 5  94421077.21205        35.344    23058585.496 6  90486876.63106        41.656
G17  20205669.746 8 106181551.67908        49.594    20205669.246 8        51.250    20205667.262 8  82738881.27108        51.250    20205667.218 7  82738876.27907        42.719
G19  20400618.612 8 107206015.47408        48.438    20400617.343 6        36.688    20400614.536 6  83537160.23506        36.688
G22  24379577.216 6 128115621.99106        38.750    24379575.951 2        16.500    24379573.620 2  99830394.19802        16.500
G28  22351643.778 7 117458719.27607        43.000    22351642.898 3        22.563    22351641.380 3  91526274.91803        22.563
J01  36956250.495 7 194206496.86007        43.969    36956249.343 6 151329683.65006        37.719    36956251.412 7 145024255.62007        45.406
J02  37367127.329 5 196365610.55705        35.938    37367128.322 5 153012145.71505        33.438    37367129.095 6 146636648.68006        37.969
J03  38194548.737 7 200713745.49207        47.563    38194548.153 7 156400338.49907        43.906    38194549.550 8 149883611.64608        49.375
J07  37148709.093 6 195217783.70706        38.906    37148707.840 6 152117747.55706        39.781    37148709.092 7 145779543.70707        45.750
> 2021 03 19 12 00 58.0000000  0 23
E01  27526957.772 5 144655154.74605        35.656    27526960.006 6 108021713.38506        38.344    27526958.771 6 110839667.93906        37.125    27526959.318 6 109430690.20306        40.844
E03  25666067.667 6 134876139.58106        41.688    25666069.539 6 100719215.72806        41.813    25666068.728 6 103346664.41406        41.844    25666069.029 7 102032941.11407        44.750
E07  26971132.527 6 141734301.21906        37.594    26971135.297 6 105840580.26806        37.438    26971134.656 6 108601635.62306        37.594    26971134.930 6 107221112.98706        40.500
E08  22542370.898 7 118460985.52307        46.250    22542371.775 7  88461144.48007        45.594    22542370.695 7  90768819.65607        45.656    22542371.148 8  89614982.11108        48.563
E13  23620500.300 8 124126785.23308        48.406    23620501.321 7  92692192.07907        47.125    23620500.621 7  95110251.28407        47.813    23620500.996 8  93901234.22308        50.500
E15  24644508.401 7 129507989.27207        44.031    24644511.016 7  96710656.11007        44.063    24644510.099 7  99233520.04107        43.938    24644510.638 7  97972089.61907        46.969
E21  26167343.271 6 137510351.71606        39.906    26167346.052 6 102686319.66706        40.750    26167344.940 6 105365086.42506        40.438    26167345.282 7 104025706.08607        43.594
E26  26185505.949 6 137605772.11106        38.063    26185509.132 6 102757572.26806        38.969    26185508.454 6 105438201.43106        39.594    26185508.722 7 104097886.39207        42.344
E27  27234379.955 5 143117657.03605        33.813    27234382.343 5 106873609.40605        35.500    27234381.366 5 109661610.55305        35.156    27234381.687 6 108267610.51906        38.344
G01  23763046.587 5 124875837.65005        35.906    23763046.279 2        14.844    23763048.522 2  97305902.89002        14.844    23763047.823 5  97305755.88405        32.031    23763046.531 6  93251618.87706        40.094
G03  21818495.898 7 114657044.56607        45.156    21818495.769 5        30.563    21818496.298 5  89343168.46405        30.563    21818496.318 6  89343154.48106        38.719    21818495.571 7  85620575.25507        46.063
G04  22270635.478 7 117032995.39007        42.781    22270635.228 4        25.344    22270635.553 4  91194551.86604        25.344    22270634.212 6  91194552.87106        36.875    22270638.358 7  87394789.10907        43.688
G06  21826157.104 7 114697286.88007        44.750    21826156.917 6        41.375    21826157.904 6  89374536.47206        41.375    21826158.575 6  89374501.48006        38.344    21826158.203 7  85650625.50607        45.594
G09  22486261.570 7 118166115.38807        42.656    22486260.971 4        25.594    22486261.929 4  92077510.10804        25.594    22486262.561 6  92077487.13506        37.031    22486262.299 7  88240944.63207        44.156
G14  23059223.505 6 121177066.97706        40.531    23059223.260 3        21.094    23059223.322 3  94423700.24403        21.094    23059221.983 5  94423701.26305        35.594    23059226.259 6  90489391.32706        41.625
G17  20205615.810 8 106181268.51808        49.469    20205615.310 8        51.156    20205613.388 8  82738660.62508        51.156    20205613.423 7  82738655.62907        42.781
G19  20400319.328 8 107204442.68208        48.375    20400318.059 6        36.563    20400315.242 6  83535934.68206        36.563
G22  24380218.147 6 128118989.92006        38.656    24380216.887 2        16.500    24380214.511 2  99833018.56302        16.500
G28  22352174.357 7 117461507.58707        42.875    22352173.490 3        22.563    22352172.019 3  91528447.63503        22.563
J01  36956308.561 7 194206801.82807        43.844    36956307.352 6 151329921.27406        37.531    36956309.443 7 145024483.35807        45.531
J02  37367251.217 6 196366261.53806        36.000    37367251.824 5 153012652.96205        33.500    37367253.028 6 146637134.81906        38.094
J03  38194454.519 7 200713250.41607        47.594    38194453.993 7 156399952.74007        43.969    38194455.331 8 149883241.94908        49.375
J07  37148735.982 6 195217924.11306        38.938    37148734.654 6 152117856.98106        39.625    37148735.786 7 145779648.55807        45.688
> 2021 03 19 12 00 59.0000000  0 23
E01  27526897.468 5 144654838.07405        35.594    27526899.710 6 108021476.90706        38.375    27526898.540 6 110839425.29206        37.250    27526899.058 6 109430450.64106        40.844
E03  25666279.109 6 134877250.95606        41.813    25666281.065 6 100720045.64106        41.813    25666280.247 6 103347515.98306        41.781    25666280.519 7 102033781.85407        44.750
E07  26970578.560 6 141731390.45006        37.313    26970581.475 6 105838406.63306        37.531    26970580.714 6 108599405.27306        37.406    26970581.043 6 107218910.99506        40.500
E08  22542078.711 7 118459450.00307        46.313    22542079.588 7  88459997.82607        45.625    22542078.493 7  90767643.08907        45.594    22542078.941 8  89613820.50008        48.594
E13  23620409.513 8 124126307.99108        48.438    23620410.496 7  92691835.70007        47.156    23620409.741 7  95109885.61007        47.688    23620410.182 8  93900873.19708        50.438
E15  24644753.163 7 129509275.87007        44.063    24644755.896 7  96711616.87407        44.063    24644754.955 7  99234505.86907        43.875    24644755.464 7  97973062.91607        46.938
E21  26167692.652 6 137512187.89906        40.000    26167695.400 6 102687690.86406        40.906    26167694.289 6 105366493.37106        40.250    26167694.686 7 104027095.15907        43.594
E26  26185176.922 6 137604043.34206        37.969    26185180.191 6 102756281.29606        38.906    26185179.424 6 105436876.78806        39.469    26185179.745 7 104096578.58407        42.250
E27  27234942.004 5 143120610.38005        33.594    27234944.361 5 106875814.81405        35.625    27234943.194 5 109663873.50605        35.375    27234943.699 6 108269844.70306        38.531
G01  23763563.725 6 124878556.76206        36.000    23763563.417 2        14.750    23763565.942 2  97308021.68002        14.750    23763565.610 5  97307874.69805        31.438    23763563.948 6  93253649.36506        40.125
G03  21819042.588 7 114659917.76907        45.031    21819042.463 5        30.438    21819043.070 5  89345407.32505        30.438    21819043.107 6  89345393.33706        38.781    21819042.344 7  85622720.83107        46.125
G04  22270462.840 7 117032088.82807        42.781    22270462.590 4        25.281    22270463.016 4  91193845.45304        25.281    22270462.043 6  91193846.46506        36.938    22270465.822 7  87394112.13507        43.625
G06  21825870.096 7 114695778.95407        44.656    21825869.909 6        41.344    21825870.960 6  89373361.46406        41.344    21825871.553 6  89373326.47106        38.250    21825871.254 7  85649499.46207        45.563
G09  22485770.337 7 118163534.03007        42.594    22485769.738 4        25.531    22485770.752 4  92075498.66304        25.531    22485771.158 6  92075475.68206        37.063    22485771.140 7  88239016.99207        44.188
G14  23059864.478 6 121180434.76406        40.406    23059864.233 3        21.031    23059864.195 3  94426324.49703        21.031    23059862.540 5  94426325.52405        35.625    23059867.149 6  90491906.25106        41.625
G17  20205561.992 8 106180985.96808        49.500    20205561.492 8        51.125    20205559.626 8  82738440.45608        51.125    20205559.848 7  82738435.46607        42.750
G19  20400020.103 8 107202870.48008        48.344    20400018.834 6        36.531    20400016.072 6  83534709.59006        36.531
G22  24380859.076 6 128122358.01306        38.438    24380857.811 2        16.250    24380855.473 2  99835643.02402        16.250
G28  22352704.947 7 117464296.30507        42.875    22352704.076 3        22.375    22352702.688 3  91530620.66003        22.375
J01  36956366.737 7 194207107.00807        43.875    36956365.299 6 151330159.09606        37.750    36956367.578 7 145024711.25407        45.469
J02  37367375.025 5 196366912.62905        35.906    37367375.750 5 153013160.32105        33.406    37367376.825 6 146637621.03106        38.125
J03  38194360.348 7 200712755.44507        47.563    38194359.797 7 156399567.04307        44.094    38194361.179 8 149882872.33208        49.344
J07  37148762.672 6 195218064.64806        39.000    37148761.551 6 152117966.50206        39.844    37148762.531 7 145779753.51107        45.719
> 2021 03 19 12 01  0.0000000  0 23
E01  27526837.046 5 144654521.89205        35.625    27526839.550 6 108021240.81306        38.375    27526838.310 6 110839183.02606        37.313    27526838.901 6 109430211.46206        40.844
E03  25666490.666 6 134878362.80906        41.813    25666492.665 6 100720875.91906        41.781    25666491.940 6 103348367.92406        41.750    25666492.107 7 102034622.96307        44.781
E07  26970024.778 6 141728479.73706        37.438    26970027.636 6 105836233.03806        37.563    26970026.869 6 108597174.99206        37.563    26970027.161 6 107216709.05706        40.563
E08  22541786.549 7 118457914.90807        46.250    22541787.476 7  88458851.49507        45.563    22541786.402 7  90766466.85107        45.594    22541786.824 8  89612659.21508        48.625
E13  23620318.695 8 124125830.87208        48.406    23620319.706 7  92691479.40407        47.219    23620318.936 7  95109520.02107        47.656    23620319.390 8  93900512.25408        50.438
E15  24644998.103 7 129510562.59907        44.031    24645000.806 7  96712577.75007        44.156    24644999.850 7  99235491.79407        43.781    24645000.312 7  97974036.31707        46.938
E21  26168042.169 6 137514024.46406        40.063    26168044.813 6 102689062.30306        40.906    26168043.767 6 105367900.60406        40.563    26168044.175 7 104028484.49507        43.813
E26  26184847.935 6 137602314.56006        38.063    26184851.214 6 102754990.33006        38.969    26184850.403 6 105435552.13006        39.594    26184850.763 7 104095270.77307        42.344
E27  27235503.937 5 143123563.70805        33.813    27235506.419 5 106878020.22605        35.594    27235505.342 5 109666136.42305        35.125    27235505.683 6 108272078.86306        38.375
G01  23764081.057 5 124881275.90905        35.688    23764080.753 2        15.000    23764083.385 2  97310140.50002        15.000    23764082.802 5  97309993.51605        31.781    23764081.353 6  93255679.90506        40.031
G03  21819589.278 7 114662791.30807        45.031    21819589.153 5        30.406    21819589.918 5  89347646.44505        30.406    21819589.990 6  89347632.44806        38.594    21819589.165 7  85624866.65107        46.188
G04  22270290.310 7 117031182.86807        42.563    22270290.065 4        25.156    22270290.590 4  91193139.52004        25.156    22270289.709 6  91193140.51506        36.688    22270293.452 7  87393435.60807        43.594
G06  21825583.166 7 114694271.22407        44.688    21825582.979 6        41.344    21825584.043 6  89372186.61106        41.344    21825584.634 6  89372151.60706        38.406    21825584.343 7  85648373.55307        45.719
G09  22485279.179 7 118160953.03707        42.563    22485278.580 4        25.438    22485279.652 4  92073487.50404        25.438    22485279.902 6  92073464.51406        36.969    22485280.004 7  88237089.62107        44.188
G14  23060505.385 6 121183802.74806        40.281    23060505.140 3        21.000    23060505.072 3  94428948.89703        21.000    23060503.908 5  94428949.91305        35.406    23060508.061 6  90494421.29206        41.750
G17  20205508.368 8 106180703.94108        49.438    20205507.872 8        51.156    20205505.962 8  82738220.69408        51.156    20205506.203 7  82738215.69607        42.781
G19  20399720.933 8 107201298.78308        48.313    20399719.664 6        36.563    20399716.992 6  83533484.89206        36.563
G22  24381500.146 6 128125726.15806        38.469    24381498.890 2        16.313    24381496.427 2  99838267.55702        16.313
G28  22353235.645 7 117467085.35107        42.875    22353234.774 3        22.250    22353233.443 3  91532793.94003        22.250
J01  36956424.869 7 194207412.32307        43.813    36956423.526 6 151330397.00006        37.813    36956425.701 7 145024939.24507        45.500
J02  37367498.917 5 196367563.80905        35.781    37367499.890 5 153013667.70505        33.375    37367500.681 6 146638107.28106        38.125
J03  38194266.235 7 200712260.48107        47.625    38194265.611 7 156399181.35507        44.031    38194266.978 8 149882502.71308        49.469
J07  37148789.374 6 195218205.27106        38.938    37148788.350 6 152118076.04406        39.875    37148789.249 7 145779858.49707        45.875
> 2021 03 19 12 01  1.0000000  0 23
E01  27526776.784 5 144654205.79205        35.938    27526779.370 6 108021004.76506        38.406    27526778.156 6 110838940.83506        37.406    27526778.713 6 109429972.33906        40.906
E03  25666702.276 6 134879474.70606        41.844    25666704.293 6 100721706.23606        41.906    25666703.468 6 103349219.89906        41.875    25666703.709 7 102035464.11107        44.844
E07  26969470.752 6 141725568.63806        37.531    26969473.637 6 105834059.18506        37.875    26969472.908 6 108594944.42206        37.594    26969473.203 6 107214506.84606        40.656
E08  22541494.367 7 118456379.80407        46.250    22541495.344 7  88457705.15407        45.656    22541494.312 7  90765290.60207        45.594    22541494.719 8  89611497.92108        48.625
E13  23620227.873 8 124125353.44308        48.406    23620228.879 7  92691122.88207        47.156    23620228.077 7  95109154.20007        47.719    23620228.540 8  93900151.08408        50.438
E15  24645242.870 7 129511849.05307        44.000    24645245.573 7  96713538.41407        43.969    24645244.635 7  99236477.51907        43.813    24645245.111 7  97975009.51107        46.875
E21  26168391.613 6 137515860.97006        40.031    26168394.347 6 102690433.71906        41.000    26168393.283 6 105369307.80306        40.500    26168393.650 7 104029873.80407        43.781
E26  26184518.830 6 137600585.38706        38.094    26184522.193 6 102753699.07106        39.031    26184521.387 6 105434227.17706        39.406    26184521.719 7 104093962.66707        42.281
E27  27236065.963 5 143126516.58905        33.594    27236068.299 5 106880225.30205        35.563    27236067.076 5 109668399.06705        35.313    27236067.587 6 108274312.72506        38.438
G01  23764598.027 5 124883994.73805        35.875    23764597.732 2        14.563    23764600.738 2  97312259.06902        14.563    23764600.364 5  97312112.06305        31.813    23764598.768 6  93257710.19306        40.094
G03  21820136.008 7 114665664.73507        44.938    21820135.883 5        30.500    21820136.677 5  89349885.47805        30.500    21820136.847 6  89349871.48506        38.688    21820135.931 7  85627012.38907        46.063
G04  22270117.821 7 117030277.09307        42.531    22270117.576 4        25.188    22270118.218 4  91192433.71704        25.188    22270117.532 6  91192434.70906        36.625    22270121.078 7  87392759.21407        43.688
G06  21825296.316 7 114692763.24307        44.625    21825296.124 6        41.438    21825297.090 6  89371011.56206        41.438    21825297.613 6  89370976.56906        38.375    21825297.376 7  85647247.45707        45.688
G09  22484788.079 7 118158371.95907        42.469    22484787.480 4        25.563    22484788.534 4  92071476.27604        25.563    22484788.709 6  92071453.28106        37.344    22484788.829 7  88235162.19507        44.125
G14  23061146.291 6 121187170.49506        40.031    23061146.041 3        21.000    23061145.883 3  94431573.11903        21.000    23061144.602 5  94431574.14405        35.625    23061148.875 6  90496936.16206        41.656
G17  20205454.733 8 106180422.01508        49.438    20205454.233 8        51.250    20205452.316 8  82738001.01008        51.250    20205452.641 7  82737996.01407        42.906
G19  20399421.835 8 107199727.14508        48.156    20399420.566 6        36.625    20399417.912 6  83532260.23706        36.625
G22  24382141.223 6 128129093.95906        38.344    24382139.971 2        16.281    24382137.295 2  99840891.80502        16.281
G28  22353766.347 7 117469874.27407        42.688    22353765.476 3        22.438    22353764.167 3  91534967.12803        22.438
J01  36956482.929 7 194207717.34007        43.844    36956481.304 6 151330634.66306        37.719    36956483.735 7 145025167.01207        45.469
J02  37367622.565 5 196368214.59405        35.813    37367623.248 5 153014174.80605        33.094    37367624.503 6 146638593.24306        38.031
J03  38194171.903 7 200711765.09607        47.563    38194171.413 7 156398795.34707        43.938    38194172.716 8 149882132.78108        49.469
J07  37148816.151 6 195218345.45606        38.875    37148815.087 6 152118185.29806        39.656    37148815.972 7 145779963.18807        45.781
> 2021 03 19 12 01  2.0000000  0 23
E01  27526716.736 5 144653890.22005        35.688    27526719.209 6 108020769.09206        38.063    27526718.061 6 110838699.00206        37.250    27526718.664 6 109429733.58906        40.656
E03  25666913.884 6 134880587.12406        41.656    25666916.002 6 100722536.93606        41.813    25666915.149 6 103350072.26606        41.906    25666915.387 7 102036305.64507        44.813
E07  26968916.864 6 141722657.67006        37.375    26968919.799 6 105831885.39106        37.688    26968918.940 6 108592713.92806        37.750    26968919.254 6 107212304.70206        40.719
E08  22541202.242 7 118454845.15007        46.281    22541203.292 7  88456559.13707        45.594    22541202.235 7  90764114.69907        45.625    22541202.673 8  89610336.96008        48.625
E13  23620137.037 8 124124876.15808        48.375    23620138.061 7  92690766.47507        47.188    23620137.228 7  95108788.48907        47.750    23620137.708 8  93899790.02408        50.469
E15  24645487.668 7 129513135.67407        43.969    24645490.350 7  96714499.19107        44.125    24645489.466 7  99237463.36607        43.844    24645489.937 7  97975982.82307        46.938
E21  26168741.099 6 137517697.85706        39.906    26168743.809 6 102691805.42406        40.875    26168742.783 6 105370715.28306        40.438    26168743.214 7 104031263.39607        43.688
E26  26184189.723 6 137598856.25606        38.250    26184193.084 6 102752407.83006        38.813    26184192.344 6 105432902.25106        39.438    26184192.666 7 104092654.58207        42.156
E27  27236627.701 5 143129469.49605        33.469    27236630.249 5 106882430.40305        35.875    27236629.085 5 109670661.67505        35.469    27236629.536 6 108276546.58006        38.625
G01  23765115.418 6 124886713.63606        36.031    23765115.128 2        14.313    23765118.150 2  97314377.69402        14.313    23765117.193 5  97314230.72305        31.719    23765116.135 6  93259740.53506        40.000
G03  21820682.723 7 114668538.51407        44.906    21820682.598 5        30.563    21820683.529 5  89352124.78705        30.563    21820683.801 6  89352110.80506        38.688    21820682.795 7  85629158.39707        46.094
G04  22269945.571 7 117029371.94407        42.500    22269945.326 4        25.406    22269945.957 4  91191728.40804        25.406    22269945.299 6  91191729.42106        36.750    22269948.821 7  87392083.29707        43.500
G06  21825009.367 7 114691255.45007        44.563    21825009.180 6        41.406    21825010.164 6  89369836.66006        41.406    21825010.688 6  89369801.65506        38.250    21825010.419 7  85646121.51507        45.656
G09  22484297.009 7 118155791.26607        42.656    22484296.410 4        25.500    22484297.500 4  92069465.34804        25.500    22484297.854 6  92069442.35206        37.094    22484297.745 7  88233235.05307        44.219
G14  23061787.144 6 121190538.43706        39.813    23061786.899 3        20.781    23061786.751 3  94434197.48803        20.781    23061785.565 5  94434198.52205        35.594    23061789.816 6  90499451.20006        41.719
G17  20205401.132 8 106180140.62408        49.438    20205400.632 8        51.250    20205398.772 8  82737781.74508        51.250    20205398.903 7  82737776.75307        42.938
G19  20399122.828 8 107198156.03408        48.219    20399121.554 6        36.625    20399118.944 6  83531035.99406        36.625
G22  24382781.852 6 128132461.82306        38.281    24382780.605 2        16.500    24382778.177 2  99843516.11602        16.500
G28  22354297.170 7 117472663.55807        42.813    22354296.299 3        22.219    22354294.944 3  91537140.59803        22.219
J01  36956541.000 7 194208022.49807        43.750    36956539.215 6 151330872.46106        37.719    36956541.801 7 145025394.89607        45.500
J02  37367746.658 5 196368865.44005        35.969    37367747.043 5 153014681.98305        33.250    37367748.402 6 146639079.28706        37.969
J03  38194077.628 7 200711269.74007        47.594    38194077.197 7 156398409.34307        43.875    38194078.467 8 149881762.86908        49.406
J07  37148842.782 6 195218485.69806        38.938    37148841.676 6 152118294.58106        39.750    37148842.635 7 145780067.93007        45.719
> 2021 03 19 12 01  3.0000000  0 23
E01  27526656.813 5 144653575.45505        35.500    27526659.337 6 108020534.04206        38.219    27526658.136 6 110838457.83906        37.156    27526658.771 6 109429495.48206        40.688
E03  25667125.743 6 134881700.32606        41.813    25667127.861 6 100723368.23006        41.969    25667127.013 6 103350925.24606        41.969    25667127.225 7 102037147.77907        44.906
E07  26968362.870 6 141719747.06706        37.438    26968365.978 6 105829711.89206        37.875    26968364.937 6 108590483.73706        37.594    26968365.386 6 107210102.85406        40.688
E08  22540910.366 7 118453311.24207        46.313    22540911.405 7  88455413.68907        45.688    22540910.307 7  90762939.36507        45.688    22540910.779 8  89609176.57008        48.688
E13  23620046.296 8 124124399.31908        48.344    23620047.346 7  92690410.39007        47.156    23620046.513 7  95108423.12307        47.719    23620046.974 8  93899429.29908        50.438
E15  24645732.588 7 129514422.75307        43.938    24645735.332 7  96715460.32407        44.094    24645734.412 7  99238449.57307        43.906    24645734.856 7  97976956.49307        46.938
E21  26169090.681 6 137519535.43006        39.969    26169093.492 6 102693177.65206        40.844    26169092.472 6 105372123.30206        40.469    26169092.895 7 104032653.52007        43.719
E26  26183860.597 6 137597127.45806        38.063    26183864.178 6 102751116.85006        39.094    26183863.292 6 105431577.60106        39.375    26183863.684 7 104091346.76807        42.250
E27  27237189.677 5 143132422.73805        33.625    27237192.251 5 106884635.73605        35.719    27237191.149 5 109672924.51205        35.438    27237191.516 6 108278780.66506        38.594
G01  23765633.148 5 124889432.92805        35.656    23765632.867 2        14.281    23765635.651 2  97316496.64502        14.281    23765634.375 5  97316349.64005        32.188    23765633.613 6  93261771.19306        40.031
G03  21821229.742 7 114671412.93607        44.938    21821229.617 5        30.500    21821230.534 5  89354364.59505        30.500    21821230.769 6  89354350.62006        38.656    21821229.808 7  85631304.88107        46.156
G04  22269773.513 7 117028467.71907        42.531    22269773.272 4        25.406    22269773.849 4  91191023.81704        25.406    22269773.446 6  91191024.81006        36.688    22269776.771 7  87391408.07107        43.531
G06  21824722.560 7 114689748.14507        44.500    21824722.373 6        41.406    21824723.327 6  89368662.13506        41.406    21824723.599 6  89368627.15406        38.219    21824723.552 7  85644995.93607        45.656
G09  22483806.045 7 118153211.25007        42.594    22483805.437 4        25.625    22483806.619 4  92067454.94604        25.625    22483806.935 6  92067431.96206        37.094    22483806.804 7  88231308.41907        44.313
G14  23062428.186 6 121193906.90606        39.531    23062427.941 3        21.188    23062427.772 3  94436822.27003        21.188    23062426.811 6  94436823.28306        36.063    23062430.842 6  90501966.61106        41.625
G17  20205347.750 8 106179860.08008        49.438    20205347.250 8        51.250    20205345.390 8  82737563.14008        51.250    20205345.453 7  82737558.15207        42.938
G19  20398824.101 8 107196585.74208        48.188    20398822.832 6        36.594    20398820.141 6  83529812.39106        36.594
G22  24383423.012 6 128135830.08206        38.313    24383421.765 2        16.250    24383419.188 2  99846140.75402        16.250
G28  22354828.138 7 117475453.47407        42.656    22354827.267 3        22.250    22354825.855 3  91539314.55503        22.250
J01  36956599.117 7 194208328.10707        43.625    36956597.512 6 151331110.60206        37.813    36956599.932 7 145025623.10707        45.563
J02  37367870.651 6 196369516.65406        36.000    37367870.788 5 153015189.42405        33.281    37367872.357 6 146639565.58506        37.750
J03  38193983.499 7 200710774.71307        47.500    38193982.866 7 156398023.61407        44.031    38193984.301 8 149881393.21308        49.344
J07  37148869.574 6 195218626.32106        38.688    37148868.424 6 152118404.16106        39.781    37148869.372 7 145780172.94407        45.719
> 2021 03 19 12 01  4.0000000  0 23
E01  27526596.823 5 144653260.64505        35.281    27526599.354 6 108020298.96106        38.219    27526598.277 6 110838216.62506        37.094    27526598.887 6 109429257.33406        40.688
E03  25667337.673 6 134882813.47406        41.625    25667339.610 6 100724199.47506        41.875    25667338.863 6 103351778.17106        41.906    25667339.042 7 102037989.86607        44.844
E07  26967808.938 6 141716835.97706        37.406    26967812.147 6 105827538.04106        37.844    26967810.970 6 108588253.15106        37.875    26967811.437 6 107207900.63706        40.813
E08  22540618.492 7 118451777.21407        46.094    22540619.489 7  88454268.15207        45.625    22540618.418 7  90761763.94007        45.688    22540618.872 8  89608016.08808        48.656
E13  23619955.462 8 124123922.05908        48.281    23619956.500 7  92690053.99207        47.156    23619955.727 7  95108057.42607        47.813    23619956.155 8  93899068.25208        50.500
E15  24645977.349 7 129515709.42507        43.969    24645980.208 7  96716421.15607        44.094    24645979.261 7  99239435.46407        43.969    24645979.713 7  97977929.85407        47.000
E21  26169440.344 6 137521372.83306        40.000    26169443.142 6 102694549.73806        41.000    26169442.142 6 105373531.19306        40.375    26169442.531 7 104034043.50707        43.750
E26  26183531.477 6 137595398.11006        38.031    26183534.985 6 102749825.45806        38.844    26183534.192 6 105430252.52306        39.469    26183534.604 7 104090038.53407        42.219
E27  27237751.483 5 143135375.39705        33.250    27237754.125 6 106886840.66306        36.031    27237753.083 5 109675186.95805        35.406    27237753.398 6 108281014.35006        38.719
G01  23766150.154 6 124892151.76006        36.344    23766149.877 2        14.500    23766153.022 2  97318615.22802        14.500    23766151.471 5  97318468.22105        31.563    23766151.040 6  93263801.49006        40.031
G03  21821776.558 7 114674287.15507        45.000    21821776.433 5        30.500    21821777.480 5  89356604.24505        30.500    21821777.529 6  89356590.24606        38.750    21821776.785 7  85633451.21507        46.094
G04  22269601.578 7 117027563.56007        42.500    22269601.342 4        25.344    22269601.763 4  91190319.27404        25.344    22269601.257 6  91190320.28006        36.781    22269604.714 7  87390732.88607        43.688
G06  21824435.702 7 114688240.49207        44.500    21824435.515 6        41.438    21824436.441 6  89367487.34306        41.438    21824436.735 6  89367452.34806        38.156    21824436.614 7  85643870.08307        45.688
G09  22483315.214 7 118150631.03807        42.625    22483314.606 4        25.688    22483315.653 4  92065444.39204        25.688    22483316.047 6  92065421.40006        37.125    22483315.809 7  88229381.63007        44.188
G14  23063069.071 6 121197275.01706        39.406    23063068.826 3        20.906    23063068.734 3  94439446.76703        20.906    23063067.796 5  94439447.78605        35.656    23063071.799 6  90504481.75306        41.750
G17  20205294.412 8 106179579.51208        49.531    20205293.916 8        51.219    20205292.008 8  82737344.51508        51.219    20205292.089 7  82737339.52807        42.938
G19  20398525.300 8 107195015.41608        48.219    20398524.031 6        36.594    20398521.321 6  83528588.75906        36.594
G22  24384063.993 6 128139197.88506        38.188    24384062.746 2        16.031    24384060.133 2  99848765.01602        16.031
G28  22355358.953 7 117478243.17407        42.719    22355358.082 3        22.219    22355356.717 3  91541488.34503        22.219
J01  36956657.099 7 194208633.29707        43.625    36956655.757 6 151331348.41506        37.875    36956657.978 7 145025851.00907        45.438
J02  37367994.502 5 196370167.39105        35.844    37367994.862 5 153015696.50205        33.375    37367996.138 6 146640051.51706        38.063
J03  38193889.207 7 200710279.15107        47.438    38193888.554 7 156397637.46407        44.094    38193889.995 8 149881023.15008        49.375
J07  37148896.101 6 195218766.46106        38.906    37148895.003 6 152118513.34106        39.750    37148896.068 7 145780277.58007        45.750
> 2021 03 19 12 01  5.0000000  0 23
E01  27526537.089 5 144652946.05505        35.375    27526539.516 6 108020064.04006        38.125    27526538.487 6 110837975.56906        37.469    27526539.003 6 109429019.34506        40.781
E03  25667549.485 6 134883926.82506        41.563    25667551.479 6 100725030.86606        41.813    25667550.679 6 103352631.26306        41.844    25667550.894 7 102038832.10707        44.844
E07  26967254.763 6 141713924.67106        37.406    26967258.235 6 105825363.99906        37.906    26967256.963 6 108586022.41806        37.625    26967257.434 6 107205698.25006        40.750
E08  22540326.597 7 118450243.32807        46.094    22540327.602 7  88453122.71307        45.750    22540326.522 7  90760588.62707        45.688    22540326.977 8  89606855.71208        48.688
E13  23619864.540 8 124123444.63408        48.156    23619865.639 7  92689697.47607        47.125    23619864.851 7  95107691.61207        47.750    23619865.310 8  93898707.08708        50.406
E15  24646222.070 7 129516995.97007        44.000    24646225.048 7  96717381.88207        44.188    24646224.093 7  99240421.25907        43.906    24646224.535 7  97978903.11507        47.063
E21  26169789.987 6 137523210.32706        39.844    26169792.752 6 102695921.88006        40.781    26169791.843 6 105374939.13106        40.344    26169792.194 7 104035433.54907        43.594
E26  26183202.452 6 137593668.51606        38.156    26183205.837 6 102748533.88006        38.938    26183205.088 6 105428927.24806        39.281    26183205.488 7 104088730.10707        42.188
E27  27238313.332 5 143138327.79805        33.469    27238315.754 5 106889045.36205        35.844    27238314.851 5 109677449.18305        35.281    27238315.213 6 108283247.81006        38.563
G01  23766667.745 5 124894870.35905        35.594    23766667.477 2        14.500    23766670.362 2  97320733.59602        14.500    23766669.269 5  97320586.62505        31.656    23766668.330 6  93265831.60406        40.000
G03  21822323.434 7 114677161.40907        45.094    21822323.314 5        30.531    21822324.463 5  89358843.92505        30.531    21822324.395 6  89358829.91806        38.938    21822323.728 7  85635597.57407        46.094
G04  22269429.518 7 117026659.73307        42.438    22269429.277 4        25.281    22269429.744 4  91189614.99604        25.281    22269429.172 6  91189616.01406        36.875    22269432.755 7  87390057.94707        43.531
G06  21824148.688 7 114686732.70807        44.531    21824148.501 6        41.375    21824149.529 6  89366312.44706        41.375    21824149.851 6  89366277.44506        38.000    21824149.719 7  85642744.14607        45.625
G09  22482824.295 7 118148050.91307        42.688    22482823.687 4        25.719    22482824.700 4  92063433.90304        25.719    22482825.161 6  92063410.91806        37.188    22482824.792 7  88227454.91507        44.281
G14  23063710.146 6 121200643.02806        39.250    23063709.910 3        20.875    23063709.728 3  94442071.19303        20.875    23063708.834 5  94442072.20405        35.938    23063712.728 6  90506996.82006        41.844
G17  20205241.106 8 106179299.18708        49.375    20205240.606 8        51.281    20205238.671 8  82737126.07908        51.281    20205238.711 7  82737121.08907        42.875
G19  20398226.453 8 107193445.31008        48.188    20398225.184 6        36.625    20398222.536 6  83527365.29906        36.625
G22  24384704.652 6 128142565.45206        38.156    24384703.405 2        15.875    24384701.042 2  99851389.09102        15.875
G28  22355889.773 7 117481032.90807        42.625    22355888.906 3        22.125    22355887.548 3  91543662.17103        22.125
J01  36956715.177 7 194208938.34207        43.688    36956713.801 6 151331586.10106        37.813    36956716.023 7 145026078.80107        45.531
J02  37368118.629 5 196370817.88705        35.813    37368118.316 5 153016203.37205        33.375    37368119.773 6 146640537.28006        38.031
J03  38193794.766 7 200709783.31607        47.563    38193794.070 7 156397251.09507        44.031    38193795.625 8 149880652.87808        49.375
J07  37148922.674 6 195218906.33006        38.750    37148921.565 6 152118622.34206        39.938    37148922.698 7 145780382.02507        45.688
> 2021 03 19 12 01  6.0000000  0 23
E01  27526477.330 5 144652632.07405        35.031    27526479.784 6 108019829.59706        38.188    27526478.775 6 110837734.99706        37.313    27526479.249 6 109428781.83806        40.781
E03  25667761.526 6 134885040.77206        41.813    25667763.498 6 100725862.70906        41.969    25667762.641 6 103353484.80806        41.719    25667762.880 7 102039674.80107        44.813
E07  26966700.717 6 141711013.56106        37.313    26966704.256 6 105823190.13006        37.875    26966703.052 6 108583791.83306        37.781    26966703.485 6 107203496.02106        40.813
E08  22540034.863 7 118448709.97607        46.000    22540035.805 7  88451977.68107        45.719    22540034.772 7  90759413.72707        45.688    22540035.191 8  89605695.74608        48.688
E13  23619773.723 8 124122967.46408        48.281    23619774.846 7  92689341.14607        47.219    23619774.032 7  95107325.98407        47.844    23619774.500 8  93898346.10708        50.531
E15  24646466.892 7 129518282.78007        43.875    24646469.919 7  96718342.81507        44.063    24646468.966 7  99241407.25607        44.000    24646469.410 7  97979876.58007        47.000
E21  26170139.732 6 137525048.31706        39.844    26170142.523 6 102697294.40106        40.813    26170141.530 6 105376347.45606        40.344    26170141.956 7 104036823.97107        43.625
E26  26182873.366 6 137591939.07106        38.125    26182876.739 6 102747242.40506        39.063    26182875.885 6 105427602.08506        39.531    26182876.385 7 104087421.78907        42.344
E27  27238875.242 5 143141280.29805        33.281    27238877.674 5 106891250.15805        35.406    27238876.621 5 109679711.51205        35.313    27238877.045 6 108285481.37306        38.406
G01  23767185.212 6 124897589.17806        36.219    23767184.953 2        14.313    23767187.746 2  97322852.13802        14.313    23767186.738 5  97322705.16405        31.969    23767185.706 6  93267861.89006        39.938
G03  21822870.556 7 114680036.11407        45.219    21822870.440 5        30.625    21822871.499 5  89361083.95505        30.625    21822871.596 6  89361069.95706        38.594    21822870.745 7  85637744.26707        46.125
G04  22269257.717 7 117025756.64207        42.656    22269257.485 4        25.344    22269257.878 4  91188911.29104        25.344    22269257.263 6  91188912.28506        36.688    22269260.930 7  87389383.56007        43.656
G06  21823861.814 7 114685225.23607        44.500    21823861.631 6        41.406    21823862.678 6  89365137.79206        41.406    21823863.249 6  89365102.79606        38.125    21823862.846 7  85641618.44307        45.625
G09  22482333.414 7 118145471.27107        42.750    22482332.802 4        25.656    22482333.828 4  92061423.79104        25.656    22482334.080 6  92061400.79806        37.094    22482333.920 7  88225528.56307        44.250
G14  23064350.865 6 121204011.34506        39.281    23064350.629 3        20.594    23064350.735 3  94444695.85303        20.594    23064349.704 5  94444696.88905        35.750    23064353.643 6  90509512.12706        41.750
G17  20205187.850 8 106179019.51108        49.375    20205187.350 8        51.281    20205185.454 8  82736908.14908        51.281    20205185.485 7  82736903.15807        42.906
G19  20397927.799 8 107191875.82308        48.188    20397926.530 6        36.625    20397923.872 6  83526142.32006        36.625
G22  24385345.842 6 128145933.19306        38.188    24385344.595 2        16.000    24385341.933 2  99854013.30702        16.000
G28  22356420.913 7 117483823.10007        42.625    22356420.046 3        22.188    22356418.486 3  91545836.34003        22.188
J01  36956773.242 7 194209243.63307        43.781    36956771.742 6 151331823.99506        37.625    36956774.046 7 145026306.77807        45.375
J02  37368242.646 5 196371468.55005        35.656    37368242.207 5 153016710.40505        33.625    37368243.614 6 146641023.16706        37.906
J03  38193700.479 7 200709287.61507        47.469    38193699.688 7 156396864.82807        44.000    38193701.321 8 149880282.71508        49.344
J07  37148949.348 6 195219046.37306        38.719    37148948.057 6 152118731.46606        39.875    37148949.356 7 145780486.60407        45.625
> 2021 03 19 12 01  7.0000000  0 23
E01  27526417.622 5 144652318.85505        35.219    27526420.214 6 108019595.68906        38.219    27526419.129 6 110837494.98206        37.406    27526419.633 6 109428544.87706        40.813
E03  25667973.740 6 134886155.43006        41.844    25667975.607 6 100726695.08106        41.781    25667974.720 7 103354338.88407        42.000    25667974.987 7 102040518.02507        44.875
E07  26966147.044 6 141708102.74806        37.344    26966150.242 6 105821016.47206        38.000    26966149.194 6 108581561.47006        37.875    26966149.558 6 107201294.01306        40.875
E08  22539743.226 7 118447177.28307        46.000    22539744.117 7  88450833.14407        45.688    22539743.120 7  90758239.32207        45.688    22539743.520 8  89604536.27508        48.688
E13  23619683.022 8 124122490.63108        48.219    23619684.104 7  92688985.07407        47.219    23619683.286 7  95106960.61607        47.813    23619683.766 8  93897985.38808        50.500
E15  24646711.845 7 129519569.95707        43.844    24646714.881 7  96719304.01207        44.188    24646713.905 7  99242393.52907        44.000    24646714.370 7  97980850.31507        47.063
E21  26170489.561 6 137526886.89106        40.000    26170492.409 6 102698667.37406        40.750    26170491.346 6 105377756.22406        40.406    26170491.820 7 104038214.84207        43.594
E26  26182544.433 6 137590209.85806        38.344    26182547.670 6 102745951.11006        39.000    26182546.805 6 105426277.10406        39.500    26182547.310 7 104086113.64907        42.281
E27  27239436.836 5 143144233.02405        33.094    27239439.536 5 106893455.12105        35.813    27239438.553 5 109681973.98905        35.438    27239438.927 6 108287715.09506        38.625
G01  23767702.629 6 124900308.27706        36.250    23767702.375 2        14.313    23767705.162 2  97324970.92602        14.313    23767704.024 5  97324823.94405        31.625    23767703.205 6  93269892.39806        39.875
G03  21823417.731 7 114682911.38007        45.250    21823417.615 5        30.563    21823418.655 5  89363324.42105        30.563    21823419.021 6  89363310.42706        38.656    21823417.907 7  85639891.38207        46.094
G04  22269086.027 7 117024854.36307        42.594    22269085.795 4        25.156    22269086.131 4  91188208.21204        25.156    22269085.453 6  91188209.24406        36.594    22269089.194 7  87388709.78407        43.719
G06  21823575.064 7 114683718.16407        44.531    21823574.877 6        41.375    21823575.891 6  89363963.45106        41.375    21823576.215 6  89363928.45706        38.125    21823576.082 7  85640493.03207        45.688
G09  22481842.593 7 118142892.21707        42.906    22481841.976 4        25.531    22481843.067 4  92059414.13804        25.531    22481843.278 6  92059391.13506        37.156    22481843.175 7  88223602.64707        44.281
G14  23064991.959 6 121207380.07706        39.313    23064991.723 3        20.531    23064991.746 3  94447320.84503        20.531    23064990.869 5  94447321.86205        35.969    23064994.733 6  90512027.74106        41.688
G17  20205134.733 8 106178740.57208        49.375    20205134.233 8        51.219    20205132.376 8  82736690.79408        51.219    20205132.269 7  82736685.79807        43.063
G19  20397629.305 8 107190307.05708        48.188    20397628.036 6        36.594    20397625.337 6  83524919.90506        36.594
G22  24385986.725 6 128149301.25206        38.063    24385985.473 2        15.469    24385982.873 2  99856637.76502        15.469
G28  22356951.912 7 117486613.82407        42.625    22356951.045 3        22.094    22356949.509 3  91548010.93303        22.094
J01  36956831.281 7 194209549.28307        43.625    36956829.860 6 151332062.15606        37.688    36956832.219 7 145026535.01607        45.344
J02  37368366.590 5 196372119.47505        35.531    37368366.283 5 153017217.59805        33.563    37368367.617 6 146641509.25606        37.938
J03  38193606.157 7 200708792.13707        47.375    38193605.589 7 156396478.74607        44.000    38193607.022 8 149879912.71308        49.250
J07  37148975.999 6 195219186.68106        38.625    37148975.082 6 152118840.80506        39.719    37148976.066 7 145780591.38507        45.594
