     3.04           OBSERVATION DATA    M                   RINEX VERSION / TYPE
sbf2rin-13.8.0                          20210923 060350 UTC PGM / RUN BY / DATE 
SEPT                                                        MARKER NAME         
Unknown                                                     MARKER NUMBER       
Unknown             Unknown                                 OBSERVER / AGENCY   
3058611             SEPT MOSAIC-X5      4.10.0              REC # / TYPE / VERS 
Unknown             JAVRINGANT_DM   SCIS                    ANT # / TYPE        
 -3962108.2258  3381309.0271  3668678.5241                  APPROX POSITION XYZ 
        0.0000        0.0000        0.0000                  ANTENNA: DELTA H/E/N
G   14 C1C L1C S1C C1W S1W C2W L2W S2W C2L L2L S2L C5Q L5Q  SYS / # / OBS TYPES 
       S5Q                                                  SYS / # / OBS TYPES 
E   12 C1C L1C S1C C5Q L5Q S5Q C7Q L7Q S7Q C8Q L8Q S8Q      SYS / # / OBS TYPES 
J    9 C1C L1C S1C C2L L2L S2L C5Q L5Q S5Q                  SYS / # / OBS TYPES 
SEPTENTRIO RECEIVERS OUTPUT ALIGNED CARRIER PHASES.         COMMENT             
NO FURTHER PHASE SHIFT APPLIED IN THE RINEX ENCODER.        COMMENT             
G L1C                                                       SYS / PHASE SHIFT   
G L2W                                                       SYS / PHASE SHIFT   
G L2L  0.00000                                              SYS / PHASE SHIFT   
G L5Q  0.00000                                              SYS / PHASE SHIFT   
E L1C  0.00000                                              SYS / PHASE SHIFT   
E L5Q  0.00000                                              SYS / PHASE SHIFT   
E L7Q  0.00000                                              SYS / PHASE SHIFT   
E L8Q  0.00000                                              SYS / PHASE SHIFT   
J L1C                                                       SYS / PHASE SHIFT   
J L2L  0.00000                                              SYS / PHASE SHIFT   
J L5Q  0.00000                                              SYS / PHASE SHIFT   
     1.000                                                  INTERVAL            
  2021     9    22     6    30    0.0000000     GPS         TIME OF FIRST OBS   
  2021     9    22     6    35   59.0000000     GPS         TIME OF LAST OBS    
   139                                                      # OF SATELLITES     
DBHZ                                                        SIGNAL STRENGTH UNIT
                                                            END OF HEADER       
> 2021 09 22 06 30  0.0000000  0 19
E02  28187222.822 4                        25.625    28187226.047 5                        30.906    28187223.439 4                        27.656    28187223.318 5 112055499.17105        32.313
E07  24441483.004 7 128440856.81507        45.344    24441485.906 8  95913637.91308        51.688    24441485.132 8  98415729.97308        51.938    24441485.388 9  97164683.48509        54.781
E12  26099534.386 6 137153974.24406        37.313    26099533.581 6 102420176.61206        38.375    26099533.946 6 105092008.43206        39.313    26099533.471 6 103756092.06906        41.875
E19  26939612.169 6 141568623.92706        36.188    26939615.970 6 105716852.53106        37.031    26939614.750 6 108474682.13906        37.125    26939615.023 6 107095766.87206        40.125
E26  25299917.342 7 132951957.12607        42.938    25299923.778 7  99282325.36707        44.813    25299923.264 7 101872296.42407        47.000    25299923.429 8 100577310.43508        49.031
E27  25665290.794 7 134872019.93607        44.563    25665295.269 7 100716137.21607        45.813    25665294.986 8 103343518.68208        48.375    25665295.032 8 102029826.98908        50.188
E30  24783248.255 7 130236852.89307        42.781    24783251.162 7  97254806.16107        46.750    24783250.298 7  99791885.99507        46.469    24783250.698 8  98523347.12208        49.625
E33  25310298.517 7 133006516.66907        43.656    25310300.306 7  99323051.76307        46.813    25310300.106 8 101914086.10208        48.531    25310300.142 8 100618569.97408        50.688
G05  21243381.127 7 111634716.53707        46.813    21243380.949 6        38.875    21243380.526 6  86988086.04906        38.875    21243380.757 7  86988079.06407        43.063
G13  21412195.575 7 112521844.88607        46.844    21412195.097 6        36.219    21412194.446 6  87679350.16806        36.219
G15  20209179.675 7 106199955.93107        47.313    20209179.358 8        51.313    20209178.281 8  82753208.87608        51.313    20209178.607 7  82753208.89307        44.906
G18  21510316.649 7 113037475.38907        46.094    21510316.408 5        35.219    21510316.354 5  88081148.92105        35.219    21510316.451 7  88081147.93607        43.344    21510319.671 8  84411111.87908        49.563
G20  23383036.253 7 122878673.35207        42.938    23383035.185 4        26.719    23383037.609 4  95749609.92904        26.719
G23  22623284.507 7 118886165.59407        44.844    22623284.315 5        32.375    22623285.111 5  92638570.54805        32.375    22623284.666 7  92638570.55007        42.281    22623287.203 7  88778643.20107        45.719
G24  20515367.168 7 107808985.93107        47.625    20515366.891 8        52.594    20515369.560 8  84007011.08308        52.594    20515369.267 7  84007003.08907        46.500    20515369.010 8  80506718.73708        53.438
J01  38776697.572 7 203772919.27207        46.281    38776696.536 7 158784086.34307        45.188    38776698.060 8 152168092.72608        50.844
J02  37007766.743 7 194477127.96007        43.375    37007769.735 7 151540630.98807        43.438    37007770.774 7 145226448.45407        47.813
J03  37400250.354 6 196539620.03406        40.688    37400257.850 6 153147792.03206        38.844    37400259.545 7 146766648.88207        42.781
J07  37153709.515 6 195244056.48106        39.781    37153710.724 7 152138229.95207        44.594    37153712.136 8 145799147.00808        50.375
> 2021 09 22 06 30  1.0000000  0 19
E02  28187603.004 4                        24.313    28187606.912 5                        31.031    28187604.068 4                        27.156    28187604.010 5 112057012.17005        32.281
E07  24441696.967 7 128441981.10007        45.500    24441699.867 8  95914477.47008        51.813    24441699.083 8  98416591.43608        51.844    24441699.337 9  97165533.99509        54.781
E12  26099243.713 6 137152446.34606        37.250    26099242.859 6 102419035.65806        38.438    26099243.164 6 105090837.70606        39.094    26099242.713 6 103754936.23106        41.750
E19  26939297.801 5 141566971.70205        35.969    26939301.520 6 105715618.70606        37.344    26939300.379 6 108473416.16106        37.094    26939300.597 6 107094516.97206        40.219
E26  25300454.526 7 132954780.48507        42.813    25300461.021 7  99284433.72107        44.969    25300460.526 7 101874459.78207        46.906    25300460.699 8 100579446.29108        49.000
E27  25664832.732 7 134869612.50007        44.625    25664837.194 7 100714339.46407        45.781    25664836.833 8 103341674.02708        48.094    25664836.910 8 102028005.78608        50.063
E30  24783226.959 7 130236740.96207        42.688    24783229.796 7  97254722.57207        46.719    24783228.995 7  99791800.23407        46.531    24783229.333 8  98523262.44608        49.656
E33  25310462.742 7 133007379.22607        43.656    25310464.427 7  99323695.88507        46.875    25310464.252 8 101914747.02008        48.469    25310464.281 8 100619222.49408        50.688
G05  21243804.003 7 111636938.99807        46.875    21243803.825 6        38.906    21243803.443 6  86989817.83706        38.906    21243803.711 7  86989810.84607        43.344
G13  21412598.002 7 112523959.85107        47.094    21412597.524 6        36.250    21412596.896 6  87680998.19006        36.250
G15  20209264.421 7 106200401.91107        47.375    20209264.108 8        51.375    20209263.161 8  82753556.39108        51.375    20209263.390 7  82753556.40907        45.000
G18  21510332.324 7 113037558.14107        46.031    21510332.083 5        35.281    21510332.103 5  88081213.40705        35.281    21510332.304 7  88081212.40907        43.500    21510335.403 8  84411173.67008        49.563
G20  23383695.592 7 122882138.46207        43.000    23383694.524 4        26.875    23383697.049 4  95752310.00504        26.875
G23  22622739.754 7 118883303.26307        44.750    22622739.558 5        32.406    22622740.436 5  92636340.16005        32.406    22622739.869 7  92636340.16707        42.375    22622742.481 7  88776505.75207        45.688
G24  20514980.591 7 107806954.73207        47.688    20514980.314 8        52.656    20514983.020 8  84005428.33208        52.656    20514982.741 7  84005420.34107        46.719    20514982.500 8  80505201.93408        53.438
J01  38776680.450 7 203772829.57607        46.375    38776679.424 7 158784016.45107        45.156    38776680.987 8 152168025.74308        50.875
J02  37007727.745 7 194476922.89007        43.750    37007730.670 7 151540471.18907        43.406    37007731.730 7 145226295.31107        47.813
J03  37400363.658 6 196540215.69906        40.875    37400370.962 6 153148256.16506        38.781    37400372.913 7 146767093.68807        42.813
J07  37153735.763 6 195244194.59306        39.844    37153737.006 7 152138337.56607        44.531    37153738.421 8 145799250.14408        50.469
> 2021 09 22 06 30  2.0000000  0 19
E02  28187983.155 4                        25.250    28187987.680 5                        31.125    28187984.768 4                        27.156    28187984.742 5 112058525.67705        32.250
E07  24441910.970 7 128443105.79607        45.281    24441913.893 8  95915317.34008        51.719    24441913.121 8  98417453.21108        51.844    24441913.362 9  97166384.81709        54.750
E12  26098952.994 6 137150919.17706        37.625    26098952.252 6 102417895.23006        38.344    26098952.479 6 105089667.53106        39.063    26098952.084 6 103753780.92806        41.656
E19  26938983.230 6 141565319.81406        36.313    26938987.178 6 105714385.16306        37.063    26938986.144 6 108472150.44306        37.000    26938986.224 6 107093267.34206        40.063
E26  25300991.921 7 132957604.36907        43.219    25300998.348 7  99286542.45007        44.875    25300997.877 7 101876623.52607        46.938    25300998.063 8 100581582.52908        48.938
E27  25664374.777 7 134867205.60507        44.531    25664379.252 7 100712542.10507        45.750    25664378.770 8 103339829.78108        48.125    25664378.899 8 102026184.98308        50.063
E30  24783205.668 7 130236629.83307        42.031    24783208.622 7  97254639.58307        46.625    24783207.860 7  99791715.07307        46.594    24783208.142 8  98523178.37208        49.625
E33  25310627.113 7 133008242.59007        43.656    25310628.702 7  99324340.59607        46.813    25310628.533 8 101915408.55308        48.438    25310628.573 8 100619875.61608        50.656
G05  21244227.056 7 111639162.20507        46.938    21244226.878 6        38.906    21244226.508 6  86991550.20406        38.906    21244226.738 7  86991543.21107        43.313
G13  21413000.629 7 112526075.31707        46.875    21413000.151 6        36.156    21412999.432 6  87682646.60506        36.156
G15  20209349.503 7 106200848.51007        47.250    20209349.186 8        51.406    20209348.162 8  82753904.39108        51.406    20209348.436 7  82753904.39707        45.063
G18  21510348.286 7 113037641.87907        45.938    21510348.045 5        35.281    21510348.049 5  88081278.65505        35.281    21510348.155 7  88081277.65607        43.281    21510351.329 8  84411236.20508        49.625
G20  23384354.941 7 122885604.15407        42.844    23384353.868 4        26.938    23384356.595 4  95755010.53904        26.938
G23  22622195.141 7 118880441.41407        44.625    22622194.945 5        32.438    22622195.864 5  92634110.15005        32.438    22622195.444 7  92634110.14407        42.500    22622197.861 7  88774368.65307        45.719
G24  20514594.112 7 107804924.40307        47.719    20514593.835 8        52.656    20514596.640 8  84003846.25908        52.656    20514596.327 7  84003838.26107        46.656    20514596.120 8  80503685.77608        53.406
J01  38776663.460 7 203772740.13407        46.344    38776662.436 7 158783946.75407        45.219    38776663.964 8 152167958.95008        50.813
J02  37007688.795 7 194476718.21107        43.844    37007691.625 7 151540311.68607        43.313    37007692.740 7 145226142.47007        47.875
J03  37400476.995 6 196540811.68406        40.594    37400484.519 6 153148720.56106        38.938    37400486.316 7 146767538.73907        42.813
J07  37153762.358 6 195244333.04906        39.594    37153763.402 7 152138445.44207        44.500    37153764.765 8 145799353.53108        50.406
> 2021 09 22 06 30  3.0000000  0 19
E02  28188363.327 4                        24.094    28188368.148 5                        30.844    28188365.451 4                        27.125    28188365.509 5 112060039.15505        32.063
E07  24442125.008 7 128444230.18007        45.438    24442127.858 8  95916156.97908        51.688    24442127.092 8  98418314.75708        51.875    24442127.330 9  97167235.41009        54.750
E12  26098662.285 6 137149392.00306        37.219    26098661.579 6 102416754.81006        38.188    26098661.921 6 105088497.38506        38.906    26098661.465 6 103752625.64706        41.531
E19  26938669.025 6 141563667.60206        36.156    26938672.767 6 105713151.36606        37.031    26938671.729 6 108470884.43606        36.875    26938671.806 6 107092017.44106        40.031
E26  25301529.185 7 132960428.05407        42.844    25301535.632 7  99288651.04507        44.719    25301535.200 7 101878787.12907        47.031    25301535.396 8 100583718.62708        48.969
E27  25663916.723 7 134864798.52407        44.563    25663921.215 7 100710744.60607        45.656    25663920.661 8 103337985.39308        48.219    25663920.853 8 102024364.04008        50.063
E30  24783184.483 7 130236518.79807        42.313    24783187.511 7  97254556.66607        46.688    24783186.679 7  99791629.98607        46.406    24783187.004 8  98523094.37008        49.563
E33  25310791.477 7 133009106.03507        43.594    25310793.024 7  99324985.38407        46.813    25310792.826 8 101916070.15808        48.469    25310792.892 8 100620528.81308        50.656
G05  21244650.193 7 111641385.44707        47.094    21244650.015 6        38.906    21244649.600 6  86993282.59506        38.906    21244649.850 7  86993275.61207        43.656
G13  21413403.117 7 112528190.56407        47.125    21413402.639 6        36.156    21413401.922 6  87684294.84706        36.156
G15  20209434.443 7 106201295.03907        47.281    20209434.130 8        51.406    20209433.150 8  82754252.33408        51.406    20209433.505 7  82754252.34007        45.094
G18  21510364.267 7 113037725.93407        46.031    21510364.026 5        35.250    21510364.035 5  88081344.15105        35.250    21510364.077 7  88081343.15607        43.281    21510367.330 8  84411298.96308        49.563
G20  23385014.287 7 122889069.68607        42.969    23385013.219 4        26.813    23385016.128 4  95757710.95004        26.813
G23  22621650.510 7 118877579.33907        44.469    22621650.309 5        32.469    22621651.256 5  92631879.96105        32.469    22621650.916 7  92631879.95107        42.250    22621653.240 7  88772231.37907        45.594
G24  20514207.773 7 107802894.22307        47.875    20514207.496 8        52.656    20514210.288 8  84002264.30008        52.656    20514210.142 7  84002256.30207        46.688    20514209.769 8  80502169.73108        53.469
J01  38776646.330 7 203772650.23707        46.344    38776645.443 7 158783876.70207        45.313    38776646.872 8 152167891.81308        50.875
J02  37007649.764 7 194476513.21707        43.875    37007652.652 7 151540151.95607        43.438    37007653.753 7 145225989.38507        47.750
J03  37400590.220 6 196541407.28206        40.750    37400598.153 6 153149184.66106        38.906    37400599.722 7 146767983.50507        42.688
J07  37153788.703 6 195244471.11006        39.656    37153789.663 7 152138553.03007        44.781    37153791.032 8 145799456.63308        50.438
> 2021 09 22 06 30  4.0000000  0 19
E02  28188744.426 3                        23.656    28188748.795 5                        30.906    28188746.147 4                        26.750    28188746.398 5 112061553.00405        32.125
E07  24442338.985 7 128445354.78107        45.469    24442341.861 8  95916996.78308        51.688    24442341.114 8  98419176.46708        51.938    24442341.341 9  97168086.16609        54.781
E12  26098371.666 6 137147865.37506        37.188    26098370.993 6 102415614.79906        38.188    26098371.398 6 105087327.61506        38.906    26098370.952 6 103751470.75706        41.563
E19  26938354.684 6 141562015.52206        36.156    26938358.396 6 105711917.67806        36.969    26938357.359 6 108469618.55906        36.781    26938357.424 6 107090767.65706        39.938
E26  25302066.551 7 132963252.06207        42.938    25302072.994 7  99290759.88307        44.719    25302072.546 7 101880950.97707        47.094    25302072.786 8 100585854.97108        49.000
E27  25663458.669 7 134862391.78307        44.469    25663463.282 7 100708947.36407        45.844    25663462.663 8 103336141.27608        48.344    25663462.869 8 102022543.36108        50.188
E30  24783163.499 7 130236408.37107        42.469    24783166.458 7  97254474.20307        46.563    24783165.597 7  99791545.38407        46.906    24783165.956 8  98523010.83508        49.813
E33  25310955.875 7 133009970.11407        43.438    25310957.477 7  99325630.62807        46.813    25310957.233 8 101916732.23808        48.469    25310957.314 8 100621182.47408        50.656
G05  21245073.360 7 111643609.24307        46.906    21245073.182 6        38.906    21245072.794 6  86995015.42306        38.906    21245073.216 7  86995008.44307        43.563
G13  21413805.638 7 112530306.09507        47.188    21413805.160 6        36.125    21413804.471 6  87685943.31306        36.125
G15  20209519.511 7 106201742.00307        47.344    20209519.194 8        51.406    20209518.214 8  82754600.61808        51.406    20209518.591 7  82754600.63007        45.031
G18  21510380.336 7 113037810.78207        45.969    21510380.095 5        35.250    21510380.186 5  88081410.26605        35.250    21510380.322 7  88081409.26907        43.344    21510383.482 8  84411362.33508        49.500
G20  23385673.700 7 122892535.59607        43.219    23385672.627 4        26.844    23385675.683 4  95760411.65204        26.844
G23  22621105.932 7 118874717.54007        44.469    22621105.736 5        32.438    22621106.693 5  92629649.99105        32.438    22621106.241 7  92629649.99307        42.281    22621108.680 7  88770094.33607        45.406
G24  20513821.594 7 107800864.71307        47.906    20513821.317 8        52.656    20513824.065 8  84000682.86608        52.656    20513824.031 7  84000674.87407        46.688    20513823.569 8  80500654.20008        53.469
J01  38776629.300 7 203772560.38807        46.281    38776628.362 7 158783806.70007        45.406    38776629.777 8 152167824.72408        50.938
J02  37007610.775 7 194476308.41707        43.594    37007613.469 7 151539992.38907        43.344    37007614.799 7 145225836.46707        47.750
J03  37400703.762 6 196542003.03006        40.594    37400711.418 6 153149648.88006        38.938    37400713.127 7 146768428.36807        42.688
J07  37153815.012 6 195244609.32706        40.000    37153815.915 7 152138660.73007        44.688    37153817.335 8 145799559.84808        50.469
> 2021 09 22 06 30  5.0000000  0 19
E02  28189125.645 3                        23.781    28189129.665 5                        31.000    28189127.098 4                        27.031    28189127.367 5 112063067.26805        32.344
E07  24442552.972 7 128446479.63507        45.500    24442555.925 8  95917836.77008        51.750    24442555.174 8  98420038.36908        52.000    24442555.398 9  97168937.11109        54.844
E12  26098081.138 6 137146339.30606        37.219    26098080.590 6 102414475.20706        38.031    26098081.022 6 105086158.29206        39.250    26098080.520 6 103750316.30006        41.594
E19  26938040.232 6 141560363.64406        36.125    26938044.073 6 105710684.13706        37.125    26938042.837 6 108468352.85806        36.781    26938043.042 6 107089518.03806        40.031
E26  25302604.026 7 132966076.40707        43.156    25302610.438 7  99292868.98207        44.781    25302610.012 7 101883115.08707        47.031    25302610.244 8 100587991.57308        49.000
E27  25663000.679 7 134859985.40307        44.406    25663005.347 7 100707150.41107        45.875    25663004.743 8 103334297.43508        48.313    25663004.966 8 102020722.96208        50.188
E30  24783142.452 7 130236298.58707        42.094    24783145.583 7  97254392.22507        46.688    24783144.698 7  99791461.27007        46.563    24783145.092 8  98522927.79108        49.625
E33  25311120.465 7 133010834.80207        43.375    25311122.019 7  99326276.35007        46.781    25311121.796 8 101917394.80408        48.469    25311121.860 8 100621836.61808        50.625
G05  21245496.621 7 111645833.63107        47.031    21245496.443 6        38.875    21245496.096 6  86996748.71106        38.875    21245496.515 7  86996741.72907        43.719
G13  21414208.262 7 112532421.94807        47.094    21414207.784 6        36.031    21414207.078 6  87687592.02706        36.031
G15  20209604.689 7 106202189.43107        47.406    20209604.376 8        51.344    20209603.371 8  82754949.26508        51.344    20209603.796 7  82754949.28007        45.094
G18  21510396.646 7 113037896.48607        45.906    21510396.405 5        35.188    21510396.517 5  88081477.04805        35.188    21510396.623 7  88081476.04407        43.281    21510399.780 8  84411426.33008        49.563
G20  23386333.320 7 122896001.91307        43.531    23386332.247 4        26.688    23386335.310 4  95763112.67504        26.688
G23  22620561.319 7 118871856.06407        44.563    22620561.118 5        32.438    22620562.192 5  92627420.27105        32.438    22620561.858 7  92627420.27307        42.219    22620564.161 7  88767957.52107        45.438
G24  20513435.450 7 107798835.92907        47.906    20513435.173 8        52.594    20513437.985 8  83999101.99508        52.594    20513437.914 7  83999094.00607        46.750    20513437.491 8  80499139.19608        53.469
J01  38776612.282 7 203772470.63307        46.406    38776611.225 7 158783736.75407        45.344    38776612.709 8 152167757.69908        50.875
J02  37007571.824 7 194476103.88007        43.719    37007574.473 7 151539832.99707        43.531    37007575.872 7 145225683.71707        47.781
J03  37400817.012 6 196542598.94206        40.500    37400824.801 6 153150113.20806        39.094    37400826.474 7 146768873.36107        42.656
J07  37153841.401 6 195244747.72206        39.688    37153842.228 7 152138768.56707        44.875    37153843.686 8 145799663.19008        50.469
> 2021 09 22 06 30  6.0000000  0 19
E02  28189507.795 4                        24.313    28189510.701 5                        31.063    28189508.246 4                        26.313    28189508.403 5 112064581.82705        31.938
E07  24442767.030 7 128447604.64107        45.469    24442770.001 8  95918676.87608        51.625    24442769.311 8  98420900.38808        51.813    24442769.481 9  97169788.17409        54.688
E12  26097790.744 6 137144813.72906        37.438    26097790.259 6 102413335.97306        37.844    26097790.719 6 105084989.33906        38.969    26097790.214 6 103749162.20406        41.406
E19  26937725.783 6 141558711.84806        36.219    26937729.735 6 105709450.67406        36.844    26937728.393 6 108467087.20606        36.500    26937728.705 6 107088268.48006        39.719
E26  25303141.553 7 132968901.04907        43.000    25303147.980 7  99294978.27607        44.563    25303147.519 7 101885279.40907        46.875    25303147.747 8 100590128.38208        48.813
E27  25662542.788 7 134857579.31207        44.563    25662547.510 7 100705353.65607        45.656    25662546.879 8 103332453.81108        48.313    25662547.103 8 102018902.77308        50.125
E30  24783121.572 6 130236189.36706        41.969    24783124.795 7  97254310.66907        46.594    24783123.905 7  99791377.57107        46.313    24783124.334 8  98522845.16308        49.469
E33  25311285.180 7 133011700.08107        43.281    25311286.680 7  99326922.49507        46.625    25311286.482 8 101918057.80108        48.344    25311286.510 8 100622491.18808        50.531
G05  21245920.034 7 111648058.52007        46.875    21245919.856 6        38.875    21245919.496 6  86998482.39106        38.875    21245919.967 7  86998475.39207        43.688
G13  21414610.957 7 112534538.06007        47.219    21414610.479 6        36.000    21414609.726 6  87689240.94906        36.000
G15  20209689.993 7 106202637.25207        47.438    20209689.680 8        51.344    20209688.600 8  82755298.21608        51.344    20209688.984 7  82755298.22807        45.063
G18  21510413.057 7 113037982.93307        46.125    21510412.821 5        35.188    21510412.977 5  88081544.41105        35.188    21510412.991 7  88081543.41407        43.375    21510416.243 8  84411490.88908        49.625
G20  23386993.010 7 122899468.54607        43.219    23386991.942 4        26.750    23386994.987 4  95765813.94504        26.750
G23  22620016.834 7 118868994.82907        44.406    22620016.633 5        32.406    22620017.741 5  92625190.73605        32.406    22620017.362 7  92625190.74407        42.250    22620019.686 7  88765820.87407        45.531
G24  20513049.547 7 107796807.75407        47.938    20513049.270 8        52.563    20513052.017 8  83997521.60208        52.563    20513051.989 7  83997513.61407        46.719    20513051.532 8  80497624.65308        53.438
J01  38776595.239 7 203772380.87907        46.375    38776594.115 7 158783666.81507        45.406    38776595.626 8 152167690.67608        50.875
J02  37007532.806 7 194475899.47407        43.844    37007535.457 7 151539673.72307        43.500    37007536.974 7 145225531.08407        47.781
J03  37400930.540 6 196543194.92806        40.188    37400938.204 6 153150577.62406        39.406    37400939.854 7 146769318.40007        42.688
J07  37153867.773 6 195244886.17506        39.969    37153868.604 7 152138876.47207        44.844    37153870.046 8 145799766.59708        50.469
> 2021 09 22 06 30  7.0000000  0 19
E02  28189888.929 4                        24.688    28189891.912 5                        30.813    28189889.210 4                        26.313    28189889.470 5 112066096.42805        31.750
E07  24442981.090 7 128448729.45107        45.594    24442984.040 8  95919516.83008        51.563    24442983.365 8  98421762.25308        51.938    24442983.520 9  97170639.08409        54.719
E12  26097500.401 6 137143288.26106        37.313    26097500.012 6 102412196.80606        38.156    26097500.391 6 105083820.46606        39.156    26097499.920 6 103748008.18706        41.656
E19  26937411.449 6 141557059.81806        36.250    26937415.342 6 105708217.01806        36.750    26937413.974 6 108465821.36806        36.750    26937414.314 6 107087018.73406        39.781
E26  25303679.029 7 132971725.56907        43.094    25303685.491 7  99297087.49707        44.594    25303684.998 7 101887443.65507        46.969    25303685.236 8 100592265.11608        48.875
E27  25662084.935 7 134855173.14307        44.594    25662089.629 7 100703556.84307        45.719    25662089.030 8 103330610.12208        48.281    25662089.232 8 102017082.52208        50.125
E30  24783100.839 7 130236080.31707        42.063    24783104.063 7  97254229.24007        46.781    24783103.109 7  99791294.03107        46.031    24783103.555 8  98522762.67908        49.469
E33  25311449.843 7 133012565.53507        43.094    25311451.384 7  99327568.77307        46.719    25311451.152 8 101918720.94208        48.438    25311451.213 8 100623145.89908        50.625
G05  21246343.386 7 111650283.53107        47.000    21246343.208 6        38.875    21246342.905 6  87000216.16506        38.875    21246343.330 7  87000209.16807        43.688
G13  21415013.625 7 112536654.00107        47.188    21415013.147 6        36.000    21415012.346 6  87690889.73406        36.000
G15  20209775.264 7 106203085.08507        47.406    20209774.947 8        51.344    20209773.834 8  82755647.17808        51.344    20209774.259 7  82755647.18407        45.000
G18  21510429.571 7 113038069.78007        46.000    21510429.330 5        35.188    21510429.486 5  88081612.08305        35.188    21510429.649 7  88081611.09107        43.344    21510432.756 8  84411555.73908        49.719
G20  23387652.658 7 122902935.14707        43.313    23387651.585 4        26.719    23387654.654 4  95768515.19104        26.719
G23  22619472.305 7 118866133.44707        44.344    22619472.104 5        32.344    22619473.263 5  92622961.09005        32.344    22619472.772 7  92622961.09407        42.125    22619475.159 7  88763684.13707        45.531
G24  20512663.693 7 107794779.84507        47.875    20512663.416 8        52.563    20512666.102 8  83995941.41408        52.563    20512666.101 7  83995933.42707        46.813    20512665.643 8  80496110.30608        53.438
J01  38776578.067 7 203772290.75307        46.281    38776576.991 7 158783596.59907        45.469    38776578.456 8 152167623.37608        50.938
J02  37007494.019 7 194475694.85107        43.531    37007496.668 7 151539514.27607        43.375    37007498.031 7 145225378.27907        47.844
J03  37401043.937 6 196543790.61106        40.344    37401051.558 6 153151041.79106        39.219    37401053.232 7 146769763.24307        42.625
J07  37153894.171 6 195245024.39106        39.375    37153894.936 7 152138984.15007        44.750    37153896.336 8 145799869.79308        50.531
> 2021 09 22 06 30  8.0000000  0 19
E02  28190270.224 4                        24.313    28190272.796 5                        30.969    28190270.067 4                        26.875    28190270.555 5 112067611.25805        32.094
E07  24443195.065 7 128449854.24507        45.688    24443198.076 8  95920356.76608        51.625    24443197.437 8  98422624.10408        51.813    24443197.554 9  97171489.97709        54.688
E12  26097209.823 6 137141763.10706        37.594    26097209.726 6 102411057.90506        38.094    26097210.246 6 105082651.84106        39.125    26097209.708 6 103746854.42206        41.625
E19  26937097.140 6 141555407.74306        36.219    26937100.873 6 105706983.32506        36.875    26937099.606 6 108464555.47106        36.813    26937099.932 6 107085768.93806        39.875
E26  25304216.501 7 132974550.18707        42.969    25304222.982 7  99299196.77307        44.719    25304222.523 7 101889607.96907        46.906    25304222.729 8 100594401.91208        48.906
E27  25661627.121 7 134852767.08507        44.500    25661631.760 7 100701760.11107        45.625    25661631.200 8 103328766.52008        48.281    25661631.378 8 102015262.35608        50.094
E30  24783080.212 7 130235971.67807        42.219    24783083.401 7  97254148.10107        46.656    24783082.463 7  99791210.77807        46.406    24783082.918 8  98522680.48308        49.563
E33  25311614.545 7 133013431.37707        42.844    25311616.109 7  99328215.34407        46.719    25311615.918 8 101919384.37808        48.375    25311615.979 8 100623800.90208        50.563
G05  21246766.854 7 111652508.87207        46.719    21246766.676 6        38.719    21246766.390 6  87001950.19506        38.719    21246766.712 7  87001943.19607        43.656
G13  21415416.283 7 112538770.03107        47.156    21415415.805 5        35.906    21415415.007 5  87692538.58705        35.906
G15  20209860.554 7 106203533.12507        47.344    20209860.241 8        51.250    20209859.108 8  82755996.30208        51.250    20209859.558 7  82755996.30807        45.156
G18  21510446.234 7 113038157.21507        45.844    21510445.993 5        35.094    21510446.120 5  88081680.21305        35.094    21510446.326 7  88081679.21707        43.344    21510449.405 8  84411621.03408        49.656
G20  23388312.419 7 122906401.87307        43.219    23388311.342 4        26.656    23388314.334 4  95771216.53004        26.656
G23  22618927.762 7 118863272.15207        44.406    22618927.561 5        32.250    22618928.785 5  92620731.51005        32.250    22618928.201 7  92620731.50907        42.406    22618930.651 7  88761547.44707        45.531
G24  20512277.870 7 107792752.38307        47.875    20512277.593 8        52.469    20512280.273 8  83994361.57408        52.469    20512280.183 7  83994353.58107        46.781    20512279.825 8  80494596.28608        53.406
J01  38776560.827 7 203772200.46307        46.406    38776559.837 7 158783526.23307        45.344    38776561.257 8 152167555.95208        50.938
J02  37007455.023 7 194475490.20307        44.125    37007457.804 7 151539354.82307        43.500    37007459.079 7 145225225.46107        47.875
J03  37401157.335 6 196544386.22906        40.219    37401165.113 6 153151505.89706        39.094    37401166.599 7 146770208.00507        42.594
J07  37153920.444 6 195245162.49206        39.375    37153921.191 7 152139091.77107        44.844    37153922.652 8 145799972.93208        50.500
> 2021 09 22 06 30  9.0000000  0 19
E02  28190651.622 3                        23.000    28190654.006 5                        30.656    28190651.107 4                        27.656    28190651.819 5 112069126.59805        32.281
E07  24443409.172 7 128450979.43507        45.875    24443412.192 8  95921197.00608        51.625    24443411.535 8  98423486.26108        51.938    24443411.687 9  97172341.17609        54.719
E12  26096919.661 6 137140238.65906        37.406    26096919.678 6 102409919.51806        38.063    26096920.175 6 105081483.75906        39.250    26096919.634 6 103745701.18906        41.688
E19  26936782.857 5 141553756.00805        35.938    26936786.558 6 105705749.88906        36.656    26936785.276 6 108463289.87706        36.438    26936785.618 6 107084519.42506        39.563
E26  25304754.246 7 132977375.31507        43.125    25304760.569 7  99301306.45007        44.750    25304760.129 7 101891772.67207        46.969    25304760.330 8 100596539.10108        48.938
E27  25661169.334 7 134850361.55207        44.406    25661174.010 7 100699963.77507        45.719    25661173.481 8 103326923.32108        48.313    25661173.618 8 102013442.58808        50.125
E30  24783059.764 7 130235863.83907        42.375    24783062.949 7  97254067.57007        46.656    24783061.914 7  99791128.14107        46.438    24783062.402 8  98522598.89908        49.594
E33  25311779.506 7 133014298.02007        42.938    25311781.001 7  99328862.51007        46.750    25311780.828 8 101920048.42908        48.500    25311780.906 8 100624456.51008        50.656
G05  21247190.367 7 111654734.96507        46.656    21247190.189 6        38.719    21247190.031 6  87003684.81406        38.719    21247190.436 7  87003677.81007        43.781
G13  21415818.988 7 112540886.54107        46.938    21415818.510 5        35.875    21415817.757 5  87694187.81605        35.875
G15  20209945.956 7 106203981.80107        47.250    20209945.639 8        51.219    20209944.498 8  82756345.91808        51.219    20209944.960 7  82756345.92507        45.156
G18  21510463.048 7 113038245.65607        45.656    21510462.807 5        35.094    21510462.951 5  88081749.13005        35.094    21510463.163 7  88081748.12307        43.406    21510466.254 8  84411687.07108        49.625
G20  23388972.229 7 122909869.16407        43.125    23388971.161 4        26.719    23388974.145 4  95773918.31404        26.719
G23  22618383.351 7 118860411.31607        44.406    22618383.150 5        32.313    22618384.400 5  92618502.29005        32.313    22618383.981 7  92618502.30707        42.219    22618386.302 7  88759411.12707        45.531
G24  20511892.144 7 107790725.78707        47.688    20511891.867 8        52.438    20511894.604 8  83992782.41108        52.438    20511894.331 7  83992774.40807        46.719    20511894.171 8  80493082.92208        53.469
J01  38776543.688 7 203772110.43007        46.406    38776542.767 7 158783456.07307        45.344    38776544.111 8 152167488.71508        51.031
J02  37007416.209 7 194475285.94007        44.125    37007419.171 7 151539195.65107        43.500    37007420.202 7 145225072.94107        47.844
J03  37401270.676 6 196544982.14906        40.250    37401278.340 6 153151970.25206        39.313    37401279.997 7 146770653.01207        42.719
J07  37153946.837 6 195245300.94706        39.594    37153947.591 7 152139199.65307        44.969    37153949.004 8 145800076.32008        50.563
> 2021 09 22 06 30 10.0000000  0 19
E02  28191033.128 4                        24.656    28191035.060 5                        30.813    28191032.412 4                        27.281    28191033.230 5 112070642.60705        32.125
E07  24443623.315 7 128452105.21707        46.094    24443626.398 8  95922037.68508        51.656    24443625.790 8  98424348.87008        51.875    24443625.913 9  97173192.81909        54.750
E12  26096629.610 6 137138715.11906        37.656    26096629.750 6 102408781.80706        38.000    26096630.310 6 105080316.37206        39.406    26096629.694 6 103744548.63806        41.719
E19  26936468.637 6 141552104.79906        36.281    26936472.337 6 105704516.86406        36.969    26936471.136 6 108462024.65306        36.844    26936471.401 6 107083270.30006        39.969
E26  25305292.052 7 132980201.13407        42.844    25305298.270 7  99303416.64907        44.625    25305297.933 7 101893937.91307        46.969    25305298.060 8 100598676.82108        48.906
E27  25660711.720 7 134847956.72707        44.469    25660716.384 7 100698167.97307        45.844    25660715.849 8 103325080.67208        48.250    25660715.996 8 102011623.36208        50.156
E30  24783039.355 7 130235756.96607        42.250    24783042.655 7  97253987.76107        46.594    24783041.611 7  99791046.26507        46.719    24783042.057 8  98522518.05608        49.719
E33  25311944.685 7 133015165.64407        42.750    25311946.130 7  99329510.40707        46.813    25311945.932 8 101920713.23208        48.594    25311946.007 8 100625112.86008        50.750
G05  21247614.186 7 111656961.98507        46.781    21247614.008 6        38.594    21247613.834 6  87005420.15106        38.594    21247614.093 7  87005413.15307        43.563
G13  21416221.802 7 112543003.71807        47.031    21416221.324 5        35.781    21416220.623 5  87695837.56305        35.781
G15  20210031.495 7 106204431.27507        47.156    20210031.182 8        51.125    20210030.045 8  82756696.15808        51.125    20210030.560 7  82756696.16407        45.188
G18  21510480.082 7 113038335.27107        45.781    21510479.841 5        35.031    21510480.011 5  88081818.95805        35.031    21510480.297 7  88081817.95007        43.313    21510483.306 8  84411753.99508        49.688
G20  23389632.216 7 122913337.21607        43.125    23389631.143 4        26.594    23389634.102 4  95776620.68804        26.594
G23  22617839.221 7 118857551.15507        44.406    22617839.020 5        32.188    22617840.150 5  92616273.59705        32.188    22617839.693 7  92616273.59807        42.219    22617842.050 7  88757275.28407        45.531
G24  20511506.629 7 107788700.23807        47.500    20511506.348 8        52.375    20511509.141 8  83991204.06108        52.375    20511508.821 7  83991196.06507        46.656    20511508.733 8  80491570.34108        53.438
J01  38776526.748 7 203772020.80807        46.281    38776525.751 7 158783386.24407        45.250    38776527.071 8 152167421.79708        51.031
J02  37007377.449 7 194475082.26007        44.125    37007380.461 7 151539036.94507        43.531    37007381.437 7 145224920.83807        47.938
J03  37401384.152 6 196545578.58806        40.219    37401391.923 6 153152434.99506        39.250    37401393.465 7 146771098.40207        42.656
J07  37153973.229 6 195245439.90306        39.344    37153974.038 7 152139307.92707        44.844    37153975.456 8 145800180.08708        50.625
> 2021 09 22 06 30 11.0000000  0 19
E02  28191414.767 3                        23.656    28191416.507 5                        30.938    28191413.506 4                        26.563    28191414.584 5 112072158.70505        32.031
E07  24443837.561 7 128453230.89807        46.031    24443840.610 8  95922878.29108        51.719    24443839.982 8  98425211.40708        52.000    24443840.118 9  97174044.39009        54.813
E12  26096339.591 6 137137191.79806        37.531    26096339.915 6 102407644.27606        38.094    26096340.452 6 105079149.15006        39.313    26096339.838 6 103743396.26206        41.750
E19  26936154.617 5 141550453.45705        35.719    26936158.019 6 105703283.70106        36.750    26936156.917 6 108460759.35006        36.719    26936157.144 6 107082021.06606        39.781
E26  25305829.899 7 132983026.97107        42.938    25305836.014 7  99305526.83707        44.625    25305835.671 7 101896103.16207        47.031    25305835.795 8 100600814.53908        48.906
E27  25660254.158 7 134845551.92007        44.438    25660258.771 7 100696372.18207        45.938    25660258.189 8 103323238.03508        48.344    25660258.388 8 102009804.14808        50.219
E30  24783019.082 7 130235650.39407        42.406    24783022.359 7  97253908.19307        46.813    24783021.361 7  99790964.61207        46.813    24783021.814 8  98522437.44508        49.875
E33  25312109.711 7 133016033.56607        42.781    25312111.310 7  99330158.53507        46.844    25312111.119 8 101921378.26708        48.594    25312111.167 8 100625769.44108        50.719
G05  21248038.113 7 111659189.25707        46.625    21248037.930 6        38.656    21248037.681 6  87007155.68806        38.656    21248037.804 7  87007148.69407        43.625
G13  21416624.555 7 112545120.88007        47.094    21416624.077 5        35.844    21416623.499 5  87697487.29905        35.844
G15  20210117.140 7 106204880.88007        47.219    20210116.823 8        51.219    20210115.614 8  82757046.50008        51.219    20210116.094 7  82757046.50507        45.156
G18  21510497.354 7 113038425.39607        45.469    21510497.113 5        35.094    21510497.164 5  88081889.18705        35.094    21510497.177 7  88081888.18307        43.531    21510500.464 8  84411821.29108        49.625
G20  23390292.179 7 122916805.32707        43.438    23390291.106 4        26.656    23390294.083 4  95779323.10604        26.656
G23  22617294.827 7 118854690.96807        44.344    22617294.626 5        32.281    22617295.891 5  92614044.87805        32.281    22617295.310 7  92614044.88107        42.344    22617297.807 7  88755139.43507        45.469
G24  20511121.188 7 107786675.04507        47.500    20511120.911 8        52.406    20511123.746 8  83989625.99108        52.406    20511123.490 7  83989617.99807        46.625    20511123.355 8  80490058.02908        53.344
J01  38776509.728 7 203771930.94207        46.438    38776508.618 7 158783316.22407        45.344    38776509.980 8 152167354.68508        51.000
J02  37007338.487 7 194474878.46907        44.625    37007341.816 7 151538878.14807        43.625    37007342.652 7 145224768.65807        47.906
J03  37401497.714 6 196546174.85206        40.281    37401505.529 6 153152899.63406        39.906    37401506.910 7 146771543.65607        42.813
J07  37153999.381 6 195245578.67906        39.844    37154000.452 7 152139416.08707        44.844    37154001.869 8 145800283.73208        50.625
> 2021 09 22 06 30 12.0000000  0 19
E02  28191796.711 4                        24.688    28191798.115 5                        31.063    28191795.101 4                        26.781    28191796.161 5 112073675.33705        32.094
E07  24444051.812 7 128454356.98507        46.125    24444054.910 8  95923719.20508        51.719    24444054.286 8  98426074.26308        51.969    24444054.425 9  97174896.27509        54.813
E12  26096049.994 6 137135669.23006        37.625    26096050.145 6 102406507.26306        38.063    26096050.742 6 105077982.50306        39.406    26096050.091 6 103742244.43306        41.750
E19  26935840.440 6 141548802.45006        36.125    26935843.863 6 105702050.82606        36.813    26935842.816 6 108459494.30206        36.563    26935842.968 6 107080772.10706        39.688
E26  25306367.771 7 132985853.31107        43.063    25306373.836 7  99307637.42007        44.688    25306373.533 7 101898268.79607        47.000    25306373.629 8 100602952.64808        48.969
E27  25659796.648 7 134843147.67307        44.563    25659801.248 7 100694576.79707        45.875    25659800.633 8 103321395.81708        48.375    25659800.874 8 102007985.34808        50.219
E30  24782999.029 7 130235544.64907        42.906    24783002.246 7  97253829.23007        46.844    24783001.321 7  99790883.58507        46.938    24783001.687 8  98522357.45008        49.969
E33  25312275.082 7 133016902.30507        42.656    25312276.636 7  99330807.26407        46.781    25312276.419 8 101922043.91808        48.594    25312276.487 8 100626426.63308        50.688
G05  21248462.069 7 111661417.26907        46.969    21248461.891 6        38.656    21248461.662 6  87008891.80006        38.656    21248461.642 7  87008884.79307        43.563
G13  21417027.570 7 112547238.53207        46.906    21417027.097 5        35.938    21417026.463 5  87699137.41905        35.938
G15  20210202.840 7 106205331.12307        47.125    20210202.527 8        51.219    20210201.303 8  82757397.33808        51.219    20210201.877 7  82757397.34307        45.219
G18  21510514.633 7 113038516.51707        45.688    21510514.392 5        35.063    21510514.527 5  88081960.18605        35.063    21510514.541 7  88081959.19207        43.500    21510517.820 8  84411889.34008        49.563
G20  23390952.322 7 122920274.00007        43.656    23390951.249 4        26.688    23390954.139 4  95782025.96804        26.688
G23  22616750.659 7 118851831.27807        44.156    22616750.463 5        32.375    22616751.721 5  92611816.55205        32.375    22616750.964 7  92611816.54207        42.406    22616753.694 7  88753003.94307        45.438
G24  20510735.891 7 107784650.73407        47.406    20510735.614 8        52.406    20510738.524 8  83988048.60508        52.406    20510738.314 7  83988040.62207        46.656    20510738.131 8  80488546.36708        53.313
J01  38776492.720 7 203771841.33207        46.438    38776491.573 7 158783246.39007        45.281    38776492.940 8 152167287.76708        51.063
J02  37007299.922 7 194474675.07407        44.469    37007303.197 7 151538719.65407        43.469    37007303.940 7 145224616.77807        47.813
J03  37401611.298 6 196546771.45306        40.219    37401619.049 6 153153364.49006        39.594    37401620.386 7 146771989.16607        42.750
J07  37154025.786 6 195245717.83606        39.875    37154026.862 7 152139524.50407        44.688    37154028.325 8 145800387.62508        50.563
> 2021 09 22 06 30 13.0000000  0 19
E02  28192178.471 4                        24.438    28192179.773 5                        30.938    28192176.901 4                        26.188    28192177.840 5 112075192.36305        31.781
E07  24444266.181 7 128455483.32207        46.250    24444269.236 8  95924560.29408        51.813    24444268.639 8  98426937.28908        51.938    24444268.763 9  97175748.33409        54.844
E12  26095760.262 6 137134147.18406        37.406    26095760.545 6 102405370.69906        38.063    26095761.186 6 105076816.27206        39.344    26095760.464 6 103741093.03106        41.688
E19  26935526.207 6 141547151.63206        36.219    26935529.789 6 105700818.05406        36.656    26935528.657 6 108458229.38306        36.750    26935528.788 6 107079523.25906        39.750
E26  25306905.688 7 132988680.00907        43.063    25306911.739 7  99309748.24607        44.688    25306911.450 7 101900434.69907        47.031    25306911.525 8 100605091.01508        48.938
E27  25659339.234 7 134840743.76907        44.688    25659343.769 7 100692781.67807        45.938    25659343.209 8 103319553.86608        48.438    25659343.436 8 102006166.81208        50.281
E30  24782979.154 7 130235439.52507        42.688    24782982.219 7  97253750.72807        46.781    24782981.386 7  99790803.03407        46.906    24782981.672 8  98522277.92508        49.906
E33  25312440.506 7 133017771.66607        42.938    25312442.099 7  99331456.46207        46.844    25312441.874 8 101922710.05308        48.563    25312441.933 8 100627084.29908        50.750
G05  21248886.241 7 111663645.86207        46.344    21248886.063 6        38.781    21248885.738 6  87010628.36306        38.781    21248885.657 7  87010621.36107        43.656
G13  21417430.616 7 112549356.47807        46.969    21417430.138 5        35.969    21417429.486 5  87700787.76505        35.969
G15  20210288.565 7 106205781.81107        46.969    20210288.248 8        51.313    20210287.082 8  82757748.52308        51.313    20210287.581 7  82757748.53107        45.188
G18  21510532.195 7 113038608.48107        45.500    21510531.954 5        35.188    21510532.025 5  88082031.84605        35.188    21510532.172 7  88082030.84907        43.563    21510535.326 8  84411958.01308        49.625
G20  23391612.509 7 122923743.06907        43.375    23391611.441 4        27.000    23391614.258 4  95784729.13704        27.000
G23  22616206.534 7 118848971.88807        44.063    22616206.338 5        32.375    22616207.605 5  92609588.45505        32.375    22616206.756 7  92609588.45707        42.313    22616209.605 7  88750868.68507        45.406
G24  20510350.930 7 107782627.12007        47.188    20510350.649 8        52.500    20510353.428 8  83986471.76408        52.500    20510353.170 7  83986463.77407        46.406    20510353.033 8  80487035.22808        53.344
J01  38776475.707 7 203771751.79307        46.313    38776474.588 7 158783176.61807        45.375    38776475.891 8 152167220.90608        51.031
J02  37007261.299 7 194474471.90807        44.500    37007264.523 7 151538561.34007        43.219    37007265.259 7 145224465.05907        47.906
J03  37401724.903 6 196547368.19806        40.625    37401732.547 6 153153829.48406        39.750    37401733.969 7 146772434.78407        42.719
J07  37154052.415 6 195245857.11006        39.375    37154053.395 7 152139633.03807        44.594    37154054.832 8 145800491.64208        50.625
> 2021 09 22 06 30 14.0000000  0 19
E02  28192559.073 4                        24.438    28192561.153 5                        30.875    28192558.791 4                        26.750    28192559.654 5 112076709.81305        32.063
E07  24444480.562 7 128456609.90807        46.156    24444483.614 8  95925401.57208        51.875    24444483.005 8  98427800.51508        52.000    24444483.150 9  97176600.58509        54.875
E12  26095470.676 6 137132625.73706        37.156    26095470.932 6 102404234.54406        38.063    26095471.653 6 105075650.49206        39.500    26095470.949 6 103739942.06906        41.813
E19  26935211.989 6 141545501.00506        36.406    26935215.643 6 105699585.45806        36.438    26935214.557 6 108456964.63506        36.656    26935214.652 6 107078274.58706        39.531
E26  25307443.680 7 132991507.04907        43.344    25307449.740 7  99311859.35407        44.625    25307449.420 7 101902600.86607        47.063    25307449.488 8 100607229.65208        48.969
E27  25658881.821 7 134838340.24707        44.813    25658886.374 7 100690986.83807        46.125    25658885.840 8 103317712.20908        48.469    25658886.061 8 102004348.56308        50.375
E30  24782959.241 7 130235335.06507        42.594    24782962.306 7  97253672.71907        46.719    24782961.548 7  99790722.99107        46.750    24782961.764 8  98522198.89808        49.813
E33  25312606.015 7 133018641.68207        43.031    25312607.698 7  99332106.14507        46.938    25312607.424 8 101923376.68908        48.625    25312607.490 8 100627742.45908        50.813
G05  21249310.438 7 111665875.04607        46.281    21249310.260 6        38.813    21249309.938 6  87012365.38906        38.813    21249309.974 7  87012358.38907        43.406
G13  21417833.728 7 112551474.75207        46.719    21417833.250 5        35.969    21417832.563 5  87702438.36505        35.969
G15  20210374.426 7 106206232.98507        46.969    20210374.109 8        51.344    20210372.951 8  82758100.08708        51.344    20210373.369 7  82758100.10107        45.219
G18  21510549.847 7 113038701.28407        45.781    21510549.611 5        35.188    21510549.705 5  88082104.15905        35.188    21510549.886 7  88082103.17207        43.438    21510552.966 8  84412027.31508        49.594
G20  23392272.613 7 122927212.53907        43.250    23392271.540 4        27.000    23392274.435 4  95787432.61604        27.000
G23  22615662.589 7 118846112.82507        44.500    22615662.393 5        32.406    22615663.566 5  92607360.61605        32.406    22615662.684 7  92607360.62107        42.344    22615665.575 7  88748733.67807        45.531
G24  20509966.018 7 107780604.22807        47.406    20509965.741 8        52.531    20509968.475 8  83984895.48408        52.531    20509968.277 7  83984887.49207        46.594    20509968.092 8  80485524.62708        53.375
J01  38776458.647 7 203771662.35307        46.406    38776457.508 7 158783106.92207        45.250    38776458.867 8 152167154.11608        51.031
J02  37007222.740 7 194474268.96707        44.500    37007225.875 7 151538403.21707        43.375    37007226.667 7 145224313.52307        47.844
J03  37401838.543 6 196547965.11006        40.531    37401846.128 6 153154294.61406        39.750    37401847.539 7 146772880.52607        42.719
J07  37154079.139 6 195245996.58406        39.438    37154079.908 7 152139741.72507        44.594    37154081.382 8 145800595.79408        50.594
> 2021 09 22 06 30 15.0000000  0 19
E02  28192940.995 4                        24.688    28192942.828 5                        30.344    28192940.377 4                        25.594    28192941.553 5 112078227.46305        31.188
E07  24444694.942 7 128457736.50207        46.188    24444698.008 8  95926242.85808        51.844    24444697.378 8  98428663.74308        51.906    24444697.538 9  97177452.84209        54.844
E12  26095181.058 6 137131104.60906        37.344    26095181.333 6 102403098.63006        38.063    26095182.194 6 105074484.94906        39.500    26095181.496 6 103738791.33806        41.813
E19  26934897.940 6 141543850.36606        36.563    26934901.533 6 105698352.82206        36.781    26934900.433 6 108455699.85606        36.750    26934900.547 6 107077025.88006        39.781
E26  25307981.632 7 132994334.21607        43.219    25307987.758 7  99313970.54707        44.781    25307987.433 7 101904767.13607        47.063    25307987.482 8 100609368.38108        49.000
E27  25658424.472 7 134835936.86507        44.906    25658429.075 7 100689192.11207        46.094    25658428.496 8 103315870.65708        48.375    25658428.717 8 102002530.42408        50.313
E30  24782939.367 7 130235231.00307        42.469    24782942.479 7  97253595.01307        46.719    24782941.746 7  99790643.26007        46.813    24782941.932 8  98522120.17908        49.813
E33  25312771.604 7 133019512.10007        42.875    25312773.316 7  99332756.13507        46.875    25312773.063 8 101924043.63208        48.594    25312773.123 8 100628400.92508        50.750
G05  21249734.545 7 111668104.58707        46.688    21249734.362 6        38.813    21249734.201 6  87014102.69306        38.813    21249734.348 7  87014095.69907        43.500
G13  21418236.790 7 112553593.13507        46.656    21418236.312 5        35.938    21418235.670 5  87704089.05305        35.938
G15  20210460.380 7 106206684.40207        47.063    20210460.067 8        51.375    20210458.860 8  82758451.84208        51.375    20210459.217 7  82758451.84607        45.250
G18  21510567.602 7 113038794.71307        45.688    21510567.366 5        35.188    21510567.494 5  88082176.95805        35.188    21510567.493 7  88082175.96507        43.406    21510570.731 8  84412097.08108        49.500
G20  23392932.897 7 122930682.19007        43.375    23392931.824 4        27.156    23392934.679 4  95790136.24104        27.156
G23  22615118.588 7 118843253.84907        44.125    22615118.392 5        32.438    22615119.530 5  92605132.84505        32.438    22615118.736 7  92605132.84707        42.375    22615121.514 7  88746598.73707        45.469
G24  20509581.161 7 107778581.81107        47.406    20509580.880 8        52.563    20509583.620 8  83983319.57708        52.563    20509583.515 7  83983311.58907        46.688    20509583.236 8  80484014.38108        53.375
J01  38776441.590 7 203771572.76807        46.094    38776440.423 7 158783037.11807        45.125    38776441.840 8 152167087.21908        51.063
J02  37007184.113 7 194474066.03907        44.594    37007187.148 7 151538245.09907        43.375    37007188.023 7 145224161.98507        47.969
J03  37401952.024 6 196548561.98606        40.531    37401960.091 6 153154759.68806        39.844    37401961.110 7 146773326.22807        42.688
J07  37154105.801 6 195246136.00406        39.625    37154106.396 7 152139850.36007        44.656    37154107.915 8 145800699.90408        50.594
> 2021 09 22 06 30 16.0000000  0 19
E02  28193322.880 4                        25.094    28193324.986 5                        31.188    28193321.721 4                        25.281    28193323.421 5 112079745.34505        31.563
E07  24444909.445 7 128458863.15907        46.313    24444912.432 8  95927084.19408        51.875    24444911.767 8  98429527.02708        52.031    24444911.930 9  97178305.15209        54.906
E12  26094891.681 6 137129583.86606        37.250    26094892.019 6 102401963.02506        38.156    26094892.858 6 105073319.71006        39.750    26094892.110 7 103737640.91407        42.000
E19  26934583.734 6 141542199.68206        36.563    26934587.358 6 105697120.20706        36.563    26934586.335 6 108454435.06206        36.594    26934586.456 6 107075777.17606        39.688
E26  25308519.580 7 132997161.54307        43.250    25308525.779 7  99316081.86407        44.781    25308525.445 7 101906933.52707        47.031    25308525.503 8 100611507.23708        49.000
E27  25657967.140 7 134833533.66707        45.188    25657971.729 7 100687397.52107        46.125    25657971.172 8 103314029.24608        48.438    25657971.395 8 102000712.42208        50.375
E30  24782919.690 7 130235127.40607        43.000    24782922.735 7  97253517.65907        46.781    24782922.034 7  99790563.88707        46.844    24782922.235 8  98522041.81608        49.875
E33  25312937.342 7 133020382.98007        42.938    25312939.038 7  99333406.47207        46.938    25312938.805 8 101924710.93208        48.656    25312938.855 8 100629059.74308        50.844
G05  21250158.712 7 111670334.53207        46.656    21250158.534 6        38.875    21250158.536 6  87015840.31006        38.875    21250158.764 7  87015833.31007        43.188
G13  21418639.998 7 112555711.64507        46.219    21418639.520 5        35.969    21418638.787 5  87705739.83905        35.969
G15  20210546.189 7 106207136.10207        47.094    20210545.872 8        51.438    20210544.827 8  82758803.81608        51.438    20210545.182 7  82758803.82007        45.281
G18  21510585.454 7 113038888.79807        45.875    21510585.218 5        35.219    21510585.398 5  88082250.27205        35.219    21510585.388 7  88082249.27407        43.219    21510588.622 8  84412167.33208        49.563
G20  23393593.111 7 122934152.05807        43.125    23393592.043 4        27.156    23393594.985 4  95792840.03004        27.156
G23  22614574.461 7 118840395.02607        44.344    22614574.269 5        32.469    22614575.521 5  92602905.19105        32.469    22614574.707 7  92602905.19207        42.188    22614577.534 7  88744463.89007        45.469
G24  20509196.348 7 107776559.90707        47.531    20509196.067 8        52.594    20509198.860 8  83981744.06708        52.594    20509198.817 7  83981736.08407        46.750    20509198.476 8  80482504.52208        53.344
J01  38776424.430 7 203771483.09207        46.250    38776423.347 7 158782967.24607        45.188    38776424.804 8 152167020.25308        50.969
J02  37007145.408 7 194473863.17207        44.531    37007148.485 7 151538087.01307        43.406    37007149.431 7 145224010.48407        47.938
J03  37402065.742 6 196549158.84706        40.406    37402073.611 6 153155224.78406        39.625    37402074.691 7 146773771.93707        42.625
J07  37154132.269 6 195246275.40406        39.375    37154133.029 7 152139958.97707        44.594    37154134.444 8 145800804.00908        50.594
> 2021 09 22 06 30 17.0000000  0 19
E02  28193704.703 4                        25.406    28193706.783 5                        30.781    28193702.883 4                        25.906    28193705.369 5 112081263.47505        31.625
E07  24445123.815 7 128459989.83407        46.156    24445126.811 8  95927925.53708        51.906    24445126.169 8  98430390.32408        52.000    24445126.326 9  97179157.47209        54.906
E12  26094602.580 6 137128063.47006        37.313    26094602.695 6 102400827.67106        38.031    26094603.481 6 105072154.72106        39.656    26094602.796 6 103736490.74306        41.906
E19  26934269.596 6 141540549.05506        36.563    26934273.239 6 105695887.58306        36.625    26934272.124 6 108453170.27806        36.594    26934272.347 6 107074528.47206        39.656
E26  25309057.508 7 132999989.01307        43.125    25309063.816 7  99318193.27607        44.813    25309063.510 7 101909100.02707        46.938    25309063.556 8 100613646.19308        49.000
E27  25657509.824 7 134831130.61307        45.313    25657514.433 7 100685603.03107        46.219    25657513.857 8 103312187.96008        48.406    25657514.109 8 101998894.53608        50.406
E30  24782900.146 7 130235024.21307        42.656    24782903.094 7  97253440.60807        46.844    24782902.355 7  99790484.82607        46.750    24782902.596 8  98521963.76008        49.813
E33  25313103.119 7 133021254.29407        42.938    25313104.838 7  99334057.11907        47.031    25313104.603 8 101925378.55008        48.719    25313104.649 8 100629718.87508        50.906
G05  21250583.094 7 111672564.83907        46.688    21250582.911 6        38.875    21250582.933 6  87017578.21006        38.875    21250583.311 7  87017571.21907        43.281
G13  21419043.127 7 112557830.26307        46.219    21419042.649 5        35.875    21419041.931 5  87707390.71105        35.875
G15  20210632.124 7 106207588.04507        46.938    20210631.811 8        51.406    20210630.834 8  82759155.97908        51.406    20210631.164 7  82759155.98407        45.313
G18  21510603.332 7 113038983.50007        45.969    21510603.096 5        35.250    21510603.450 5  88082324.06505        35.250    21510603.512 7  88082323.07707        43.125    21510606.640 8  84412238.05108        49.563
G20  23394253.308 7 122937622.09507        42.781    23394252.240 4        27.250    23394255.274 4  95795543.94904        27.250
G23  22614030.565 7 118837536.30607        44.031    22614030.373 5        32.438    22614031.531 5  92600677.61805        32.438    22614030.723 7  92600677.60707        42.063    22614033.533 7  88742329.12507        45.469
G24  20508811.670 7 107774538.50007        47.531    20508811.393 8        52.594    20508814.193 8  83980168.94908        52.594    20508814.243 7  83980160.95607        46.750    20508813.820 8  80480995.02908        53.375
J01  38776407.253 7 203771393.27807        46.313    38776406.247 7 158782897.26807        45.313    38776407.708 8 152166953.18208        51.063
J02  37007106.682 7 194473660.29407        44.594    37007109.882 7 151537928.94107        43.438    37007110.827 7 145223858.99307        47.906
J03  37402179.198 6 196549755.67006        40.313    37402187.130 6 153155689.83706        40.031    37402188.257 7 146774217.61407        42.844
J07  37154158.613 6 195246414.76606        39.656    37154159.494 7 152140067.57407        44.625    37154160.941 8 145800908.07108        50.625
> 2021 09 22 06 30 18.0000000  0 19
E02  28194085.931 4                        25.719    28194088.440 5                        30.688    28194084.723 4                        26.563    28194087.308 5 112082781.88805        31.750
E07  24445338.190 7 128461116.65607        46.219    24445341.236 8  95928767.00008        51.844    24445340.605 8  98431253.73708        51.938    24445340.754 9  97180009.91009        54.844
E12  26094313.456 6 137126543.54006        37.313    26094313.450 6 102399692.65606        38.188    26094314.325 6 105070990.10806        39.781    26094313.567 7 103735340.92907        42.000
E19  26933955.453 6 141538898.44906        36.469    26933959.099 6 105694655.00006        36.656    26933957.931 6 108451905.53606        36.750    26933958.238 6 107073279.81006        39.719
E26  25309595.680 7 133002816.72907        43.281    25309601.905 7  99320304.88007        44.813    25309601.605 7 101911266.70907        46.844    25309601.648 8 100615785.33508        48.906
E27  25657052.623 7 134828727.84307        45.563    25657057.280 7 100683808.75607        46.156    25657056.613 8 103310346.86408        48.250    25657056.899 8 101997076.85008        50.250
E30  24782880.673 7 130234921.59107        42.781    24782883.543 7  97253363.96707        46.906    24782882.815 7  99790406.19007        46.781    24782883.081 8  98521886.12108        49.906
E33  25313268.908 7 133022126.12907        42.938    25313270.762 7  99334708.17407        46.938    25313270.475 8 101926046.59008        48.656    25313270.551 8 100630378.42408        50.844
G05  21251007.680 7 111674795.64407        46.563    21251007.497 6        38.906    21251007.442 6  87019316.50106        38.906    21251007.795 7  87019309.49907        43.188
G13  21419446.327 7 112559949.10207        45.781    21419445.849 5        35.844    21419445.119 5  87709041.75105        35.844
G15  20210718.250 7 106208040.35407        47.000    20210717.933 8        51.406    20210716.917 8  82759508.42608        51.406    20210717.208 7  82759508.43407        45.156
G18  21510621.573 7 113039078.94707        45.875    21510621.337 5        35.281    21510621.614 5  88082398.44005        35.281    21510621.655 7  88082397.44907        43.031    21510624.815 8  84412309.32608        49.594
G20  23394913.605 7 122941092.44307        42.656    23394912.537 4        27.125    23394915.661 4  95798248.11504        27.125
G23  22613486.746 7 118834677.78807        44.250    22613486.559 5        32.406    22613487.576 5  92598450.20205        32.406    22613486.638 7  92598450.20507        42.094    22613489.609 7  88740194.53207        45.719
G24  20508427.109 7 107772517.70507        47.594    20508426.828 8        52.594    20508429.647 8  83978594.30608        52.594    20508429.595 7  83978586.30807        46.875    20508429.285 8  80479485.99408        53.438
J01  38776390.217 7 203771303.45607        46.188    38776389.250 7 158782827.27007        45.250    38776390.632 8 152166886.11308        50.969
J02  37007068.080 7 194473457.56707        44.438    37007071.255 7 151537770.96707        43.094    37007072.251 7 145223707.60807        47.844
J03  37402292.685 6 196550352.56606        40.563    37402300.755 6 153156154.94606        40.125    37402301.776 7 146774663.34407        42.781
J07  37154185.018 6 195246554.18806        39.469    37154186.100 7 152140176.22107        44.563    37154187.489 8 145801012.19308        50.625
> 2021 09 22 06 30 19.0000000  0 19
E02  28194468.237 4                        25.188    28194470.473 5                        30.656    28194466.815 4                        26.625    28194469.256 5 112084300.43605        31.656
E07  24445552.625 7 128462243.29807        46.000    24445555.628 8  95929608.32508        51.844    24445554.987 8  98432117.01008        51.875    24445555.146 9  97180862.20809        54.813
E12  26094024.256 6 137125023.75006        36.656    26094024.298 6 102398557.72906        37.844    26094025.150 6 105069825.58506        39.938    26094024.347 6 103734191.20406        41.844
E19  26933641.291 6 141537247.64606        36.563    26933644.829 6 105693422.25706        36.438    26933643.837 6 108450640.64806        36.813    26933644.115 6 107072030.99606        39.625
E26  25310133.703 7 133005644.36207        43.031    25310139.966 7  99322416.43007        44.844    25310139.653 7 101913433.34107        46.875    25310139.728 8 100617924.42608        48.906
E27  25656595.450 7 134826325.00707        45.531    25656600.034 7 100682014.43407        46.281    25656599.327 8 103308505.73508        48.313    25656599.667 8 101995259.12508        50.375
E30  24782861.214 7 130234819.17407        42.594    24782864.044 7  97253287.48807        46.844    24782863.277 7  99790327.71307        46.781    24782863.599 8  98521808.64508        49.813
E33  25313434.679 7 133022998.18707        42.906    25313436.687 7  99335359.39007        46.938    25313436.421 8 101926714.79508        48.688    25313436.497 8 100631038.13408        50.844
G05  21251432.264 7 111677026.59207        46.688    21251432.081 6        38.969    21251431.982 6  87021054.89806        38.969    21251432.323 7  87021047.89807        43.375
G13  21419849.425 7 112562067.83707        45.875    21419848.947 5        35.844    21419848.281 5  87710692.71005        35.844
G15  20210804.344 7 106208492.70407        47.094    20210804.031 8        51.469    20210803.005 8  82759860.90808        51.469    20210803.305 7  82759860.91707        45.094
G18  21510639.824 7 113039174.80607        46.031    21510639.588 5        35.281    21510639.867 5  88082473.13605        35.281    21510639.825 7  88082472.14407        43.250    21510643.020 8  84412380.91308        49.656
G20  23395573.967 7 122944562.76707        42.594    23395572.903 4        27.125    23395576.044 4  95800952.26104        27.125
G23  22612942.793 7 118831819.17107        44.125    22612942.601 5        32.469    22612943.607 5  92596222.71105        32.469    22612942.599 6  92596222.70606        41.844    22612945.631 7  88738059.85207        45.719
G24  20508042.583 7 107770497.17407        47.469    20508042.302 8        52.625    20508045.154 8  83977019.86608        52.625    20508045.166 7  83977011.88107        46.750    20508044.799 8  80477977.16308        53.406
J01  38776373.099 7 203771213.30007        46.156    38776371.978 7 158782757.02207        45.438    38776373.479 8 152166818.78608        50.969
J02  37007029.368 7 194473254.65307        44.469    37007032.588 7 151537612.84407        43.313    37007033.624 7 145223556.07707        47.844
J03  37402406.196 6 196550949.18206        40.406    37402414.241 6 153156619.83706        39.844    37402415.381 7 146775108.86407        42.750
J07  37154211.500 6 195246693.37406        39.125    37154212.723 7 152140284.67607        44.750    37154213.967 8 145801116.12508        50.625
> 2021 09 22 06 30 20.0000000  0 19
E02  28194850.069 4                        25.500    28194852.457 5                        30.875    28194849.362 4                        26.969    28194851.294 5 112085819.11305        32.063
E07  24445766.988 7 128463369.90107        46.094    24445769.976 8  95930449.62208        51.781    24445769.363 8  98432980.24808        51.844    24445769.533 9  97181714.47609        54.781
E12  26093735.073 6 137123504.21406        36.813    26093735.193 6 102397423.03606        38.125    26093736.144 6 105068661.27906        39.844    26093735.199 7 103733041.70407        42.000
E19  26933327.035 6 141535596.72406        36.563    26933330.642 6 105692189.44106        36.469    26933329.641 6 108449375.66006        36.750    26933329.943 6 107070782.09506        39.625
E26  25310671.742 7 133008472.06407        43.219    25310678.024 7  99324528.01807        44.750    25310677.751 7 101915600.02407        46.781    25310677.829 8 100620063.56208        48.844
E27  25656138.235 7 134823922.24707        45.344    25656142.813 7 100680220.17207        46.281    25656142.068 8 103306664.66708        48.188    25656142.452 8 101993441.46108        50.313
E30  24782841.844 7 130234717.11107        42.625    24782844.609 7  97253211.27707        46.656    24782843.849 7  99790249.50907        46.844    24782844.156 8  98521731.43708        49.813
E33  25313600.727 7 133023870.60707        42.813    25313602.709 7  99336010.86207        46.938    25313602.429 8 101927383.27008        48.625    25313602.511 8 100631698.10808        50.813
G05  21251856.798 7 111679257.85607        46.938    21251856.615 6        39.063    21251856.590 6  87022793.54406        39.063    21251856.890 7  87022786.55007        43.250
G13  21420252.642 7 112564186.58307        45.688    21420252.164 5        35.938    21420251.438 5  87712343.68405        35.938
G15  20210890.474 7 106208945.22607        47.188    20210890.161 8        51.563    20210889.124 8  82760213.52308        51.563    20210889.439 7  82760213.53207        45.063
G18  21510658.232 7 113039271.21407        45.938    21510657.996 5        35.375    21510658.205 5  88082548.26205        35.375    21510658.208 7  88082547.27607        43.344    21510661.382 8  84412452.90908        49.594
G20  23396234.505 7 122948033.20207        42.313    23396233.441 4        27.188    23396236.435 4  95803656.48904        27.188
G23  22612398.980 7 118828960.57807        43.938    22612398.788 5        32.563    22612399.616 5  92593995.23705        32.563    22612398.692 6  92593995.24206        41.813    22612401.659 7  88735925.19407        45.531
G24  20507658.203 7 107768477.07807        47.438    20507657.922 8        52.719    20507660.747 8  83975445.76808        52.719    20507660.787 7  83975437.77707        46.844    20507660.410 8  80476468.65108        53.375
J01  38776355.920 7 203771122.94607        46.094    38776354.778 7 158782686.61207        45.281    38776356.294 8 152166751.31308        50.938
J02  37006990.742 7 194473051.65707        44.250    37006993.884 7 151537454.67107        43.406    37006995.027 7 145223404.50107        47.781
J03  37402519.749 6 196551545.67906        40.375    37402527.737 6 153157084.64006        39.781    37402528.864 7 146775554.29407        42.625
J07  37154237.928 6 195246832.43406        39.563    37154239.019 7 152140393.02807        44.688    37154240.427 8 145801219.97308        50.625
> 2021 09 22 06 30 21.0000000  0 19
E02  28195232.656 4                        25.500    28195234.414 5                        30.844    28195231.618 4                        26.719    28195233.439 5 112087338.02205        32.000
E07  24445981.290 7 128464496.52907        46.250    24445984.377 8  95931290.92508        51.813    24445983.740 8  98433843.49708        51.906    24445983.912 9  97182566.75209        54.813
E12  26093445.883 6 137121985.02506        36.875    26093446.146 6 102396288.58106        38.063    26093447.103 6 105067497.23006        39.969    26093446.104 7 103731892.44907        42.000
E19  26933012.914 6 141533945.79906        36.688    26933016.479 6 105690956.57606        36.344    26933015.411 6 108448110.65406        36.594    26933015.785 6 107069533.16206        39.469
E26  25311209.841 7 133011299.89607        43.094    25311216.121 7  99326639.70907        44.750    25311215.899 7 101917766.79407        46.844    25311215.940 8 100622202.79408        48.875
E27  25655681.098 7 134821519.64207        45.625    25655685.615 7 100678426.02007        46.281    25655684.826 8 103304823.71008        48.063    25655685.251 8 101991623.90708        50.250
E30  24782822.585 7 130234615.46607        42.531    24782825.268 7  97253135.36707        46.969    24782824.560 7  99790171.62607        46.969    24782824.776 8  98521654.54008        50.031
E33  25313766.895 7 133024743.43107        42.688    25313768.817 7  99336662.65007        46.969    25313768.534 8 101928052.05508        48.531    25313768.605 8 100632358.39308        50.781
G05  21252281.519 7 111681489.46807        46.344    21252281.336 6        38.969    21252281.242 6  87024532.46106        38.969    21252281.588 7  87024525.46707        43.125
G13  21420655.753 7 112566305.44007        45.656    21420655.284 5        35.781    21420654.617 5  87713994.73605        35.781
G15  20210976.729 7 106209397.99807        47.031    20210976.416 8        51.500    20210975.292 8  82760566.33308        51.500    20210975.624 7  82760566.33607        45.156
G18  21510676.665 7 113039368.25407        46.000    21510676.429 5        35.313    21510676.673 5  88082623.87805        35.313    21510676.763 7  88082622.87507        42.938    21510679.846 8  84412525.36908        49.625
G20  23396895.114 7 122951503.82307        42.219    23396894.050 4        27.188    23396896.889 4  95806360.86704        27.188
G23  22611854.974 7 118826102.09107        43.844    22611854.787 5        32.531    22611855.679 5  92591767.84505        32.531    22611854.593 6  92591767.85306        41.781    22611857.762 7  88733790.60707        45.625
G24  20507273.830 7 107766457.45107        47.625    20507273.544 8        52.625    20507276.429 8  83973872.03708        52.625    20507276.460 7  83973864.04707        46.656    20507276.108 8  80474960.48808        53.469
J01  38776338.719 7 203771032.44107        46.250    38776337.567 7 158782616.09007        45.313    38776339.037 8 152166683.73408        50.875
J02  37006952.110 7 194472848.68307        44.344    37006955.268 7 151537296.51407        43.344    37006956.419 7 145223252.93307        47.844
J03  37402633.151 6 196552142.09806        40.313    37402641.115 6 153157549.38806        39.813    37402642.322 7 146775999.66807        42.500
J07  37154264.423 6 195246971.43206        39.563    37154265.557 7 152140501.34607        44.688    37154266.876 8 145801323.77508        50.469
> 2021 09 22 06 30 22.0000000  0 19
E02  28195615.163 4                        24.688    28195616.541 5                        30.656    28195613.786 4                        26.813    28195615.678 5 112088857.24805        31.844
E07  24446195.658 7 128465623.32707        46.156    24446198.788 8  95932132.36908        51.875    24446198.157 8  98434706.90208        51.750    24446198.335 9  97183419.17709        54.781
E12  26093156.828 6 137120466.34306        36.875    26093157.085 6 102395154.49006        38.188    26093158.108 6 105066333.56206        39.875    26093157.107 7 103730743.57307        42.063
E19  26932698.725 6 141532294.97406        36.719    26932702.462 6 105689723.85406        36.313    26932701.267 6 108446845.74306        36.469    26932701.662 6 107068284.34406        39.406
E26  25311748.016 7 133014128.00807        43.031    25311754.285 7  99328751.60907        44.781    25311754.143 7 101919933.78907        46.938    25311754.104 8 100624342.24108        48.938
E27  25655223.944 7 134819117.34307        45.781    25655228.494 7 100676632.10107        46.406    25655227.678 8 103302982.99108        48.156    25655228.099 8 101989806.58708        50.344
E30  24782803.358 7 130234514.39407        42.469    24782806.069 7  97253059.90107        46.750    24782805.387 7  99790094.18807        46.781    24782805.548 8  98521578.08808        49.781
E33  25313933.209 7 133025616.84207        42.938    25313935.026 7  99337314.86907        47.000    25313934.714 8 101928721.29408        48.594    25313934.815 8 100633019.12208        50.813
G05  21252706.310 7 111683721.60307        46.406    21252706.127 6        38.969    21252706.006 6  87026271.78506        38.969    21252706.319 7  87026264.79507        43.313
G13  21421058.889 7 112568424.54907        45.781    21421058.424 5        35.844    21421057.841 5  87715645.98905        35.844
G15  20211062.932 7 106209851.17007        47.063    20211062.619 8        51.563    20211061.536 8  82760919.45408        51.563    20211061.903 7  82760919.45307        45.313
G18  21510695.260 7 113039466.05707        46.000    21510695.024 5        35.375    21510695.279 5  88082700.08905        35.375    21510695.326 7  88082699.09607        43.188    21510698.486 8  84412598.40908        49.656
G20  23397555.664 7 122954974.78107        42.500    23397554.600 4        27.219    23397557.482 4  95809065.50804        27.219
G23  22611311.024 7 118823243.87507        43.938    22611310.837 5        32.594    22611311.805 5  92589540.66405        32.594    22611310.677 6  92589540.65506        41.750    22611313.888 7  88731656.21407        45.688
G24  20506889.643 7 107764438.47707        47.469    20506889.357 8        52.688    20506892.227 8  83972298.81008        52.688    20506892.255 7  83972290.81707        46.938    20506891.911 8  80473452.81508        53.500
J01  38776321.559 7 203770941.97007        46.156    38776320.487 7 158782545.59907        45.344    38776321.797 8 152166616.17608        50.875
J02  37006913.442 7 194472645.88107        44.281    37006916.726 7 151537138.49507        43.469    37006917.807 7 145223101.48607        47.719
J03  37402746.653 6 196552738.60906        40.188    37402754.533 6 153158014.18906        39.813    37402755.891 7 146776445.11407        42.469
J07  37154290.835 6 195247110.55706        39.313    37154292.105 7 152140609.75607        44.531    37154293.346 8 145801427.66408        50.469
> 2021 09 22 06 30 23.0000000  0 19
E02  28195997.595 4                        25.406    28195998.655 5                        30.375    28195996.297 4                        26.438    28195997.907 5 112090376.59805        31.500
E07  24446409.962 7 128466749.95007        46.250    24446413.166 8  95932973.67208        51.688    24446412.542 8  98435570.14608        51.875    24446412.727 9  97184271.45009        54.750
E12  26092867.900 6 137118947.79406        37.000    26092868.147 6 102394020.52406        37.938    26092869.107 6 105065170.00206        39.969    26092868.138 6 103729594.80806        41.969
E19  26932384.472 6 141530643.93306        36.813    26932388.345 6 105688490.91906        36.250    26932386.964 6 108445580.66606        36.469    26932387.446 6 107067035.33606        39.344
E26  25312286.234 7 133016956.03707        43.188    25312292.485 7  99330863.45307        44.656    25312292.279 7 101922100.72507        46.906    25312292.259 8 100626481.63108        48.875
E27  25654766.803 7 134816714.98207        45.938    25654771.319 7 100674838.12807        46.219    25654770.513 8 103301142.21708        48.094    25654770.938 8 101987989.21408        50.219
E30  24782784.080 7 130234413.55507        42.781    24782786.920 7  97252984.59407        46.906    24782786.203 7  99790016.91407        46.781    24782786.360 8  98521501.79808        49.906
E33  25314099.575 7 133026490.46107        42.906    25314101.256 7  99337967.24507        46.906    25314100.942 8 101929390.68108        48.688    25314101.057 8 100633680.00508        50.813
G05  21253131.104 7 111685953.90407        46.594    21253130.917 6        38.813    21253130.801 6  87028011.23806        38.813    21253131.078 7  87028004.24407        43.188
G13  21421462.234 7 112570543.55607        45.656    21421461.769 5        35.656    21421461.056 5  87717297.16205        35.656
G15  20211149.194 7 106210304.37907        47.125    20211148.877 8        51.469    20211147.789 8  82761272.60408        51.469    20211148.094 7  82761272.60507        45.188
G18  21510713.875 7 113039564.27107        46.000    21510713.639 5        35.250    21510713.948 5  88082776.61905        35.250    21510714.063 7  88082775.63407        43.188    21510717.194 8  84412671.75508        49.688
G20  23398216.169 7 122958445.71807        42.656    23398215.105 4        27.344    23398218.021 4  95811770.13304        27.344
G23  22610766.979 7 118820385.52207        44.031    22610766.796 5        32.438    22610767.877 5  92587313.37605        32.438    22610766.838 6  92587313.38106        41.531    22610769.980 7  88729521.73707        45.781
G24  20506505.524 7 107762419.76807        47.656    20506505.238 8        52.563    20506508.083 8  83970725.79108        52.563    20506508.214 7  83970717.80007        46.969    20506507.762 8  80471945.34408        53.531
J01  38776304.261 7 203770851.16207        46.375    38776303.173 7 158782474.83307        45.313    38776304.506 8 152166548.36208        50.875
J02  37006874.658 7 194472442.87907        44.406    37006878.078 7 151536980.31007        43.188    37006879.176 7 145222949.89407        47.625
J03  37402860.155 6 196553334.85206        40.188    37402868.029 6 153158478.79606        39.906    37402869.363 7 146776890.35107        42.406
J07  37154317.208 6 195247249.42306        39.438    37154318.480 7 152140717.96007        44.656    37154319.729 8 145801531.35508        50.500
> 2021 09 22 06 30 24.0000000  0 19
E02  28196379.699 4                        25.406    28196380.978 5                        30.781    28196378.348 4                        26.563    28196380.191 5 112091896.11305        31.906
E07  24446624.298 7 128467876.56807        46.406    24446627.563 8  95933814.98508        51.750    24446626.919 8  98436433.40808        51.906    24446627.119 9  97185123.73709        54.781
E12  26092579.034 6 137117429.57906        36.469    26092579.246 6 102392886.78306        37.969    26092580.205 6 105064006.68706        39.906    26092579.240 6 103728446.28206        41.844
E19  26932070.145 6 141528992.84906        36.844    26932074.150 6 105687257.96506        36.219    26932072.675 6 108444315.54106        36.531    26932073.256 6 107065786.29706        39.375
E26  25312824.324 7 133019784.19807        43.125    25312830.684 7  99332975.37707        44.688    25312830.505 7 101924267.74107        46.938    25312830.433 8 100628621.10108        48.844
E27  25654309.679 7 134814312.76007        45.594    25654314.187 7 100673044.26707        46.250    25654313.347 7 103299301.56107        47.938    25654313.800 8 101986171.95608        50.156
E30  24782765.000 7 130234313.12107        42.750    24782767.839 7  97252909.59207        46.906    24782767.091 7  99789939.95407        46.719    24782767.262 8  98521425.81808        49.813
E33  25314266.043 7 133027364.48907        42.750    25314267.576 7  99338619.92807        46.844    25314267.285 8 101930060.39108        48.625    25314267.374 8 100634341.20108        50.781
G05  21253555.960 7 111688186.56107        46.656    21253555.773 6        38.844    21253555.663 6  87029750.96906        38.844    21253555.885 7  87029743.97407        43.344
G13  21421865.473 7 112572662.64607        45.719    21421865.013 5        35.688    21421864.271 5  87718948.40005        35.688
G15  20211235.454 7 106210757.82307        47.063    20211235.141 8        51.500    20211234.078 8  82761625.93608        51.500    20211234.230 7  82761625.94607        45.344
G18  21510732.725 7 113039663.10807        45.781    21510732.489 5        35.313    21510732.756 5  88082853.63605        35.313    21510732.821 7  88082852.64507        43.281    21510735.993 8  84412745.55808        49.688
G20  23398876.754 7 122961916.81607        42.406    23398875.690 4        27.406    23398878.614 4  95814474.88004        27.406
G23  22610223.144 7 118817527.28407        44.031    22610222.961 5        32.500    22610223.962 5  92585086.17905        32.500    22610222.858 6  92585086.17606        41.281    22610226.134 7  88727387.33207        45.781
G24  20506121.534 7 107760401.54807        47.594    20506121.248 8        52.625    20506124.033 8  83969153.15508        52.625    20506124.163 7  83969145.16007        47.156    20506123.701 8  80470438.23008        53.563
J01  38776286.943 7 203770760.20307        46.063    38776285.802 7 158782403.96007        45.125    38776287.199 8 152166480.43908        50.906
J02  37006835.866 7 194472239.87307        44.531    37006839.370 7 151536822.12607        43.094    37006840.550 7 145222798.30807        47.656
J03  37402973.708 6 196553931.02306        40.125    37402981.498 6 153158943.33106        39.906    37402982.784 7 146777335.53207        42.406
J07  37154343.550 6 195247388.22006        39.594    37154344.887 7 152140826.12407        44.594    37154346.168 8 145801635.00808        50.500
> 2021 09 22 06 30 25.0000000  0 19
E02  28196761.558 4                        24.094    28196763.481 5                        30.969    28196759.965 4                        26.438    28196762.635 5 112093416.38605        31.844
E07  24446838.758 7 128469003.86207        46.313    24446842.099 8  95934656.79008        51.688    24446841.456 8  98437297.17008        51.969    24446841.641 9  97185976.52209        54.781
E12  26092290.286 6 137115912.35706        36.344    26092290.453 6 102391753.78806        37.875    26092291.500 6 105062844.13906        40.063    26092290.512 6 103727298.50506        41.938
E19  26931756.155 6 141527342.36306        36.844    26931759.968 6 105686025.46706        36.188    26931758.615 6 108443050.90106        36.219    26931759.183 6 107064537.72806        39.156
E26  25313362.733 7 133022613.11107        42.969    25313369.084 7  99335087.88507        44.625    25313368.858 7 101926435.35207        46.875    25313368.753 8 100630761.16008        48.844
E27  25653852.684 7 134811911.32907        45.531    25653857.207 7 100671250.98607        46.188    25653856.314 7 103297461.49607        47.938    25653856.814 8 101984355.28308        50.125
E30  24782746.057 7 130234213.73407        42.563    24782748.966 7  97252835.37307        46.750    24782748.132 7  99789863.80607        47.000    24782748.347 8  98521350.63508        49.938
E33  25314432.584 7 133028239.58307        42.813    25314434.101 7  99339273.39807        46.844    25314433.816 8 101930730.91308        48.688    25314433.893 8 100635003.19708        50.813
G05  21253981.035 7 111690420.21107        46.688    21253980.848 6        38.844    21253980.709 6  87031491.47506        38.844    21253980.935 7  87031484.47707        43.438
G13  21422268.866 7 112574782.47007        45.844    21422268.410 5        35.625    21422267.625 5  87720600.21205        35.625
G15  20211321.886 7 106211212.15807        47.156    20211321.573 8        51.531    20211320.542 8  82761979.96408        51.531    20211320.661 7  82761979.97807        45.313
G18  21510751.662 7 113039763.19907        45.875    21510751.426 5        35.313    21510751.805 5  88082931.62905        35.313    21510751.865 7  88082930.63607        43.250    21510755.048 8  84412820.30408        49.719
G20  23399537.482 7 122965388.72507        42.594    23399536.418 4        27.531    23399539.350 4  95817180.25804        27.531
G23  22609679.524 7 118814669.77107        43.813    22609679.341 5        32.438    22609680.181 5  92582859.54505        32.438    22609678.881 6  92582859.53306        41.313    22609682.383 7  88725253.48507        45.813
G24  20505737.756 7 107758384.45007        47.531    20505737.470 8        52.625    20505740.198 8  83967581.39008        52.625    20505740.271 7  83967573.40007        47.156    20505739.861 8  80468931.95808        53.500
J01  38776269.701 7 203770669.75307        46.281    38776268.479 7 158782333.47707        45.313    38776269.975 8 152166412.89508        50.875
J02  37006797.393 7 194472037.52107        44.469    37006800.747 7 151536664.44807        42.969    37006802.021 7 145222647.20107        47.563
J03  37403087.228 6 196554527.77306        40.000    37403095.243 6 153159408.31806        39.969    37403096.341 7 146777781.15807        42.406
J07  37154370.081 6 195247527.61106        39.313    37154371.252 7 152140934.73407        44.656    37154372.674 8 145801739.10008        50.438
> 2021 09 22 06 30 26.0000000  0 19
E02  28197143.975 4                        25.000    28197146.064 5                        30.375    28197142.159 4                        26.250    28197145.268 5 112094937.19205        31.250
E07  24447053.409 7 128470131.63607        46.188    24447056.727 8  95935498.95708        51.500    24447056.099 8  98438161.30808        51.813    24447056.247 9  97186829.67209        54.656
E12  26092001.690 6 137114395.93906        36.094    26092001.888 6 102390621.38506        37.938    26092002.977 6 105061682.20606        40.063    26092001.953 6 103726151.34106        41.969
E19  26931442.209 6 141525692.31006        36.938    26931445.953 6 105684793.29306        36.000    26931444.653 6 108441786.57106        36.344    26931445.177 6 107063289.47606        39.125
E26  25313901.164 7 133025442.62407        42.938    25313907.535 7  99337200.81907        44.563    25313907.280 7 101928603.41707        46.938    25313907.177 8 100632901.66008        48.813
E27  25653395.696 7 134809510.50207        45.844    25653400.353 7 100669458.16407        46.094    25653399.481 8 103295621.91008        48.000    25653399.934 8 101982539.08008        50.094
E30  24782727.407 7 130234115.22907        42.750    24782730.174 7  97252761.82507        46.656    24782729.433 7  99789788.33207        46.719    24782729.624 8  98521276.12208        49.750
E33  25314599.326 7 133029115.53807        42.781    25314600.842 7  99339927.53407        46.750    25314600.543 8 101931402.11508        48.656    25314600.582 8 100635665.86608        50.750
G05  21254406.327 7 111692654.69607        46.594    21254406.135 6        38.844    21254405.929 6  87033232.62906        38.844    21254406.162 7  87033225.63107        43.313
G13  21422672.488 7 112576902.86307        45.813    21422672.037 5        35.469    21422671.091 5  87722252.46505        35.469
G15  20211408.500 7 106211667.19007        47.031    20211408.187 8        51.469    20211407.139 8  82762334.53308        51.469    20211407.400 7  82762334.54507        45.281
G18  21510771.010 7 113039864.37707        45.688    21510770.774 5        35.219    21510771.064 5  88083010.46505        35.219    21510771.165 7  88083009.47907        43.219    21510774.293 8  84412895.85608        49.625
G20  23400198.361 7 122968861.28907        42.875    23400197.297 4        27.563    23400200.220 4  95819886.14304        27.563
G23  22609135.891 7 118811812.82307        44.000    22609135.713 5        32.344    22609136.499 5  92580633.35105        32.344    22609135.297 6  92580633.35306        41.281    22609138.744 7  88723120.04407        45.781
G24  20505354.125 7 107756368.30107        47.438    20505353.835 8        52.563    20505356.546 8  83966010.36908        52.563    20505356.489 7  83966002.37407        47.188    20505356.206 8  80467426.39108        53.531
J01  38776252.529 7 203770579.62807        46.250    38776251.227 7 158782263.24707        45.250    38776252.815 8 152166345.59408        50.813
J02  37006759.010 7 194471835.63607        44.375    37006762.365 7 151536507.13207        42.969    37006763.576 7 145222496.44507        47.594
J03  37403200.836 6 196555124.90706        39.875    37403208.893 6 153159873.62506        39.906    37403209.994 7 146778227.07007        42.500
J07  37154396.578 6 195247667.41306        39.438    37154397.789 7 152141043.67207        44.625    37154399.259 8 145801843.49708        50.438
> 2021 09 22 06 30 27.0000000  0 19
E02  28197526.567 4                        25.344    28197528.714 5                        30.313    28197525.275 4                        25.594    28197528.012 5 112096458.39505        31.250
E07  24447268.010 7 128471259.64407        46.219    24447271.382 8  95936341.29908        51.594    24447270.746 8  98439025.62208        51.844    24447270.898 9  97187683.00209        54.688
E12  26091713.459 6 137112880.05606        36.250    26091713.443 6 102389489.40106        37.813    26091714.447 6 105060520.67406        40.000    26091713.480 6 103725004.58206        41.906
E19  26931128.380 6 141524042.42706        36.844    26931132.003 6 105683561.25606        36.125    26931130.580 6 108440522.38606        36.313    26931131.175 6 107062041.36506        39.219
E26  25314439.685 7 133028272.46907        42.938    25314446.021 7  99339314.01407        44.594    25314445.750 7 101930771.73807        46.938    25314445.672 8 100635042.41908        48.844
E27  25652938.888 7 134807110.03907        45.813    25652943.527 7 100667665.60707        46.125    25652942.660 7 103293782.58807        47.969    25652943.127 8 101980723.14008        50.125
E30  24782708.851 7 130234017.36707        42.688    24782711.557 7  97252688.73807        46.563    24782710.767 7  99789713.34207        46.719    24782710.996 8  98521202.08308        49.688
E33  25314766.130 7 133029992.13507        42.688    25314767.647 7  99340582.13607        46.719    25314767.357 8 101932073.78708        48.656    25314767.386 8 100636329.00308        50.719
G05  21254831.667 7 111694889.74307        46.469    21254831.475 6        38.906    21254831.247 6  87034974.22606        38.906    21254831.417 7  87034967.22707        43.281
G13  21423076.225 7 112579023.56607        45.438    21423075.778 5        35.406    21423074.597 5  87723904.96005        35.406
G15  20211495.178 7 106212122.69107        47.125    20211494.861 8        51.500    20211493.821 8  82762689.47008        51.500    20211494.043 7  82762689.48407        45.313
G18  21510790.385 7 113039966.38107        45.750    21510790.149 5        35.188    21510790.471 5  88083089.95205        35.188    21510790.479 7  88083088.96307        43.094    21510793.665 8  84412972.03108        49.594
G20  23400859.253 7 122972334.23807        42.625    23400858.189 4        27.563    23400861.157 4  95822592.33404        27.563
G23  22608592.365 7 118808956.18807        44.000    22608592.187 5        32.344    22608592.888 5  92578407.40205        32.344    22608591.861 6  92578407.41006        40.969    22608595.183 7  88720986.83907        45.781
G24  20504970.617 7 107754352.84907        47.406    20504970.322 8        52.594    20504973.029 8  83964439.88808        52.594    20504973.064 7  83964431.89607        47.219    20504972.667 8  80465921.35208        53.500
J01  38776235.486 7 203770489.57507        46.313    38776234.174 7 158782193.07807        45.188    38776235.675 8 152166278.34508        50.844
J02  37006720.719 7 194471633.96807        44.313    37006723.957 7 151536350.00107        42.781    37006725.173 7 145222345.85707        47.500
J03  37403314.395 6 196555722.20606        40.031    37403322.331 6 153160339.04606        39.906    37403323.682 7 146778673.08907        42.406
J07  37154423.298 6 195247807.38506        39.531    37154424.454 7 152141152.73707        44.594    37154425.892 8 145801948.01708        50.469
> 2021 09 22 06 30 28.0000000  0 19
E02  28197909.370 4                        24.406    28197911.172 5                        30.594    28197908.560 4                        25.969    28197910.854 5 112097980.13205        31.406
E07  24447482.731 7 128472388.09507        46.094    24447486.116 8  95937183.97308        51.438    24447485.488 8  98439890.28008        51.781    24447485.639 9  97188536.66709        54.594
E12  26091425.011 6 137111364.94606        36.219    26091425.164 6 102388357.99006        37.875    26091426.157 6 105059359.75606        40.094    26091425.203 6 103723858.41506        41.938
E19  26930814.543 6 141522392.94506        36.781    26930818.097 6 105682329.49606        36.156    26930816.805 6 108439258.48906        36.125    26930817.258 6 107060793.53706        39.063
E26  25314978.329 7 133031102.86407        42.688    25314984.670 7  99341427.62007        44.563    25314984.372 7 101932940.47207        46.969    25314984.288 8 100637183.58708        48.844
E27  25652482.120 7 134804710.14407        45.938    25652486.833 7 100665873.48307        46.156    25652485.953 8 103291943.71408        48.000    25652486.440 8 101978907.64208        50.125
E30  24782690.359 7 130233920.32307        42.688    24782693.063 7  97252616.28307        46.688    24782692.264 7  99789638.98707        46.844    24782692.541 8  98521128.68008        49.844
E33  25314933.192 7 133030869.56607        42.594    25314934.646 7  99341237.35107        46.719    25314934.330 8 101932746.10308        48.563    25314934.352 8 100636992.76908        50.688
G05  21255257.067 7 111697125.56607        46.594    21255256.875 6        38.844    21255256.718 6  87036716.42506        38.844    21255256.755 7  87036709.42907        43.500
G13  21423480.003 7 112581144.78007        45.625    21423479.556 5        35.281    21423478.201 5  87725557.85405        35.281
G15  20211582.039 7 106212578.85607        46.969    20211581.726 8        51.406    20211580.633 8  82763044.92408        51.406    20211580.947 7  82763044.93407        45.313
G18  21510810.029 7 113040069.42307        45.688    21510809.797 5        35.125    21510810.066 5  88083170.24805        35.125    21510809.943 7  88083169.25507        43.000    21510813.284 8  84413048.97708        49.594
G20  23401520.320 7 122975807.78207        42.656    23401519.256 4        27.594    23401522.148 4  95825298.98804        27.594
G23  22608048.839 7 118806100.06207        43.844    22608048.661 5        32.219    22608049.381 5  92576181.85305        32.219    22608048.562 6  92576181.84906        41.125    22608051.668 7  88718854.02907        45.688
G24  20504587.250 7 107752338.29607        47.250    20504586.951 8        52.531    20504589.681 8  83962870.10708        52.531    20504589.819 7  83962862.11607        47.375    20504589.303 8  80464416.97708        53.469
J01  38776218.348 7 203770399.81407        46.344    38776217.102 7 158782123.13307        45.188    38776218.602 8 152166211.31608        50.844
J02  37006682.433 7 194471432.74007        44.375    37006685.516 7 151536193.20007        42.844    37006686.873 7 145222195.58807        47.500
J03  37403428.109 6 196556319.86906        39.906    37403436.043 6 153160804.75106        40.063    37403437.417 7 146779119.38807        42.406
J07  37154450.052 6 195247947.71806        39.813    37154451.106 7 152141262.09007        44.688    37154452.628 8 145802052.81908        50.531
> 2021 09 22 06 30 29.0000000  0 19
E02  28198292.105 4                        24.344    28198294.368 5                        30.188    28198291.514 4                        27.531    28198293.638 5 112099501.89405        31.719
E07  24447697.405 7 128473516.34907        46.000    24447700.810 8  95938026.49308        51.438    24447700.195 8  98440754.78208        51.813    24447700.344 9  97189390.17909        54.625
E12  26091136.773 6 137109849.97906        36.125    26091137.001 6 102387226.66406        37.906    26091137.895 6 105058198.91706        40.188    26091136.922 7 103722712.33407        42.063
E19  26930500.505 6 141520743.22206        36.875    26930503.993 5 105681097.56305        35.906    26930502.819 6 108437994.42806        36.281    26930503.310 6 107059545.53906        39.094
E26  25315516.933 7 133033933.16207        42.781    25315523.272 7  99343541.15107        44.594    25315522.938 7 101935109.14007        46.969    25315522.873 8 100639324.68608        48.875
E27  25652025.383 7 134802310.17407        45.313    25652030.108 7 100664081.29407        46.125    25652029.271 8 103290104.77108        48.000    25652029.735 8 101977092.07608        50.125
E30  24782671.929 7 130233823.50407        42.844    24782674.634 7  97252543.97907        46.719    24782673.837 7  99789564.80107        46.781    24782674.082 8  98521055.43408        49.844
E33  25315100.205 7 133031747.21107        42.500    25315101.674 7  99341892.73107        46.719    25315101.353 8 101933418.57208        48.594    25315101.372 8 100637656.69208        50.688
G05  21255682.426 7 111699361.56307        46.875    21255682.230 6        38.813    21255682.237 6  87038458.75806        38.813    21255682.244 7  87038451.76407        43.406
G13  21423883.736 7 112583265.88107        45.719    21423883.294 5        35.156    21423881.800 5  87727210.65905        35.156
G15  20211668.920 7 106213035.04507        46.813    20211668.603 8        51.344    20211667.450 8  82763400.39508        51.344    20211667.883 7  82763400.41607        45.281
G18  21510829.737 7 113040172.87107        45.813    21510829.501 5        35.125    21510829.750 5  88083250.85405        35.125    21510829.643 7  88083249.86607        43.000    21510832.964 8  84413126.22908        49.594
G20  23402181.496 7 122979281.29507        42.500    23402180.432 4        27.531    23402183.148 4  95828005.61804        27.531
G23  22607505.254 7 118803243.82807        43.844    22607505.076 5        32.125    22607505.855 5  92573956.21705        32.125    22607504.920 6  92573956.20106        41.125    22607508.136 7  88716721.12107        45.781
G24  20504203.905 7 107750324.02507        47.281    20504203.606 8        52.469    20504206.387 8  83961300.54608        52.469    20504206.598 7  83961292.55107        47.281    20504206.017 8  80462912.80808        53.531
J01  38776201.087 7 203770309.69407        46.500    38776199.858 7 158782052.91307        45.219    38776201.412 8 152166144.01808        50.844
J02  37006644.038 7 194471231.31107        44.344    37006647.200 7 151536036.24207        42.938    37006648.504 7 145222045.16707        47.531
J03  37403541.746 6 196556917.25106        40.188    37403549.802 6 153161270.22906        40.031    37403551.165 7 146779565.48407        42.406
J07  37154476.597 6 195248087.79606        39.438    37154477.708 7 152141371.23407        44.781    37154479.275 8 145802157.40908        50.469
> 2021 09 22 06 30 30.0000000  0 19
E02  28198675.081 4                        24.000    28198677.130 5                        30.375    28198674.522 4                        26.531    28198676.696 5 112101024.46305        31.438
E07  24447912.200 7 128474645.32307        45.781    24447915.664 8  95938869.56208        51.531    24447915.011 8  98441619.84008        51.906    24447915.183 9  97190244.24209        54.688
E12  26090848.551 6 137108336.00006        36.281    26090848.863 6 102386096.10906        38.000    26090849.784 6 105057038.88306        40.063    26090848.860 7 103721567.04107        42.031
E19  26930186.777 6 141519094.19306        36.844    26930190.142 6 105679866.14206        36.000    26930188.883 6 108436730.86706        36.188    26930189.505 6 107058298.04906        39.063
E26  25316055.762 7 133036764.29907        42.781    25316062.003 7  99345655.30607        44.594    25316061.686 7 101937278.44907        46.938    25316061.627 8 100641466.41808        48.875
E27  25651568.901 7 134799911.05007        45.469    25651573.527 7 100662289.74607        46.156    25651572.657 8 103288266.49308        48.031    25651573.192 8 101975277.16208        50.156
E30  24782653.717 7 130233727.79207        42.938    24782656.405 7  97252472.51007        46.813    24782655.588 7  99789491.47307        46.719    24782655.874 8  98520983.03608        49.813
E33  25315267.597 7 133032625.96507        42.469    25315268.913 7  99342548.95107        46.750    25315268.558 8 101934091.91108        48.688    25315268.602 8 100638321.47208        50.750
G05  21256108.165 7 111701598.60207        46.813    21256107.969 6        38.844    21256107.936 6  87040201.90206        38.844    21256108.051 7  87040194.90807        43.688
G13  21424287.590 7 112585387.77607        45.750    21424287.148 5        35.156    21424285.561 5  87728864.08305        35.156
G15  20211755.940 7 106213492.17607        46.938    20211755.623 8        51.344    20211754.445 8  82763756.60208        51.344    20211754.764 7  82763756.61307        45.406
G18  21510849.727 7 113040277.63407        45.906    21510849.495 5        35.125    21510849.693 5  88083332.48505        35.125    21510849.603 7  88083331.49007        43.063    21510852.909 8  84413204.46008        49.719
G20  23402842.727 7 122982755.67507        42.688    23402841.668 4        27.563    23402844.326 4  95830712.91904        27.563
G23  22606961.948 7 118800388.38207        43.781    22606961.774 5        32.063    22606962.499 5  92571731.19405        32.063    22606961.581 6  92571731.19106        41.219    22606964.766 7  88714588.81407        45.750
G24  20503820.720 7 107748310.92407        47.313    20503820.421 8        52.438    20503823.317 8  83959731.89808        52.438    20503823.561 7  83959723.90407        47.281    20503822.950 8  80461409.53208        53.500
J01  38776183.995 7 203770220.13407        46.625    38776182.886 7 158781983.12807        45.125    38776184.366 8 152166077.14608        50.844
J02  37006605.744 7 194471030.58307        44.563    37006609.095 7 151535879.84507        43.125    37006610.291 7 145221895.27507        47.500
J03  37403655.685 6 196557515.26706        40.063    37403663.646 6 153161736.21406        40.063    37403664.981 7 146780012.05507        42.375
J07  37154503.373 6 195248228.51006        39.531    37154504.538 7 152141480.89507        44.719    37154506.065 8 145802262.49508        50.531
> 2021 09 22 06 30 31.0000000  0 19
E02  28199059.261 4                        24.063    28199060.214 5                        30.469    28199057.302 4                        26.406    28199059.775 5 112102547.29205        31.563
E07  24448127.076 7 128475774.38207        45.750    24448130.502 8  95939712.68508        51.531    24448129.869 8  98442484.96308        51.875    24448130.036 9  97191098.36509        54.688
E12  26090560.486 6 137106822.46706        36.469    26090560.879 6 102384965.87506        37.844    26090561.789 6 105055879.14806        40.219    26090560.852 7 103720422.05207        42.063
E19  26929872.924 6 141517445.14106        37.219    26929876.358 5 105678634.72605        35.906    26929875.069 6 108435467.34406        36.094    26929875.686 6 107057050.58106        38.969
E26  25316594.616 7 133039595.61107        42.813    25316600.742 7  99347769.59707        44.563    25316600.512 7 101939447.89907        47.000    25316600.404 8 100643608.29008        48.906
E27  25651112.439 7 134797512.13807        45.594    25651116.975 7 100660498.35607        46.125    25651116.150 8 103286428.36208        48.000    25651116.675 8 101973462.40208        50.125
E30  24782635.721 7 130233632.56907        43.188    24782638.301 7  97252401.40407        46.813    24782637.491 7  99789418.51307        46.813    24782637.764 8  98520911.00308        49.938
E33  25315434.872 7 133033505.20507        42.656    25315436.250 7  99343205.52407        46.875    25315435.894 8 101934765.61308        48.625    25315435.921 8 100638986.61108        50.781
G05  21256533.974 7 111703836.07207        46.906    21256533.778 6        38.906    21256533.719 6  87041945.38406        38.906    21256533.828 7  87041938.38707        43.938
G13  21424691.454 7 112587509.82507        45.969    21424691.012 5        35.125    21424689.331 5  87730517.62805        35.125
G15  20211842.997 7 106213949.62007        46.938    20211842.684 8        51.344    20211841.499 8  82764113.05108        51.344    20211841.692 7  82764113.06707        45.438
G18  21510869.835 7 113040383.08107        45.938    21510869.599 5        35.156    21510869.757 5  88083414.65205        35.156    21510869.624 7  88083413.66407        43.156    21510872.974 8  84413283.20508        49.656
G20  23403504.071 7 122986230.30507        42.688    23403503.007 4        27.594    23403505.523 4  95833420.42204        27.594
G23  22606418.555 7 118797533.11007        44.031    22606418.381 5        32.063    22606419.166 5  92569506.30505        32.063    22606418.179 6  92569506.31306        41.125    22606421.389 7  88712456.62307        45.688
G24  20503437.682 7 107746298.39107        47.375    20503437.378 8        52.438    20503440.353 8  83958163.69308        52.438    20503440.651 7  83958155.69507        47.406    20503439.988 8  80459906.65808        53.469
J01  38776166.976 7 203770130.50707        46.438    38776165.834 7 158781913.29307        45.250    38776167.294 8 152166010.21508        50.844
J02  37006567.637 7 194470829.92807        44.438    37006570.980 7 151535723.48007        43.219    37006572.110 7 145221745.44007        47.594
J03  37403769.505 6 196558113.30406        40.156    37403777.506 6 153162202.21906        40.250    37403778.810 7 146780458.62507        42.344
J07  37154530.296 6 195248369.23506        39.625    37154531.324 7 152141590.54307        44.563    37154532.851 8 145802367.58908        50.469
> 2021 09 22 06 30 32.0000000  0 19
E02  28199443.029 3                        22.875    28199443.306 5                        30.063    28199440.582 4                        27.438    28199442.971 5 112104070.44305        31.719
E07  24448341.988 7 128476903.58607        45.781    24448345.400 8  95940555.92508        51.594    24448344.753 8  98443350.19908        51.813    24448344.915 9  97191952.60309        54.688
E12  26090272.571 6 137105309.39706        36.156    26090272.987 6 102383836.00706        37.906    26090273.831 6 105054719.79306        40.156    26090272.942 7 103719277.43907        42.031
E19  26929559.068 6 141515796.21206        37.188    26929562.525 6 105677403.36706        36.156    26929561.232 6 108434203.85306        36.156    26929561.890 6 107055803.15606        39.156
E26  25317133.554 7 133042427.18707        42.844    25317139.566 7  99349884.09207        44.625    25317139.345 7 101941617.54407        46.906    25317139.234 8 100645750.35908        48.875
E27  25650656.039 7 134795113.50507        45.875    25650660.504 7 100658707.16307        46.094    25650659.725 7 103284590.45007        47.969    25650660.225 8 101971647.85008        50.094
E30  24782617.798 7 130233537.88407        43.031    24782620.322 7  97252330.70307        46.750    24782619.430 7  99789345.95407        46.688    24782619.703 8  98520839.37408        49.750
E33  25315602.367 7 133034384.99107        42.813    25315603.690 7  99343862.50207        46.875    25315603.301 8 101935439.72908        48.719    25315603.334 8 100639652.15708        50.844
G05  21256959.890 7 111706074.03707        46.750    21256959.694 6        38.969    21256959.605 6  87043689.25006        38.969    21256959.852 7  87043682.25307        43.844
G13  21425095.307 7 112589632.10907        46.063    21425094.869 5        35.219    21425093.154 5  87732171.35705        35.219
G15  20211930.130 7 106214407.43107        46.875    20211929.817 8        51.344    20211928.629 8  82764469.78808        51.344    20211928.873 7  82764469.80007        45.406
G18  21510890.067 7 113040489.28607        45.906    21510889.831 5        35.156    21510889.969 5  88083497.40805        35.156    21510889.949 7  88083496.41007        43.313    21510893.203 8  84413362.50608        49.563
G20  23404165.398 7 122989705.24407        42.531    23404164.334 4        27.625    23404166.791 4  95836128.16704        27.625
G23  22605875.319 7 118794678.05007        43.656    22605875.145 5        32.000    22605875.868 5  92567281.58605        32.000    22605874.815 6  92567281.58206        41.031    22605878.044 7  88710324.60607        45.688
G24  20503054.909 7 107744286.45207        47.375    20503054.601 8        52.438    20503057.506 8  83956595.94908        52.438    20503057.800 7  83956587.95607        47.531    20503057.115 8  80458404.24608        53.469
J01  38776149.954 7 203770040.87407        46.344    38776148.910 7 158781843.44707        45.281    38776150.249 8 152165943.28508        50.813
J02  37006529.542 7 194470629.40907        44.313    37006532.936 7 151535567.23607        43.094    37006533.948 7 145221595.70407        47.469
J03  37403883.314 6 196558711.39706        40.219    37403891.299 6 153162668.26606        40.063    37403892.648 7 146780905.26407        42.250
J07  37154557.153 6 195248510.04006        39.188    37154558.070 7 152141700.26507        44.656    37154559.638 8 145802472.73708        50.406
> 2021 09 22 06 30 33.0000000  0 19
E02  28199826.542 4                        24.375    28199826.489 5                        30.094    28199823.944 4                        26.563    28199826.104 5 112105593.70605        31.313
E07  24448556.910 7 128478032.69407        45.625    24448560.266 8  95941399.08608        51.594    24448559.583 8  98444215.35408        51.688    24448559.781 9  97192806.76109        54.625
E12  26089984.868 6 137103796.55306        36.094    26089985.080 6 102382706.24906        37.688    26089985.914 6 105053560.58806        40.219    26089985.041 6 103718132.96206        41.969
E19  26929245.463 6 141514147.13006        37.031    26929248.715 5 105676171.90505        35.813    26929247.389 6 108432940.28206        36.219    26929248.049 6 107054555.64106        39.000
E26  25317672.312 7 133045258.76507        42.875    25317678.354 7  99351998.56607        44.625    25317678.194 7 101943787.18907        46.844    25317678.047 8 100647892.41808        48.844
E27  25650199.671 7 134792714.89007        45.969    25650203.994 7 100656916.00107        46.219    25650203.282 7 103282752.55707        47.844    25650203.771 8 101969833.32208        50.094
E30  24782599.816 7 130233443.49507        42.594    24782602.320 7  97252260.22607        46.531    24782601.474 7  99789273.63407        46.844    24782601.700 8  98520767.97508        49.719
E33  25315769.861 7 133035265.08207        42.750    25315771.149 7  99344519.70307        46.969    25315770.775 8 101936114.07708        48.656    25315770.801 8 100640317.93208        50.844
G05  21257385.834 7 111708312.24307        46.969    21257385.638 6        39.063    21257385.541 6  87045433.30506        39.063    21257385.894 7  87045426.29707        43.938
G13  21425499.132 7 112591754.36207        46.250    21425498.694 5        35.281    21425496.977 5  87733825.05905        35.281
G15  20212017.278 7 106214865.37107        46.938    20212016.965 8        51.406    20212015.772 8  82764826.62608        51.406    20212016.133 7  82764826.63607        45.438
G18  21510910.413 7 113040595.97607        46.000    21510910.177 5        35.156    21510910.270 5  88083580.54305        35.156    21510910.234 7  88083579.55807        43.188    21510913.492 8  84413442.17708        49.594
G20  23404826.831 7 122993180.24407        42.375    23404825.767 4        27.625    23404828.072 4  95838835.95704        27.625
G23  22605331.877 7 118791822.97507        43.906    22605331.703 5        32.031    22605332.566 5  92565056.85305        32.031    22605331.560 6  92565056.85806        41.250    22605334.717 7  88708192.56407        45.781
G24  20502672.127 7 107742274.88707        47.531    20502671.819 8        52.500    20502674.731 8  83955028.49708        52.500    20502674.895 7  83955020.50307        47.469    20502674.309 8  80456902.09808        53.531
J01  38776132.870 7 203769950.98707        46.281    38776131.857 7 158781773.40407        45.281    38776133.155 8 152165876.15808        50.813
J02  37006491.398 7 194470428.78807        44.344    37006494.849 7 151535410.90907        43.219    37006495.798 7 145221445.89207        47.531
J03  37403997.031 6 196559309.34306        40.250    37404005.279 6 153163134.17206        40.094    37404006.414 7 146781351.75707        42.125
J07  37154583.988 6 195248650.68206        39.063    37154584.873 7 152141809.84907        44.625    37154586.402 8 145802577.75508        50.438
> 2021 09 22 06 30 34.0000000  0 19
E02  28200209.814 4                        26.031    28200209.810 5                        30.469    28200207.117 4                        26.313    28200209.304 5 112107117.23105        31.531
E07  24448771.825 7 128479161.85607        45.500    24448775.134 8  95942242.28608        51.531    24448774.443 8  98445080.55308        51.625    24448774.651 9  97193660.96009        54.563
E12  26089697.204 6 137102284.03906        36.469    26089697.200 6 102381576.78806        38.000    26089698.066 6 105052401.66506        40.063    26089697.212 7 103716988.76907        42.031
E19  26928931.607 6 141512498.03806        36.906    26928934.826 6 105674940.44606        36.031    26928933.509 5 108431676.69805        35.938    26928934.195 6 107053308.11706        38.938
E26  25318211.113 7 133048090.49707        42.906    25318217.255 7  99354113.17107        44.656    25318217.045 7 101945956.95207        46.875    25318216.895 8 100650034.60308        48.844
E27  25649743.341 7 134790316.46207        45.906    25649747.515 7 100655124.96807        46.281    25649746.878 7 103280914.79507        47.813    25649747.357 8 101968018.92408        50.125
E30  24782581.889 7 130233349.58107        42.406    24782584.460 7  97252190.08007        46.875    24782583.615 7  99789201.67107        46.500    24782583.832 8  98520696.92108        49.719
E33  25315937.437 7 133036145.59607        42.719    25315938.686 7  99345177.23507        46.938    25315938.306 8 101936788.76208        48.625    25315938.357 8 100640984.04008        50.813
G05  21257811.842 7 111710550.81707        46.875    21257811.646 6        39.125    21257811.530 6  87047177.64906        39.125    21257811.927 7  87047170.64407        44.000
G13  21425903.063 7 112593876.73107        46.250    21425902.630 5        35.344    21425900.832 5  87735478.85105        35.344
G15  20212104.378 7 106215323.59107        47.000    20212104.065 8        51.469    20212102.968 8  82765183.67708        51.469    20212103.438 7  82765183.68107        45.500
G18  21510930.835 7 113040703.31607        45.875    21510930.599 5        35.219    21510930.697 5  88083664.18505        35.219    21510930.680 7  88083663.18707        43.313    21510933.957 8  84413522.33508        49.656
G20  23405488.051 7 122996655.43207        42.719    23405486.983 4        27.750    23405489.394 4  95841543.88904        27.750
G23  22604788.681 7 118788968.02407        43.875    22604788.512 5        32.000    22604789.264 5  92562832.21505        32.000    22604788.127 6  92562832.21506        41.313    22604791.437 7  88706060.62407        45.844
G24  20502289.354 7 107740263.82007        47.375    20502289.046 8        52.563    20502292.050 8  83953461.43308        52.563    20502292.160 7  83953453.43807        47.563    20502291.602 8  80455400.33008        53.563
J01  38776115.783 7 203769860.99007        46.406    38776114.704 7 158781703.27907        45.281    38776116.065 8 152165808.95308        50.781
J02  37006453.241 7 194470228.20007        44.188    37006456.687 7 151535254.60507        43.438    37006457.653 7 145221296.10007        47.406
J03  37404110.720 6 196559907.22106        40.031    37404119.017 6 153163600.07806        39.969    37404120.225 7 146781798.23807        42.281
J07  37154610.703 6 195248791.29206        39.281    37154611.745 7 152141919.42207        44.625    37154613.172 8 145802682.76208        50.438
> 2021 09 22 06 30 35.0000000  0 19
E02  28200593.054 3                        23.406    28200593.072 5                        30.188    28200590.156 4                        26.094    28200592.714 5 112108641.27405        31.344
E07  24448986.771 7 128480291.40807        45.719    24448990.103 8  95943085.78208        51.594    24448989.376 8  98445946.05408        51.688    24448989.607 9  97194515.46009        54.625
E12  26089409.430 6 137100772.29806        36.750    26089409.652 6 102380447.88106        38.219    26089410.347 6 105051243.29206        40.344    26089409.544 7 103715845.12607        42.281
E19  26928617.830 6 141510849.19406        36.938    26928621.084 6 105673709.19506        36.063    26928619.786 6 108430413.30106        36.063    26928620.435 6 107052060.79206        39.031
E26  25318750.045 7 133050922.56507        42.875    25318756.165 7  99356228.02007        44.750    25318756.013 7 101948126.98007        46.781    25318755.811 8 100652177.04308        48.844
E27  25649286.999 7 134787918.42707        45.625    25649291.173 7 100653334.23407        46.313    25649290.579 7 103279077.34407        47.844    25649291.032 8 101966204.83108        50.125
E30  24782564.069 7 130233256.42807        42.563    24782566.747 7  97252120.52007        46.875    24782565.909 7  99789130.29707        46.719    24782566.133 8  98520626.45408        49.844
E33  25316105.132 7 133037026.82307        42.813    25316106.350 7  99345835.28907        47.063    25316106.009 8 101937463.98408        48.656    25316106.043 8 100641650.67808        50.906
G05  21258237.946 7 111712790.05607        46.844    21258237.745 6        39.156    21258237.658 6  87048922.50806        39.156    21258238.043 7  87048915.51207        43.844
G13  21426307.020 7 112595999.59507        46.594    21426306.582 5        35.406    21426304.767 5  87737133.03105        35.406
G15  20212191.721 7 106215782.38407        46.719    20212191.404 8        51.469    20212190.272 8  82765541.17908        51.469    20212190.770 7  82765541.19207        45.469
G18  21510951.359 7 113040811.56807        45.938    21510951.123 5        35.219    21510951.302 5  88083748.53805        35.219    21510951.414 7  88083747.52607        43.469    21510954.558 8  84413603.16008        49.594
G20  23406149.462 7 123000131.07807        42.719    23406148.398 4        27.813    23406150.792 4  95844252.18604        27.813
G23  22604245.603 7 118786113.51307        44.063    22604245.434 5        32.031    22604246.055 5  92560607.92205        32.031    22604245.048 6  92560607.93206        41.188    22604248.205 7  88703929.01107        45.719
G24  20501906.799 7 107738253.50007        47.375    20501906.486 8        52.594    20501909.511 8  83951894.95208        52.594    20501909.518 7  83951886.95407        47.500    20501909.049 8  80453899.11008        53.469
J01  38776098.766 7 203769771.18107        46.313    38776097.524 7 158781633.30107        45.375    38776098.980 8 152165741.88808        50.844
J02  37006415.139 7 194470027.84507        44.156    37006418.639 7 151535098.48007        43.438    37006419.519 7 145221146.48407        47.531
J03  37404224.471 6 196560505.25406        40.063    37404232.516 6 153164066.07406        40.406    37404233.986 7 146782244.81707        42.188
J07  37154637.270 6 195248932.07606        39.500    37154638.612 7 152142029.12807        44.875    37154639.969 8 145802787.89808        50.406
> 2021 09 22 06 30 36.0000000  0 19
E02  28200974.318 4                        24.625    28200976.653 5                        30.125    28200973.830 4                        26.656    28200976.286 5 112110165.82805        31.375
E07  24449201.794 7 128481420.96107        45.938    24449205.031 8  95943929.27908        51.313    24449204.276 8  98446811.54908        51.531    24449204.526 9  97195369.95509        54.438
E12  26089122.046 6 137099260.92606        37.031    26089122.075 6 102379319.22906        38.906    26089122.713 6 105050085.25106        40.781    26089122.081 7 103714701.78007        42.750
E19  26928303.865 6 141509199.94606        37.156    26928307.335 6 105672477.63706        36.375    26928305.927 5 108429149.60605        35.031    26928306.527 6 107050813.16406        38.781
E26  25319288.659 7 133053753.85007        43.344    25319294.980 7  99358342.28707        44.656    25319294.773 7 101950296.39107        46.750    25319294.583 8 100654318.88208        48.781
E27  25648830.467 7 134785519.84007        44.813    25648834.763 7 100651543.09907        46.188    25648834.172 7 103277239.47807        47.875    25648834.560 8 101964390.33108        50.094
E30  24782546.371 7 130233163.64407        42.688    24782549.091 7  97252051.22407        47.000    24782548.251 7  99789059.19707        46.219    24782548.479 8  98520556.25508        49.594
E33  25316272.749 7 133037907.98407        44.000    25316274.044 7  99346493.31507        47.250    25316273.703 8 101938139.17308        48.250    25316273.733 8 100642317.28808        50.750
G05  21258664.093 7 111715029.19007        46.219    21258663.897 6        39.219    21258663.781 6  87050667.28706        39.219    21258664.115 7  87050660.28707        44.156
G13  21426710.989 7 112598122.61707        46.938    21426710.556 5        35.438    21426708.751 5  87738787.33505        35.438
G15  20212279.093 7 106216241.35707        46.938    20212278.780 8        51.500    20212277.621 8  82765898.82108        51.500    20212278.246 7  82765898.83707        46.031
G18  21510972.007 7 113040920.00307        45.531    21510971.771 5        35.219    21510971.938 5  88083833.03005        35.219    21510971.979 7  88083832.02107        43.844    21510975.177 8  84413684.14308        49.094
G20  23406810.661 7 123003606.22007        43.219    23406809.597 4        27.844    23406812.095 4  95846960.08204        27.844
G23  22603702.185 7 118783259.04807        45.063    22603702.016 5        31.875    22603702.847 5  92558383.66005        31.875    22603701.777 6  92558383.66606        40.625    22603705.037 7  88701797.43807        45.969
G24  20501524.214 7 107736242.95307        47.094    20501523.901 8        52.563    20501526.924 8  83950328.29308        52.563    20501526.745 7  83950320.29907        47.531    20501526.430 8  80452397.73708        53.219
J01  38776081.595 7 203769680.96007        46.031    38776080.300 7 158781562.98307        45.219    38776081.855 8 152165674.51708        50.938
J02  37006376.851 7 194469826.64507        44.344    37006380.446 7 151534941.72307        44.000    37006381.231 7 145220996.24707        47.688
J03  37404338.291 6 196561102.22706        39.594    37404346.024 6 153164531.23806        39.594    37404347.579 7 146782690.59907        42.188
J07  37154663.773 6 195249072.00306        39.969    37154665.307 7 152142138.15907        45.031    37154666.609 8 145802892.38208        50.313
> 2021 09 22 06 30 37.0000000  0 19
E02  28201357.916 3                        23.313    28201360.255 5                        30.406    28201357.974 4                        27.469    28201359.790 5 112111691.22705        31.844
E07  24449416.909 7 128482550.91007        45.813    24449419.970 8  95944773.06808        50.750    24449419.292 8  98447677.36008        52.000    24449419.553 9  97196224.75609        54.375
E12  26088834.534 5 137097750.57005        35.500    26088834.837 6 102378191.38006        40.281    26088835.235 6 105048927.94806        40.313    26088834.868 7 103713559.20207        43.281
E19  26927989.992 6 141507550.68506        36.563    26927993.467 6 105671246.05806        36.375    26927992.168 5 108427885.90205        35.313    26927992.677 6 107049565.52606        38.906
E26  25319827.302 7 133056584.46807        43.844    25319833.663 7  99360456.06807        45.281    25319833.363 7 101952465.32907        46.156    25319833.231 8 100656460.24108        48.719
E27  25648373.721 7 134783120.79507        44.500    25648378.219 7 100649751.59307        46.094    25648377.738 7 103275401.24307        47.875    25648377.998 8 101962575.46108        50.063
E30  24782528.674 7 130233071.52707        42.156    24782531.567 7  97251982.44207        46.500    24782530.682 7  99788988.61507        45.375    24782530.981 8  98520486.57308        48.938
E33  25316440.504 7 133038789.53207        44.156    25316441.760 7  99347151.61507        47.219    25316441.357 8 101938814.63308        48.125    25316441.526 8 100642984.16708        50.656
G05  21259090.130 7 111717268.33407        45.656    21259089.929 6        39.125    21259089.904 6  87052412.06906        39.125    21259090.254 7  87052405.07507        44.094
G13  21427115.183 7 112600246.19107        46.438    21427114.750 5        35.531    21427112.812 5  87740442.06605        35.531
G15  20212366.408 7 106216700.92707        47.063    20212366.095 8        51.563    20212365.099 8  82766256.93008        51.563    20212365.752 7  82766256.93507        45.656
G18  21510992.738 7 113041029.10407        46.000    21510992.502 5        35.375    21510992.687 5  88083918.04005        35.375    21510992.854 7  88083916.99707        43.813    21510995.849 8  84413765.57008        49.031
G20  23407471.856 7 123007080.98507        42.594    23407470.792 4        27.938    23407473.350 4  95849667.69304        27.938
G23  22603159.103 7 118780405.21207        45.625    22603158.934 5        31.938    22603159.724 5  92556159.89005        31.938    22603158.590 6  92556159.89606        40.188    22603161.989 7  88699666.32307        46.563
G24  20501141.538 7 107734232.38407        47.406    20501141.225 8        52.563    20501144.323 8  83948761.61508        52.563    20501143.917 7  83948753.62207        46.938    20501143.796 8  80450896.34108        53.656
J01  38776064.309 7 203769590.70807        46.000    38776063.341 7 158781492.66107        45.375    38776064.677 8 152165607.11208        50.844
J02  37006338.450 7 194469624.67907        43.750    37006341.936 7 151534784.32107        43.688    37006342.804 7 145220845.41607        47.469
J03  37404451.788 6 196561698.16006        39.188    37404459.329 6 153164995.61806        39.875    37404460.971 6 146783135.63606        41.844
J07  37154690.409 6 195249211.21106        39.969    37154691.978 7 152142246.61107        45.219    37154693.109 8 145802996.33408        50.063
> 2021 09 22 06 30 38.0000000  0 19
E02  28201741.689 3                        20.500    28201744.368 4                        28.813    28201741.840 4                        25.563    28201742.994 4 112113218.36004        29.156
E07  24449632.084 7 128483681.64807        46.000    24449634.999 8  95945617.43508        50.406    24449634.514 8  98448543.73408        51.594    24449634.737 9  97197080.12609        54.063
E12  26088547.969 6 137096242.60206        36.188    26088548.014 6 102377065.30706        41.125    26088548.279 7 105047772.52107        42.250    26088547.951 7 103712418.45407        44.656
E19  26927676.376 6 141505902.05506        36.531    26927679.835 6 105670014.91206        38.281    26927678.931 6 108426622.68506        38.313    26927679.078 6 107048318.34406        41.250
E26  25320366.266 7 133059413.55407        43.750    25320372.225 7  99362568.66407        45.250    25320371.485 7 101954633.03907        47.000    25320371.744 8 100658600.39308        49.188
E27  25647916.840 7 134780720.12507        43.688    25647921.453 7 100647958.87107        46.406    25647920.950 7 103273561.74707        47.750    25647921.168 8 101960759.35108        50.125
E30  24782510.832 7 130232980.14007        42.844    24782514.318 7  97251914.20607        46.031    24782513.237 7  99788918.62907        46.625    24782513.632 8  98520417.46208        49.281
E33  25316608.220 7 133039671.81407        44.844    25316609.741 7  99347810.45007        47.125    25316609.228 7 101939490.64807        47.469    25316609.409 8 100643651.59208        50.313
G05  21259516.198 7 111719506.89307        45.938    21259515.997 6        38.906    21259515.884 6  87054156.38906        38.906    21259515.954 7  87054149.37507        43.781
G13  21427519.122 7 112602370.94407        46.094    21427518.684 5        35.375    21427517.113 5  87742097.71605        35.375
G15  20212453.982 7 106217161.68707        46.875    20212453.669 8        51.563    20212452.801 8  82766615.96508        51.563    20212453.430 7  82766615.96107        45.406
G18  21511013.687 7 113041139.13207        45.875    21511013.455 5        35.438    21511013.614 5  88084003.77105        35.438    21511013.619 7  88084002.75807        43.594    21511016.890 8  84413847.73208        49.875
G20  23408132.085 6 123010554.12606        41.969    23408131.026 4        27.531    23408134.260 4  95852374.03704        27.531
G23  22602616.716 7 118777553.11607        45.094    22602616.542 5        31.656    22602616.909 5  92553937.48105        31.656    22602615.320 6  92553937.47506        41.000    22602619.102 7  88697536.45107        47.875
G24  20500759.007 7 107732221.24907        47.406    20500758.690 8        52.563    20500761.588 8  83947194.49508        52.563    20500761.219 7  83947186.50307        47.094    20500761.088 8  80449394.51908        53.375
J01  38776046.988 7 203769500.58607        45.875    38776046.288 7 158781422.41107        44.875    38776047.511 8 152165539.80108        50.875
J02  37006299.973 7 194469420.63407        43.938    37006302.814 6 151534625.29106        41.125    37006304.175 7 145220693.01407        47.438
J03  37404564.789 6 196562291.75806        37.000    37404572.118 6 153165458.11706        38.750    37404573.739 7 146783578.93407        42.250
J07  37154716.832 6 195249348.80906        39.844    37154718.084 7 152142353.84107        45.563    37154719.222 8 145803099.07808        50.063
> 2021 09 22 06 30 39.0000000  0 19
E02  28202127.773 3                        22.375    28202128.896 3                        22.344    28202128.229 4                        25.750
E07  24449847.210 7 128484812.23807        45.219    24449849.999 8  95946461.69008        49.281    24449849.730 8  98449410.01008        51.031    24449849.804 8  97197935.39108        53.219
E12  26088261.359 5 137094737.82005        34.313    26088261.962 6 102375941.54606        41.500    26088261.705 6 105046619.47906        41.594    26088261.803 7 103711280.05507        44.563
E19  26927363.258 5 141504255.33105        35.375    26927366.616 6 105668785.19206        38.156    26927365.964 6 108425360.87506        40.094    26927365.827 7 107047072.57707        42.156
E26  25320904.467 7 133062241.68707        43.031    25320910.492 7  99364680.56707        44.813    25320909.612 7 101956800.03407        46.000    25320909.832 8 100660739.84308        48.406
E27  25647459.400 7 134778316.78607        43.938    25647464.218 7 100646164.16407        46.406    25647463.436 7 103271720.21407        46.656    25647463.820 8 101958941.23308        49.563
E30  24782493.419 7 130232888.14707        43.313    24782496.822 7  97251845.51107        46.219    24782495.850 7  99788848.11007        46.375    24782496.255 8  98520347.85508        49.281
E33  25316776.560 7 133040555.84807        45.125    25316778.018 7  99348470.58707        47.125    25316777.469 8 101940168.00708        48.500    25316777.582 8 100644320.34008        50.844
G05  21259941.725 7 111721743.80307        45.781    21259941.524 6        38.688    21259941.534 6  87055899.41106        38.688    21259941.646 7  87055892.38007        44.406
G13  21427923.323 7 112604495.86007        45.750    21427922.890 5        35.313    21427921.460 5  87743753.48805        35.313
G15  20212541.990 7 106217623.40607        47.156    20212541.677 8        51.563    20212540.668 8  82766975.74508        51.563    20212541.179 7  82766975.74107        45.906
G18  21511035.017 7 113041251.08407        45.969    21511034.781 5        35.375    21511034.912 5  88084091.00105        35.375    21511035.012 7  88084090.01607        44.313    21511038.254 8  84413931.32508        50.063
G20  23408792.349 7 123014024.44007        42.063    23408791.285 4        27.406    23408794.665 4  95855078.16604        27.406
G23  22602074.550 7 118774703.44507        44.625    22602074.376 5        31.719    22602074.551 5  92551716.95605        31.719    22602073.435 6  92551716.94506        41.531    22602076.982 8  88695408.43908        48.313
G24  20500376.133 7 107730209.81207        46.844    20500375.820 8        52.375    20500378.812 8  83945627.13808        52.375    20500378.470 7  83945619.11407        47.188    20500378.337 8  80447892.45708        53.313
J01  38776029.608 7 203769410.36707        45.500    38776029.323 7 158781352.13007        45.000    38776030.407 8 152165472.43808        50.938
J02  37006260.567 7 194469213.89507        43.906    37006263.445 6 151534464.18606        41.906    37006264.775 7 145220538.65107        46.063
J03  37404677.114 6 196562883.19506        37.219    37404684.814 6 153165919.00306        39.469    37404686.176 7 146784020.55207        42.938
J07  37154742.877 6 195249485.05606        39.656    37154744.092 7 152142459.96607        45.094    37154745.078 8 145803200.80908        49.875
> 2021 09 22 06 30 40.0000000  0 19
E02  28202515.181 3                        21.094    28202514.086 4                        24.094    28202513.915 3                        23.375    28202511.488 4 112116276.00504        25.219
E07  24450062.346 7 128485942.37107        46.375    24450064.938 8  95947305.64208        48.875    24450064.725 8  98450275.96008        49.969    24450064.791 8  97198790.34308        52.438
E12  26087975.739 5 137093237.73605        30.625    26087976.838 6 102374821.29706        41.250    26087975.971 6 105045470.03306        40.781    26087976.518 7 103710145.20907        44.063
E19  26927050.425 5 141502612.58105        34.625    26927053.776 6 105667558.38606        36.188    26927053.711 6 108424102.10606        40.375    26927053.315 6 107045829.79306        41.500
E26  25321442.800 7 133065069.85207        43.156    25321448.499 7  99366792.49407        44.656    25321447.808 7 101958967.03907        46.156    25321447.942 8 100662879.31008        48.438
E27  25647001.538 7 134775910.27007        44.594    25647006.402 7 100644367.06807        45.469    25647005.456 7 103269876.23807        46.250    25647005.863 8 101957120.69508        48.844
E30  24782475.835 7 130232794.67307        44.000    24782479.015 7  97251775.65607        46.625    24782478.225 8  99788776.47808        48.031    24782478.574 8  98520277.11108        50.375
E33  25316945.449 7 133041443.39907        44.781    25316946.745 7  99349133.37607        45.875    25316946.241 7 101940848.06507        47.469    25316946.377 8 100644991.76108        49.719
G05  21260366.974 7 111723978.58207        45.938    21260366.773 6        38.813    21260366.812 6  87057640.77606        38.813    21260367.020 7  87057633.76407        44.750
G13  21428327.387 7 112606620.69207        46.250    21428326.954 5        35.469    21428325.820 5  87745409.19305        35.469
G15  20212630.232 7 106218086.62807        47.438    20212629.924 8        51.781    20212628.822 8  82767336.69208        51.781    20212629.126 7  82767336.68507        46.063
G18  21511056.961 7 113041366.61107        46.531    21511056.725 5        35.688    21511056.899 5  88084181.02005        35.688    21511056.974 7  88084179.99707        44.875    21511060.232 8  84414017.59708        49.844
G20  23409451.993 6 123017491.07206        41.375    23409450.934 4        26.781    23409454.337 4  95857779.41104        26.781
G23  22601532.956 7 118771857.90907        44.469    22601532.778 5        31.688    22601533.015 5  92549499.64205        31.688    22601531.958 6  92549499.62406        41.219    22601535.750 8  88693283.51408        48.125
G24  20499993.458 7 107728198.91307        46.813    20499993.145 8        52.344    20499996.140 8  83944060.19808        52.344    20499995.902 7  83944052.18207        47.000    20499995.663 8  80446390.81008        52.906
J01  38776012.428 7 203769320.56207        45.688    38776012.024 7 158781282.13707        44.781    38776013.328 8 152165405.36608        50.969
J02  37006220.655 7 194469004.36007        43.531    37006223.743 7 151534300.97107        42.500    37006224.961 7 145220382.19407        46.531
J03  37404789.569 6 196563473.04706        39.719    37404796.818 6 153166378.55306        39.344    37404798.526 7 146784460.95807        42.438
J07  37154768.581 6 195249620.57006        39.063    37154769.737 7 152142565.58007        44.438    37154770.829 8 145803302.00408        49.906
> 2021 09 22 06 30 41.0000000  0 19
E02  28202901.051 3                        19.750    28202898.315 3                        23.063    28202899.691 3                        22.594    28202895.989 4 112117805.41204        24.719
E07  24450277.529 7 128487072.25807        46.750    24450279.840 8  95948149.39408        49.125    24450279.743 8  98451141.73608        49.844    24450279.746 8  97199645.10808        52.469
E12  26087690.983 5 137091741.49505        32.563    26087692.153 6 102373703.98206        40.438    26087691.266 6 105044323.55106        40.750    26087691.935 7 103709013.30907        43.594
E19  26926738.187 5 141500972.61805        35.344    26926741.691 6 105666333.76306        37.500    26926741.788 6 108422845.53306        40.594    26926741.522 7 107044589.18907        42.188
E26  25321980.852 7 133067897.62007        43.531    25321986.558 7  99368904.11807        45.531    25321985.864 7 101961133.76807        46.125    25321986.075 8 100665018.48608        48.813
E27  25646543.134 7 134773500.95307        44.188    25646547.964 7 100642567.87707        45.594    25646546.885 7 103268030.15907        46.188    25646547.370 8 101955298.06208        48.906
E30  24782458.009 7 130232700.15907        44.188    24782461.055 7  97251705.09707        47.031    24782460.515 7  99788704.08307        47.875    24782460.710 8  98520205.63208        50.469
E33  25317114.885 7 133042333.58507        45.031    25317116.026 7  99349798.13007        45.406    25317115.600 7 101941530.15707        47.063    25317115.601 8 100645665.18608        49.250
G05  21260792.002 7 111726211.60207        46.031    21260791.801 6        38.969    21260791.755 6  87059380.77906        38.969    21260792.040 7  87059373.75907        44.844
G13  21428731.594 7 112608745.62707        46.500    21428731.156 5        35.625    21428730.220 5  87747064.98005        35.625
G15  20212718.705 7 106218551.11407        47.250    20212718.392 8        51.906    20212717.222 8  82767698.62408        51.906    20212717.461 7  82767698.63007        45.906
G18  21511079.529 7 113041484.90007        46.625    21511079.293 6        36.125    21511079.423 6  88084273.18306        36.125    21511079.631 7  88084272.18707        45.000    21511082.714 8  84414105.90808        50.031
G20  23410111.205 6 123020954.54306        41.125    23410110.146 4        26.563    23410113.400 4  95860478.20204        26.563
G23  22600991.936 7 118769015.56307        43.969    22600991.758 5        31.563    22600992.033 5  92547284.81905        31.563    22600990.732 6  92547284.84606        41.563    22600994.827 8  88691161.01708        48.094
G24  20499610.852 7 107726188.21407        47.281    20499610.539 8        52.313    20499613.508 8  83942493.41408        52.313    20499613.351 7  83942485.40807        47.094    20499612.953 8  80444889.30908        52.875
J01  38775995.409 7 203769231.00107        45.688    38775994.834 7 158781212.34307        44.844    38775996.339 8 152165338.48408        51.094
J02  37006180.086 7 194468792.21207        43.563    37006183.534 7 151534135.67607        42.469    37006184.622 7 145220223.79307        46.469
J03  37404901.126 6 196564061.03006        37.938    37404908.540 6 153166836.72806        39.281    37404910.553 7 146784900.03107        43.188
J07  37154794.085 6 195249755.15906        39.219    37154795.144 7 152142670.42907        44.500    37154796.469 8 145803402.49208        50.156
> 2021 09 22 06 30 42.0000000  0 19
E02                                                  28203283.066 3                        18.594    28203286.062 3                        21.594
E07  24450492.895 7 128488203.54607        45.813    24450495.131 8  95948994.16608        49.219    24450494.834 8  98452008.55508        50.063    24450494.992 8  97200500.90308        52.625
E12  26087406.953 6 137090248.13106        36.188    26087407.883 6 102372588.81006        39.313    26087406.932 6 105043179.26506        40.469    26087407.759 7 103707883.57907        42.906
E19  26926426.182 6 141499333.37006        36.750    26926429.815 6 105665109.69906        38.094    26926429.799 6 108421589.53406        40.094    26926429.572 7 107043349.16007        42.156
E26  25322518.626 7 133070723.52307        43.219    25322524.360 7  99371014.40807        45.125    25322523.605 7 101963299.09907        46.375    25322523.833 8 100667156.29708        48.781
E27  25646084.355 7 134771090.02807        44.344    25646089.250 7 100640767.57007        45.906    25646088.236 7 103266182.82207        46.625    25646088.603 8 101953474.23808        49.250
E30  24782440.336 7 130232606.98907        44.125    24782443.404 7  97251635.56707        47.000    24782442.825 7  99788632.72507        47.438    24782443.087 8  98520135.18908        50.250
E33  25317284.287 7 133043224.61007        44.781    25317285.577 7  99350463.48607        46.594    25317285.185 8 101942212.91108        48.000    25317285.187 8 100646339.24308        50.313
G05  21261216.901 7 111728444.15907        46.281    21261216.700 6        39.063    21261216.608 6  87061120.42906        39.063    21261216.949 7  87061113.44307        44.625
G13  21429136.284 7 112610872.31007        46.438    21429135.846 5        35.594    21429134.933 5  87748722.13305        35.594
G15  20212807.350 7 106219017.30107        47.125    20212807.042 8        51.844    20212805.943 8  82768061.88308        51.844    20212806.130 7  82768061.88007        45.813
G18  21511102.338 7 113041604.33807        46.281    21511102.102 6        36.281    21511102.161 6  88084366.24706        36.281    21511102.472 7  88084365.24607        44.625    21511105.422 8  84414195.10008        49.750
G20  23410770.063 7 123024416.41307        42.375    23410769.004 4        26.125    23410772.137 4  95863175.74704        26.125
G23  22600451.517 7 118766175.38007        44.500    22600451.339 5        31.438    22600451.454 5  92545071.68705        31.438    22600450.393 6  92545071.71506        41.469    22600454.329 7  88689040.11007        47.594
G24  20499228.190 7 107724176.90107        47.031    20499227.877 8        52.219    20499230.763 8  83940926.15608        52.219    20499230.602 7  83940918.16907        47.188    20499230.196 8  80443387.37908        53.156
J01  38775978.357 7 203769141.92707        45.781    38775977.879 7 158781142.94307        44.813    38775979.401 8 152165271.97208        51.156
J02  37006139.199 7 194468577.94407        43.563    37006142.701 7 151533968.66707        42.563    37006143.898 7 145220063.74507        46.438
J03  37405012.617 6 196564646.37206        38.469    37405020.108 6 153167292.86106        40.875    37405022.159 7 146785337.17707        44.094
J07  37154819.375 6 195249888.04506        39.438    37154820.381 7 152142773.98507        44.656    37154821.768 8 145803501.74008        50.219
> 2021 09 22 06 30 43.0000000  0 19
E02                                                  28203668.896 3                        20.063    28203671.788 3                        22.094
E07  24450708.655 7 128489337.82407        45.844    24450711.048 8  95949841.20308        50.094    24450710.693 8  98452877.69508        51.188    24450710.864 8  97201358.99208        53.688
E12  26087122.742 6 137088754.75206        37.219    26087123.508 6 102371473.70106        39.000    26087122.978 6 105042035.04606        40.188    26087123.476 7 103706753.91507        42.531
E19  26926113.755 5 141497691.08205        35.000    26926117.154 6 105663883.38106        38.031    26926117.421 6 108420331.23306        38.813    26926117.015 6 107042106.85106        41.406
E26  25323055.736 7 133073546.18607        43.344    25323061.478 7  99373122.23007        44.875    25323060.776 7 101965461.92607        46.500    25323060.924 8 100669291.62208        48.719
E27  25645625.809 7 134768679.82407        44.969    25645630.745 7 100638967.73707        47.094    25645629.622 7 103264336.09007        47.344    25645629.940 8 101951650.95708        50.250
E30  24782423.253 7 130232518.03007        43.000    24782426.475 7  97251569.14207        46.219    24782425.827 7  99788564.52807        46.781    24782426.100 8  98520067.87808        49.500
E33  25317453.465 7 133044113.27207        44.750    25317454.738 7  99351127.11807        46.750    25317454.343 7 101942893.85707        47.875    25317454.371 8 100647011.53008        50.313
G05  21261642.224 7 111730678.44107        46.031    21261642.023 6        39.063    21261641.792 6  87062861.42806        39.063    21261642.052 7  87062854.45207        44.281
G13  21429541.653 7 112613002.40307        46.344    21429541.220 5        35.594    21429540.268 5  87750381.94705        35.594
G15  20212896.277 7 106219484.95807        46.719    20212895.969 8        51.719    20212894.946 8  82768426.29108        51.719    20212894.968 7  82768426.31107        45.594
G18  21511124.844 7 113041721.95007        46.219    21511124.608 6        36.156    21511124.568 6  88084457.89406        36.156    21511124.981 7  88084456.92407        44.031    21511127.816 8  84414282.95808        50.219
G20  23411429.134 6 123027879.67106        40.844    23411428.070 4        26.219    23411431.134 4  95865874.38504        26.219
G23  22599910.824 7 118763334.59507        44.250    22599910.646 5        31.688    22599910.813 5  92542858.09705        31.688    22599910.045 7  92542858.11107        42.313    22599913.753 7  88686918.73507        47.969
G24  20498845.240 7 107722164.01807        46.969    20498844.923 8        52.156    20498847.724 8  83939357.67908        52.156    20498847.554 7  83939349.70807        47.125    20498847.166 8  80441884.26408        53.438
J01  38775961.436 7 203769053.23907        45.844    38775960.937 7 158781073.84907        45.094    38775962.503 8 152165205.75808        50.906
J02  37006098.304 7 194468362.77307        44.000    37006101.916 6 151533801.01206        41.969    37006103.000 7 145219903.07807        46.438
J03  37405123.383 6 196565228.71806        38.625    37405131.023 6 153167746.62206        39.656    37405132.988 7 146785772.06207        43.281
J07  37154844.184 6 195250018.52906        39.750    37154845.283 7 152142875.70007        45.531    37154846.518 8 145803599.19608        50.000
> 2021 09 22 06 30 44.0000000  0 19
E02                                                  28204057.601 3                        22.438    28204058.150 3                        23.656
E07  24450925.131 7 128490475.66907        45.844    24450927.778 8  95950690.90908        51.406    24450927.272 8  98453749.56608        51.125    24450927.478 9  97202219.78009        54.281
E12  26086838.204 6 137087258.25006        38.438    26086838.509 6 102370356.25706        37.781    26086838.020 6 105040888.33606        37.688    26086838.428 6 103705621.83906        40.563
E19  26925799.964 5 141496042.61905        35.656    26925803.657 6 105662652.36906        37.125    26925803.433 6 108419068.08906        37.938    26925803.272 6 107040859.77106        40.500
E26  25323591.978 7 133076365.18807        43.156    25323597.957 7  99375227.37007        45.406    25323597.227 7 101967621.97507        46.188    25323597.465 8 100671424.21608        48.781
E27  25645167.745 7 134766272.59607        45.063    25645172.560 7 100637170.18007        46.250    25645171.567 8 103262491.60708        48.281    25645171.876 8 101949829.93608        50.344
E30  24782407.516 7 130232434.90907        42.656    24782410.489 7  97251507.02007        47.094    24782409.930 8  99788500.85208        48.406    24782410.158 8  98520004.98008        50.813
E33  25317621.682 7 133044997.12007        43.844    25317622.974 7  99351787.10407        46.688    25317622.503 7 101943571.08407        47.875    25317622.634 8 100647680.13908        50.313
G05  21262067.976 7 111732916.25107        46.625    21262067.775 6        38.906    21262067.647 6  87064605.19106        38.906    21262067.585 7  87064598.24607        43.625
G13  21429947.823 7 112615136.25907        47.375    21429947.390 5        35.438    21429946.336 5  87752044.69805        35.438
G15  20212985.307 7 106219953.34107        46.719    20212984.999 8        51.500    20212984.088 8  82768791.26908        51.500    20212984.168 7  82768791.28207        45.094
G18  21511146.437 7 113041835.43907        45.750    21511146.201 6        36.031    21511146.189 6  88084546.33306        36.031    21511146.591 7  88084545.36607        43.844    21511149.378 8  84414367.76108        49.563
G20  23412088.979 7 123031347.01507        42.000    23412087.911 4        26.500    23412090.962 4  95868576.21504        26.500
G23  22599369.606 7 118760490.21607        43.844    22599369.428 5        31.531    22599369.505 5  92540641.71105        31.531    22599368.929 6  92540641.73906        41.281    22599372.391 7  88684794.75807        45.969
G24  20498461.808 7 107720149.27807        47.656    20498461.495 8        52.250    20498464.332 8  83937787.76208        52.250    20498464.202 7  83937779.81007        46.969    20498463.823 8  80440379.75808        53.688
J01  38775944.600 7 203768964.57607        46.281    38775944.097 7 158781004.79007        45.250    38775945.601 8 152165139.55808        50.813
J02  37006057.672 7 194468148.49607        44.094    37006061.095 7 151533634.10207        42.938    37006062.084 7 145219743.09607        47.563
J03  37405233.949 6 196565808.77206        38.781    37405241.400 6 153168198.65306        38.469    37405243.503 7 146786205.15807        42.125
J07  37154868.559 6 195250146.81906        40.094    37154869.577 7 152142975.65907        45.188    37154870.978 8 145803694.99208        50.500
> 2021 09 22 06 30 45.0000000  0 19
E02                                                  28204445.818 3                        19.875    28204444.784 3                        23.719
E07  24451142.359 7 128491616.98807        45.188    24451145.056 8  95951543.20408        51.031    24451144.485 8  98454624.09308        51.063    24451144.690 9  97203083.18509        54.094
E12  26086552.205 6 137085755.76406        36.031    26086552.425 6 102369234.28606        37.500    26086551.984 6 105039737.17906        37.781    26086552.306 6 103704485.25506        40.563
E19  26925484.791 5 141494386.46505        33.906    26925488.439 6 105661415.58606        36.875    26925488.071 6 108417799.05106        38.531    26925488.054 6 107039606.87406        40.750
E26  25324127.995 7 133079182.67307        43.969    25324134.226 7  99377331.33707        45.250    25324133.246 7 101969780.78707        45.906    25324133.665 8 100673555.60008        48.563
E27  25644710.789 7 134763871.79707        44.344    25644715.539 7 100635377.41107        46.500    25644714.729 7 103260652.05807        47.125    25644715.018 8 101948013.77008        49.875
E30  24782393.009 7 130232358.47107        43.625    24782396.022 8  97251450.00108        48.563    24782395.474 8  99788442.33108        48.875    24782395.674 8  98519947.20008        51.781
E33  25317788.547 7 133045875.22707        43.438    25317789.978 7  99352442.83907        46.281    25317789.852 8 101944243.93408        48.969    25317789.872 8 100648344.43108        50.719
G05  21262494.834 7 111735159.91507        46.906    21262494.633 6        38.844    21262494.614 6  87066353.52906        38.844    21262494.566 7  87066346.54507        43.125
G13  21430354.708 7 112617273.53507        46.875    21430354.275 5        35.406    21430353.029 5  87753710.11705        35.406
G15  20213074.314 7 106220421.53107        47.031    20213074.001 8        51.500    20213073.185 8  82769156.09408        51.500    20213073.319 7  82769156.12207        45.469
G18  21511166.943 7 113041943.90407        45.656    21511166.711 5        35.781    21511166.845 5  88084630.86105        35.781    21511167.154 7  88084629.91707        44.094    21511170.068 8  84414448.79308        49.875
G20  23412750.462 6 123034822.05806        40.906    23412749.398 4        26.781    23412752.268 4  95871284.06304        26.781
G23  22598827.082 7 118757639.98207        43.188    22598826.904 5        31.250    22598827.076 5  92538420.75405        31.250    22598826.520 6  92538420.79306        40.719    22598829.896 7  88682666.33407        46.906
G24  20498078.281 7 107718134.11207        46.969    20498077.964 8        52.188    20498080.860 8  83936217.51608        52.188    20498080.468 7  83936209.52307        46.656    20498080.382 8  80438874.94208        53.625
J01  38775927.850 7 203768875.95307        46.406    38775927.270 7 158780935.74007        45.125    38775928.691 8 152165073.40608        50.781
J02  37006017.722 7 194467938.63207        44.406    37006021.127 7 151533470.53507        43.781    37006022.015 7 145219586.38807        47.281
J03  37405344.672 5 196566389.80505        35.781    37405352.163 6 153168651.34606        38.000    37405354.290 6 146786639.05506        40.969
J07  37154892.847 6 195250274.99206        39.156    37154893.919 7 152143075.56107        46.313    37154895.358 8 145803790.75008        49.969
> 2021 09 22 06 30 46.0000000  0 19
E02                                                  28204832.891 3                        20.500    28204831.593 3                        22.906
E07  24451359.641 7 128492759.07007        44.781    24451362.433 8  95952396.01608        50.438    24451361.721 8  98455499.14308        51.094    24451361.986 8  97203947.13108        53.813
E12  26086264.633 6 137084244.28506        36.250    26086264.734 6 102368105.63106        36.594    26086264.198 5 105038579.05305        34.594    26086264.499 6 103703341.91306        38.469
E19  26925167.678 5 141492722.56205        34.031    26925171.885 6 105660173.21706        37.469    26925171.417 6 108416524.22006        39.156    26925171.623 6 107038348.27506        41.313
E26  25324664.357 7 133082001.46607        43.438    25324670.672 7  99379436.25807        46.156    25324669.525 7 101971940.64707        47.031    25324670.065 8 100675687.99308        49.594
E27  25644255.316 7 134761478.65107        43.031    25644259.999 7 100633590.32607        46.625    25644259.231 7 103258818.35807        47.469    25644259.526 8 101946203.38708        50.094
E30  24782379.232 7 130232286.06507        42.969    24782382.394 8  97251395.93308        48.844    24782381.713 8  99788386.84708        48.594    24782382.008 8  98519892.43408        51.719
E33  25317954.460 7 133046747.86407        44.313    25317956.209 7  99353094.57307        47.625    25317956.051 8 101944912.66208        48.344    25317956.061 8 100649004.65708        51.031
G05  21262922.763 7 111737409.35907        46.625    21262922.562 6        38.844    21262922.672 6  87068106.35806        38.844    21262922.693 7  87068099.41507        44.094
G13  21430761.374 7 112619410.88207        46.281    21430760.941 5        35.031    21430759.752 5  87755375.59205        35.031
G15  20213162.934 7 106220887.32107        47.781    20213162.626 8        51.594    20213161.835 8  82769519.05508        51.594    20213162.024 7  82769519.08907        45.313
G18  21511186.501 7 113042047.39907        46.031    21511186.269 5        35.875    21511186.547 5  88084711.51705        35.875    21511186.764 7  88084710.56507        44.969    21511189.775 8  84414526.07808        49.094
G20  23413413.308 6 123038305.75806        40.156    23413412.244 4        26.438    23413415.227 4  95873998.63504        26.438
G23  22598283.083 7 118754781.61407        44.344    22598282.905 5        31.000    22598283.112 5  92536193.47105        31.000    22598282.763 6  92536193.49606        41.188    22598286.016 7  88680531.83007        47.250
G24  20497695.047 7 107716120.04807        46.813    20497694.734 8        52.125    20497697.576 8  83934648.12408        52.125    20497697.262 7  83934640.15807        47.063    20497697.089 8  80437370.97908        53.125
J01  38775910.877 7 203768786.26207        46.156    38775910.225 7 158780865.86307        44.875    38775911.610 8 152165006.43208        50.813
J02  37005979.102 7 194467735.35307        43.344    37005982.369 7 151533312.19607        43.563    37005983.337 7 145219434.67907        47.688
J03  37405456.025 6 196566974.81906        38.906    37405463.414 6 153169107.50206        37.719    37405465.786 6 146787076.13306        39.625
J07  37154917.504 6 195250405.32506        38.656    37154918.836 7 152143177.16707        45.219    37154920.078 8 145803888.14508        49.625
> 2021 09 22 06 30 47.0000000  0 19
E02                                                  28205218.335 3                        23.219    28205216.899 3                        21.688
E07  24451576.517 7 128493899.45107        46.344    24451579.468 8  95953247.61708        50.125    24451578.891 8  98456372.98808        51.469    24451579.039 8  97204809.84608        53.844
E12  26085975.195 5 137082724.24905        34.719    26085975.297 6 102366970.50606        37.250    26085975.176 6 105037414.31006        38.594    26085975.181 6 103702191.95006        40.844
E19  26924849.874 5 141491054.07505        34.094    26924854.529 6 105658927.19406        38.219    26924853.861 6 108415245.75206        40.125    26924854.072 7 107037086.01807        42.188
E26  25325201.686 7 133084825.25507        43.281    25325208.036 7  99381545.02007        45.406    25325207.088 7 101974104.41107        47.406    25325207.531 8 100677824.25708        49.500
E27  25643801.284 7 134759093.40107        42.375    25643806.064 8 100631809.14408        48.094    25643805.339 8 103256990.70808        49.031    25643805.626 8 101944398.96908        51.594
E30  24782365.662 7 130232214.78507        43.375    24782368.819 7  97251342.72007        46.344    24782368.147 7  99788332.23107        47.094    24782368.389 8  98519838.51808        49.781
E33  25318119.834 7 133047617.81607        44.156    25318121.927 8  99353744.21608        48.188    25318121.470 8 101945579.24208        48.875    25318121.604 8 100649662.77108        51.563
G05  21263351.877 7 111739664.03307        46.625    21263351.676 6        38.781    21263351.736 6  87069863.27006        38.781    21263351.584 7  87069856.29707        43.281
G13  21431167.722 7 112621545.71607        46.344    21431167.289 5        35.063    21431165.975 5  87757039.10205        35.063
G15  20213250.930 7 106221349.85807        47.875    20213250.622 8        51.750    20213249.877 8  82769879.48608        51.750    20213250.060 7  82769879.51207        45.156
G18  21511205.784 7 113042148.37307        46.688    21511205.548 6        36.344    21511205.786 6  88084790.21006        36.344    21511205.930 7  88084789.24007        45.125    21511208.967 8  84414601.44108        49.906
G20  23414077.850 6 123041797.78606        38.469    23414076.777 4        25.813    23414079.748 4  95876719.70504        25.813
G23  22597737.687 7 118751915.81207        44.656    22597737.509 5        31.469    22597737.743 5  92533960.38705        31.469    22597737.595 7  92533960.39507        42.531    22597740.651 7  88678391.77107        47.250
G24  20497312.592 7 107714109.58007        47.625    20497312.279 8        52.156    20497314.995 8  83933081.54408        52.156    20497314.512 7  83933073.57807        46.438    20497314.513 8  80435869.67308        53.000
J01  38775893.655 7 203768695.34007        45.563    38775892.906 7 158780795.00607        44.875    38775894.280 8 152164938.56308        50.500
J02  37005941.955 7 194467540.34307        42.375    37005945.097 7 151533160.22307        43.313    37005946.108 7 145219289.01607        46.781
J03  37405568.923 5                        33.625    37405575.981 6 153169569.85006        37.094    37405578.620 6 146787519.16806        39.469
J07  37154943.473 6 195250540.55806        38.438    37154944.414 7 152143282.58807        45.344    37154945.841 8 145803989.14708        51.094
> 2021 09 22 06 30 48.0000000  0 19
E02                                                  28205603.105 4                        25.375    28205601.235 4                        25.219
E07  24451793.364 7 128495038.18907        46.813    24451796.257 8  95954097.97308        50.500    24451795.787 8  98457245.50908        51.125    24451795.778 8  97205671.28408        53.875
E12  26085684.503 5 137081199.23805        34.563    26085685.264 6 102365831.62306        38.250    26085685.334 6 105036245.75106        40.594    26085684.735 7 103701038.23407        42.406
E19  26924532.133 5 141489382.91605        35.406    26924536.565 6 105657679.26306        37.063    26924535.840 6 108413965.27606        39.188    26924536.099 6 107035821.81306        41.188
E26  25325739.587 7 133087652.15207        42.906    25325745.883 7  99383656.01507        46.031    25325745.247 7 101976270.48607        47.719    25325745.498 8 100679962.79308        49.969
E27  25643348.322 7 134756712.24307        44.063    25643352.923 7 100630031.00607        47.813    25643352.189 8 103255166.18008        48.625    25643352.525 8 101942597.63508        51.250
E30  24782352.193 7 130232143.39907        43.594    24782355.207 7  97251289.43907        46.625    24782354.281 7  99788277.53307        45.969    24782354.692 8  98519784.52808        49.250
E33  25318285.217 7 133048486.58807        44.813    25318287.327 7  99354392.93307        47.688    25318286.589 8 101946244.86608        48.281    25318286.916 8 100650319.94208        50.969
G05  21263781.506 7 111741921.29307        46.563    21263781.305 6        38.875    21263781.271 6  87071622.18206        38.875    21263781.155 7  87071615.19007        44.125
G13  21431573.436 7 112623678.29707        46.094    21431573.003 5        34.875    21431571.820 5  87758700.87405        34.875
G15  20213338.520 7 106221810.18307        47.500    20213338.212 8        51.688    20213337.498 8  82770238.19808        51.688    20213337.789 7  82770238.22807        45.125
G18  21511224.672 7 113042248.17807        47.219    21511224.440 6        36.688    21511224.800 6  88084867.98806        36.688    21511224.679 7  88084866.98507        45.563    21511227.967 8  84414675.99608        49.813
G20  23414742.945 6 123045294.01106        37.563    23414741.872 4        24.531    23414745.009 4  95879444.05004        24.531
G23  22597191.362 7 118749045.71007        44.094    22597191.184 5        31.625    22597191.579 5  92531723.95405        31.625    22597191.346 6  92531723.98206        41.313    22597194.616 8  88676248.49808        48.000
G24  20496930.510 7 107712101.32407        47.313    20496930.197 8        51.969    20496932.823 8  83931516.68208        51.969    20496932.238 7  83931508.69607        46.000    20496932.306 8  80434370.01508        53.094
J01  38775876.211 7 203768603.32107        45.438    38775875.207 7 158780723.32007        44.906    38775876.769 8 152164869.83908        50.594
J02  37005905.767 6 194467349.78306        41.875    37005908.657 7 151533011.75507        42.531    37005909.732 7 145219146.68407        44.969
J03  37405682.649 6                        38.688    37405689.801 6 153170034.95206        38.375    37405692.249 6 146787965.06506        41.938
J07  37154969.725 6 195250678.56106        38.500    37154970.524 7 152143390.12307        44.344    37154971.996 8 145804092.21108        50.625
> 2021 09 22 06 30 49.0000000  0 19
E02  28205985.485 4                        25.469    28205987.763 4                        28.469    28205986.130 4                        29.281
E07  24452010.372 7 128496178.22907        46.906    24452013.264 8  95954949.31208        50.375    24452012.846 8  98458119.06708        51.250    24452012.760 8  97206533.73008        53.875
E12  26085393.466 6 137079671.59806        36.125    26085394.192 6 102364690.90006        36.813    26085395.161 6 105035075.25906        40.813    26085394.046 7 103699882.62907        42.063
E19  26924213.676 5 141487708.58405        34.688    26924217.976 6 105656428.97406        38.125    26924217.436 6 108412682.35606        40.406    26924217.542 7 107034555.21007        42.344
E26  25326277.446 6 133090478.53006        41.531    25326283.803 7  99385766.61807        45.250    25326283.249 7 101978436.15507        46.625    25326283.352 8 100682100.93308        48.969
E27  25642895.791 7 134754333.81007        43.469    25642900.375 8 100628254.94008        48.031    25642899.593 8 103253343.80108        48.656    25642899.950 8 101940798.41608        51.344
E30  24782338.940 7 130232074.91907        43.469    24782342.141 7  97251238.25107        46.531    24782341.380 7  99788225.08307        47.063    24782341.704 8  98519732.70608        49.844
E33  25318450.070 7 133049353.15707        45.406    25318452.255 8  99355040.04408        48.125    25318451.380 8 101946908.85308        48.719    25318451.829 8 100650975.50108        51.438
G05  21264211.681 7 111744181.17507        46.500    21264211.480 6        39.063    21264211.303 6  87073383.13206        39.063    21264211.105 7  87073376.18107        43.906
G13  21431979.404 7 112625812.22107        46.719    21431978.971 5        34.688    21431977.899 5  87760363.68805        34.688
G15  20213426.098 8 106222270.46608        48.031    20213425.785 8        51.813    20213425.107 8  82770596.86808        51.813    20213425.352 7  82770596.86607        44.719
G18  21511243.486 7 113042346.17007        46.531    21511243.250 6        37.063    21511243.468 6  88084944.34606        37.063    21511243.241 7  88084943.35907        45.313    21511246.625 8  84414749.18908        49.813
G20  23415409.020 6 123048793.64006        38.313    23415407.947 4        24.031    23415410.856 4  95882171.04104        24.031
G23  22596644.446 7 118746173.08207        43.688    22596644.268 5        31.531    22596644.900 5  92529485.55305        31.531    22596644.339 6  92529485.59306        41.906    22596647.877 7  88674103.37707        46.906
G24  20496548.369 7 107710093.15707        46.813    20496548.056 8        51.656    20496550.659 8  83929951.89008        51.656    20496549.981 7  83929943.90307        46.156    20496550.103 8  80432870.40608        53.000
J01  38775858.628 7 203768511.17807        45.438    38775857.618 7 158780651.52107        44.688    38775859.240 8 152164801.02608        50.688
J02  37005869.960 7 194467161.03207        42.813    37005872.899 7 151532864.68007        44.469    37005873.684 7 145219005.75807        47.156
J03  37405796.149 6                        37.094    37405803.125 6 153170500.75706        37.000    37405806.029 6 146788411.40606        39.563
J07  37154996.229 6 195250816.58206        38.688    37154996.624 7 152143497.61607        43.531    37154998.220 8 145804195.22408        50.000
> 2021 09 22 06 30 50.0000000  0 19
E02  28206370.215 4                        29.906    28206373.400 5                        32.750    28206372.621 5                        33.688
E07  24452227.455 7 128497319.83707        46.250    24452230.520 8  95955801.80508        50.719    24452230.032 8  98458993.80608        50.781    24452230.063 8  97207397.35208        53.813
E12  26085102.089 5 137078140.72205        35.375    26085102.885 6 102363547.67206        37.375    26085103.822 6 105033902.25006        38.844    26085102.812 6 103698724.49706        41.125
E19  26923894.118 5 141486029.69505        35.219    26923898.432 6 105655175.18606        37.188    26923898.027 6 108411395.86106        39.500    26923898.033 6 107033285.08606        41.438
E26  25326815.231 6 133093303.66306        40.844    25326821.226 7  99387876.24507        44.094    25326820.766 7 101980600.84507        45.594    25326820.915 7 100684238.08407        47.906
E27  25642443.885 6 134751958.47706        41.719    25642448.395 7 100626481.11407        45.344    25642447.643 7 103251523.70207        46.594    25642447.983 8 101939001.44908        49.000
E30  24782326.395 7 130232009.86907        43.438    24782329.590 7  97251189.68307        46.094    24782329.057 7  99788175.23407        46.750    24782329.364 8  98519683.51208        49.406
E33  25318614.415 7 133050216.44107        45.094    25318616.589 7  99355684.67907        47.594    25318615.532 7 101947570.30507        47.781    25318616.047 8 100651628.56808        50.688
G05  21264642.296 7 111746443.93507        46.469    21264642.095 6        39.094    21264641.882 6  87075146.32406        39.094    21264641.653 7  87075139.34807        43.594
G13  21432385.854 7 112627947.69307        47.188    21432385.416 5        34.625    21432384.241 5  87762027.69505        34.625
G15  20213513.619 7 106222730.38907        47.844    20213513.311 8        51.750    20213512.640 8  82770955.25408        51.750    20213512.797 7  82770955.28207        44.656
G18  21511261.559 7 113042441.37707        46.688    21511261.323 6        37.125    21511261.595 6  88085018.53606        37.125    21511261.116 7  88085017.52507        45.000    21511264.710 8  84414820.23108        49.531
G20  23416075.702 6 123052297.03406        38.906    23416074.629 3        23.344    23416077.471 3  95884900.95403        23.344
G23  22596097.247 7 118743296.92407        44.469    22596097.069 5        31.750    22596097.489 5  92527244.40205        31.750    22596097.044 7  92527244.44407        42.281    22596100.670 7  88671955.62807        47.219
G24  20496166.118 7 107708084.50107        47.281    20496165.805 8        51.500    20496168.389 8  83928386.71408        51.500    20496167.689 7  83928378.75107        45.469    20496167.877 8  80431370.48008        52.406
J01  38775840.913 7 203768418.58107        45.188    38775840.113 7 158780579.35707        45.000    38775841.578 8 152164731.88308        50.563
J02  37005834.464 6 194466974.16206        40.875    37005837.279 7 151532719.08107        43.219    37005838.161 7 145218866.18507        45.688
J03  37405909.957 5                        32.688    37405916.613 5 153170965.79205        34.313    37405919.709 6 146788858.07306        36.313
J07  37155022.487 6 195250953.93506        38.438    37155022.743 7 152143604.70207        43.844    37155024.407 8 145804297.84208        50.156
> 2021 09 22 06 30 51.0000000  0 19
E02  28206756.257 5 148227503.84315        35.344    28206759.729 6 110689383.02316        38.250    28206759.478 6 113576929.20016        39.063
E07  24452444.823 7 128498463.33607        46.469    24452448.112 8  95956655.75508        50.188    24452447.547 8  98459869.98608        50.906    24452447.609 8  97208262.41708        53.531
E12  26084810.571 5 137076607.40305        32.875    26084811.019 5 102362402.66305        34.625    26084811.629 6 105032727.30906        36.281    26084811.194 6 103697564.53306        38.406
E19  26923574.220 6 141484347.15206        36.156    26923578.325 6 105653918.81706        38.094    26923577.816 6 108410106.71006        40.156    26923577.924 7 107032012.30607        42.188
E26  25327352.690 7 133096127.82307        42.156    25327358.672 7  99389985.28607        44.938    25327358.185 7 101982764.87607        46.313    25327358.334 8 100686374.58408        48.625
E27  25641992.455 7 134749586.07507        42.719    25641997.011 7 100624709.54807        47.438    25641996.227 7 103249705.92607        47.813    25641996.514 8 101937206.78108        50.594
E30  24782314.695 7 130231948.40407        43.250    24782317.908 7  97251143.79007        46.250    24782317.291 7  99788128.15507        46.875    24782317.679 8  98519637.02208        49.563
E33  25318778.208 7 133051077.18307        45.094    25318780.384 7  99356327.45007        47.656    25318779.286 7 101948229.89307        47.688    25318779.806 8 100652279.72108        50.656
G05  21265073.458 7 111748709.61507        46.563    21265073.262 6        39.031    21265073.017 6  87076911.79106        39.031    21265072.752 7  87076904.76507        43.906
G13  21432792.665 7 112630085.11307        46.719    21432792.227 5        34.719    21432790.950 5  87763693.21805        34.719
G15  20213601.050 7 106223190.60707        47.906    20213600.737 8        51.625    20213600.219 8  82771313.86808        51.625    20213600.288 7  82771313.88807        44.625
G18  21511279.304 7 113042534.53907        46.938    21511279.068 6        37.250    21511279.350 6  88085091.13006        37.250    21511278.978 7  88085090.13907        45.281    21511282.387 8  84414889.83008        49.375
G20  23416742.944 6 123055803.87706        37.938    23416741.871 3        22.719    23416744.704 3  95887633.55203        22.719
G23  22595549.311 7 118740418.28007        44.063    22595549.133 5        31.906    22595549.666 5  92525001.30705        31.906    22595549.116 6  92525001.30006        41.813    22595552.960 7  88669805.98807        47.438
G24  20495783.789 7 107706075.82007        46.594    20495783.476 8        51.219    20495786.118 8  83926821.51408        51.219    20495785.411 7  83926813.48907        45.406    20495785.656 8  80429870.44308        52.000
J01  38775823.315 7 203768326.03707        45.438    38775822.402 7 158780507.25007        44.688    38775823.964 8 152164662.76308        50.688
J02  37005799.212 6 194466789.21006        40.688    37005802.259 7 151532574.95307        42.906    37005802.889 7 145218728.11307        45.531
J03  37406023.783 6                        38.563    37406030.118 6 153171431.00706        37.750    37406033.174 6 146789304.20206        40.313
J07  37155048.469 6 195251091.11306        38.125    37155048.893 7 152143711.58907        44.063    37155050.489 8 145804400.28608        50.219
> 2021 09 22 06 30 52.0000000  0 19
E02  28207142.888 5 148229535.10705        34.750    28207146.066 6 110690899.91806        37.313    28207145.827 6 113578485.61706        37.156
E07  24452662.698 7 128499608.19907        46.844    24452665.899 8  95957510.66408        50.125    24452665.393 8  98460747.22008        51.000    24452665.395 8  97209128.47808        53.594
E12  26084518.686 4 137075071.71504        27.438    26084519.035 4 102361255.92504        27.844    26084519.463 5 105031550.74305        30.219    26084519.036 5 103696402.87005        32.000
E19  26923253.242 6 141482661.21206        36.000    26923257.468 6 105652659.83706        38.125    26923257.062 6 108408814.87406        39.813    26923257.129 7 107030736.89207        42.031
E26  25327889.883 7 133098950.80807        43.719    25327895.843 7  99392093.29207        46.438    25327895.289 8 101984927.88308        48.469    25327895.526 8 100688510.12208        50.500
E27  25641541.357 6 134747215.85306        41.969    25641545.960 7 100622939.56807        45.375    25641545.162 7 103247889.74207        46.125    25641545.468 8 101935413.68708        48.719
E30  24782303.504 7 130231889.77607        43.781    24782306.723 7  97251100.02707        46.094    24782306.190 7  99788083.22007        46.656    24782306.398 8  98519592.65908        49.375
E33  25318941.536 7 133051935.52707        45.094    25318943.734 7  99356968.47407        47.344    25318942.541 7 101948887.58307        47.688    25318943.155 8 100652929.05808        50.531
G05  21265505.101 7 111750977.44507        46.656    21265504.900 6        39.094    21265504.541 6  87078678.92406        39.094    21265504.339 7  87078671.92307        43.906
G13  21433199.727 7 112632223.88807        46.688    21433199.289 5        34.781    21433197.964 5  87765359.79805        34.781
G15  20213688.681 7 106223650.79507        47.906    20213688.373 8        51.688    20213687.786 8  82771672.45808        51.688    20213687.813 7  82771672.45007        44.938
G18  21511296.663 7 113042625.69707        46.875    21511296.431 6        37.438    21511296.706 6  88085162.16206        37.438    21511296.525 7  88085161.16507        45.406    21511299.715 8  84414957.91808        49.375
G20  23417410.295 6 123059313.57406        37.375    23417409.227 3        21.844    23417412.543 3  95890368.39603        21.844
G23  22595001.201 7 118737537.17007        44.344    22595001.023 5        32.000    22595001.383 5  92522756.28605        32.000    22595000.766 6  92522756.29506        41.969    22595004.632 7  88667654.51107        47.281
G24  20495401.468 7 107704066.69207        47.938    20495401.151 8        51.281    20495403.757 8  83925255.96108        51.281    20495403.044 7  83925247.96107        46.188    20495403.334 8  80428370.14008        52.906
J01  38775805.564 7 203768233.18807        45.469    38775804.764 7 158780434.91107        44.844    38775806.250 8 152164593.43108        50.469
J02  37005764.060 6 194466605.33106        41.563    37005767.380 7 151532431.69907        43.969    37005767.921 7 145218590.92107        46.313
J03  37406137.487 6                        40.531    37406144.142 6 153171896.67706        39.563    37406146.655 6 146789750.21906        41.188
J07  37155074.553 6 195251227.58406        38.906    37155074.826 7 152143817.96007        44.406    37155076.516 8 145804502.20808        50.875
> 2021 09 22 06 30 53.0000000  0 19
E02  28207529.794 6 148231567.44006        36.750    28207532.694 6 110692417.51606        38.844    28207531.767 6 113580042.84406        38.281
E07  24452880.851 7 128500753.88207        46.625    24452883.794 8  95958366.20008        50.000    24452883.365 8  98461625.07608        50.563    24452883.438 8  97209995.17908        53.281
E12  26084225.182 3                        20.781    26084227.136 3 102360108.97703        23.125    26084227.757 4 105030373.97804        25.406    26084226.967 4 103695241.02104        26.750
E19  26922932.175 5 141480973.86905        34.844    26922936.392 6 105651399.76206        37.469    26922936.030 6 108407521.94606        39.688    26922935.996 6 107029460.37906        41.656
E26  25328427.079 7 133101773.53107        42.906    25328432.936 7  99394201.17607        46.656    25328432.462 8 101987090.75808        48.063    25328432.695 8 100690645.51408        50.406
E27  25641090.495 7 134744846.86807        43.656    25641095.161 7 100621170.49507        47.938    25641094.323 8 103246074.55208        48.250    25641094.693 8 101933621.56308        51.063
E30  24782292.803 7 130231832.88307        43.781    24782295.860 7  97251057.55307        46.000    24782295.301 7  99788039.62307        46.094    24782295.556 8  98519549.62808        49.000
E33  25319104.781 7 133052793.18407        44.906    25319106.889 7  99357608.90007        47.219    25319105.775 7 101949544.72007        47.625    25319106.321 8 100653577.84708        50.438
G05  21265936.996 7 111753246.73207        46.500    21265936.795 6        39.000    21265936.351 6  87080447.20106        39.000    21265936.152 7  87080440.17607        44.219
G13  21433606.802 7 112634363.53007        46.375    21433606.369 5        34.656    21433605.117 5  87767027.05005        34.656
G15  20213776.299 7 106224111.23807        47.875    20213775.986 8        51.531    20213775.402 8  82772031.24408        51.531    20213775.361 7  82772031.25607        45.063
G18  21511313.986 7 113042716.48807        46.906    21511313.750 6        37.469    21511314.008 6  88085232.90806        37.469    21511313.895 7  88085231.90907        45.813    21511316.960 8  84415025.68508        49.344
G20  23418078.578 6 123062824.80306        38.844    23418077.505 3        21.313    23418080.792 3  95893104.42503        21.313
G23  22594452.850 7 118734655.11907        43.844    22594452.676 5        31.844    22594452.893 5  92520510.53505        31.844    22594452.390 6  92520510.52606        41.563    22594456.116 7  88665502.33307        47.219
G24  20495019.226 7 107702057.86407        47.313    20495018.913 8        51.250    20495021.446 8  83923690.64008        51.250    20495020.643 7  83923682.64307        46.219    20495021.056 8  80426870.04308        52.844
J01  38775787.973 7 203768140.30407        45.594    38775787.075 7 158780362.51507        44.813    38775788.589 8 152164524.07208        50.563
J02  37005729.246 7 194466422.32807        42.625    37005732.708 7 151532289.08907        44.344    37005733.157 7 145218454.15207        47.656
J03  37406251.142 6                        39.594    37406258.005 6 153172362.34806        40.000    37406260.220 7 146790196.37507        42.188
J07  37155100.317 6 195251363.97206        38.594    37155100.888 7 152143924.21407        44.625    37155102.446 8 145804604.05008        50.906
> 2021 09 22 06 30 54.0000000  0 19
E02  28207916.340 6 148233599.93006        36.250    28207919.476 6 110693935.37206        38.938    28207918.699 6 113581600.36006        37.125
E07  24453098.924 7 128501899.47107        46.813    24453101.648 8  95959221.69108        49.688    24453101.386 8  98462502.89708        48.250    24453101.455 8  97210861.82008        52.031
E12  26083934.066 3                        21.563    26083935.312 4 102358962.39504        25.969                                                    26083934.694 4 103694079.26104        27.438
E19  26922611.172 5 141479286.43305        35.438    26922615.290 6 105650139.70306        38.000    26922614.939 6 108406229.07706        37.625    26922614.981 6 107028183.91306        40.719
E26  25328964.242 6 133104596.58306        37.750    25328970.108 6  99396309.20806        40.188    25328969.660 6 101989253.85906        39.563    25328969.800 7 100692781.11707        42.781
E27  25640639.744 7 134742478.10807        42.969    25640644.369 8 100619401.60308        48.125    25640643.589 7 103244259.50807        46.344    25640643.971 8 101931829.60208        50.281
E30  24782281.965 7 130231776.32307        43.531    24782285.112 7  97251015.33607        45.875    24782284.386 7  99787996.26707        43.281    24782284.755 7  98519506.82507        47.688
E33  25319268.050 7 133053651.28507        44.344    25319270.042 7  99358249.70807        46.688    25319269.134 7 101950202.21507        45.125    25319269.565 8 100654227.00608        48.938
G05  21266368.799 7 111755516.34007        46.500    21266368.598 6        39.031    21266368.229 6  87082215.72606        39.031    21266367.978 7  87082208.73107        43.969
G13  21434013.835 7 112636503.18707        46.531    21434013.402 5        34.625    21434012.277 5  87768694.31505        34.625
G15  20213863.944 7 106224571.89907        47.688    20213863.636 8        51.500    20213863.065 8  82772390.19908        51.500    20213863.084 7  82772390.19507        44.719
G18  21511331.403 7 113042807.90807        46.875    21511331.167 6        37.500    21511331.420 6  88085304.14606        37.500    21511331.271 7  88085303.10307        45.219    21511334.306 8  84415093.90408        48.750
G20  23418747.093 6 123066336.16806        39.344    23418746.020 3        21.656    23418748.956 3  95895840.53903        21.656
G23  22593904.347 7 118731773.17307        43.219    22593904.169 5        31.594    22593904.393 5  92518264.86305        31.594    22593903.708 6  92518264.85106        40.875    22593907.670 7  88663350.22207        46.906
G24  20494637.021 7 107700049.53707        47.250    20494636.708 8        51.313    20494639.241 8  83922125.71308        51.313    20494638.508 7  83922117.73507        46.281    20494638.904 8  80425370.34108        52.813
J01  38775770.256 7 203768047.26207        45.188    38775769.395 7 158780290.04007        44.688    38775770.905 8 152164454.60808        50.281
J02  37005694.409 7 194466239.35207        43.094    37005697.984 7 151532146.47707        44.875    37005698.264 7 145218317.52007        46.594
J03  37406364.777 6                        37.156    37406371.838 6 153172827.84206        36.656    37406373.878 6 146790642.60706        39.281
J07  37155126.383 6 195251500.35206        39.344    37155126.833 7 152144030.44207        44.688    37155128.344 8 145804705.89008        50.406
> 2021 09 22 06 30 55.0000000  0 19
E02  28208303.671 5 148235632.30505        35.719    28208306.229 6 110695452.97106        36.188    28208305.079 5 113583157.44905        32.656    28208305.327 6 112139301.73816        37.500
E07  24453316.910 7 128503044.49907        46.813    24453319.630 8  95960076.72208        50.000    24453319.438 7  98463380.22907        46.844    24453319.317 8  97211728.01108        51.531
E12  26083642.695 3                        20.875    26083645.390 4 102357816.98304        24.531                                                    26083642.528 4 103692918.92904        24.469
E19  26922290.434 5 141477601.26605        35.969    26922294.586 6 105648881.32806        37.500    26922294.191 6 108404937.79806        36.031    26922294.294 6 107026909.11006        39.781
E26  25329501.626 6 133107420.48106        38.281    25329507.515 6  99398418.03406        39.938    25329506.843 6 101991417.60006        37.563    25329507.117 6 100694917.36106        41.844
E27  25640188.577 6 134740108.30106        41.563    25640193.418 7 100617631.99607        46.719    25640192.742 7 103242443.73507        43.281    25640192.977 8 101930036.90508        48.188
E30  24782271.168 7 130231718.86907        43.750    24782274.264 7  97250972.40707        45.781    24782273.324 7  99787952.24407        42.250    24782273.745 7  98519463.35607        47.188
E33  25319431.782 7 133054511.65707        44.656    25319433.690 7  99358892.16207        47.000    25319432.898 7 101950861.47007        43.750    25319433.265 8 100654877.85708        48.500
G05  21266800.576 7 111757785.36207        46.250    21266800.380 6        39.000    21266800.000 6  87083983.79406        39.000    21266799.952 7  87083976.78607        44.094
G13  21434420.806 7 112638642.34907        46.094    21434420.368 5        34.531    21434419.352 5  87770361.19305        34.531
G15  20213951.472 7 106225033.12407        47.000    20213951.159 8        51.375    20213950.822 8  82772749.59708        51.375    20213950.833 7  82772749.59607        44.938
G18  21511349.213 7 113042901.62807        47.344    21511348.981 6        37.750    21511349.269 6  88085377.17806        37.750    21511349.172 7  88085376.18107        45.719    21511352.198 8  84415163.94108        49.313
G20  23419414.811 6 123069846.34306        39.125    23419413.738 3        22.188    23419416.881 3  95898575.73803        22.188
G23  22593356.024 7 118728893.07207        43.813    22593355.841 5        31.344    22593356.241 5  92516020.63005        31.344    22593355.510 6  92516020.61906        40.500    22593359.227 7  88661199.51607        46.250
G24  20494255.090 7 107698042.37207        47.531    20494254.773 8        51.344    20494257.257 8  83920561.69008        51.344    20494256.612 7  83920553.70007        46.156    20494256.983 8  80423871.47608        52.719
J01  38775752.397 7 203767954.27707        45.406    38775751.529 7 158780217.55007        44.531    38775753.179 8 152164385.15908        50.156
J02  37005659.431 6 194466055.66906        40.375    37005663.158 6 151532003.44106        41.375    37005663.366 7 145218180.40607        44.406
J03  37406479.308 3                        21.781    37406485.495 4 153173293.90804        29.875    37406487.685 5 146791089.10905        31.906
J07  37155152.454 6 195251637.22206        39.875    37155152.938 7 152144137.11907        44.188    37155154.392 8 145804808.07608        50.219
> 2021 09 22 06 30 56.0000000  0 20
E02  28208689.475 5 148237663.06605        33.219    28208691.621 6 110696969.52006        36.156    28208691.976 5 113584713.59205        32.906    28208691.812 6 112140838.08406        37.375
E07  24453534.401 7 128504187.37207        46.688    24453537.074 8  95960930.16008        49.469    24453536.984 7  98464255.92207        45.781    24453536.787 8  97212592.59008        50.813
E12  26083354.530 3                        23.688    26083356.307 5 102356674.90405        30.656
E19  26921970.728 5 141475921.30905        35.938    26921974.787 6 105647626.85406        36.781    26921974.445 5 108403650.57705        34.031    26921974.530 6 107025638.26406        38.469
E26  25330039.431 6 133110246.18706        38.094    25330045.320 6  99400528.12906        40.406    25330044.557 6 101993582.78906        36.875    25330044.763 6 100697055.01406        41.844
E27  25639736.986 7 134737735.08507        42.500    25639741.742 7 100615859.80307        47.313    25639741.131 7 103240625.30407        43.469    25639741.344 8 101928241.59808        48.625
E30  24782259.798 7 130231657.83607        43.469    24782262.584 7  97250926.85007        45.813    24782261.868 6  99787905.52906        41.469    24782262.105 7  98519417.22407        46.969
E33  25319596.287 7 133055376.74707        44.531    25319598.294 7  99359538.19107        47.031    25319597.597 7 101951524.35307        43.000    25319597.869 8 100655532.31508        48.281
G05  21267231.752 7 111760051.47007        46.469    21267231.551 6        39.125    21267231.222 6  87085749.59406        39.125    21267231.432 7  87085742.61707        44.250
G13  21434827.545 7 112640779.52607        46.531    21434827.107 5        34.500    21434826.053 5  87772026.52505        34.500
G14  23991253.011 6 126074885.82316        41.375
G15  20214039.307 7 106225494.98707        47.438    20214038.994 8        51.375    20214038.704 8  82773109.48808        51.375    20214038.856 7  82773109.49107        44.844
G18  21511367.946 7 113042999.95907        47.125    21511367.710 6        37.875    21511367.987 6  88085453.79706        37.875    21511367.903 7  88085452.81207        45.438    21511370.925 8  84415237.38608        49.156
G20  23420081.926 6 123073352.19206        36.219    23420080.849 3        21.281    23420084.023 3  95901307.55803        21.281
G23  22592808.695 7 118726017.11307        43.875    22592808.512 5        31.094    22592808.866 5  92513779.62205        31.094    22592808.011 6  92513779.61706        40.875    22592811.641 7  88659051.88307        45.969
G24  20493873.448 7 107696036.75007        47.250    20493873.135 8        51.438    20493875.570 8  83918998.86908        51.438    20493874.974 7  83918990.86507        46.188    20493875.363 8  80422373.76208        52.688
J01  38775734.812 7 203767861.32107        45.438    38775733.920 7 158780145.14007        44.344    38775735.489 8 152164315.74508        50.125
J02  37005623.920 6 194465869.80906        40.813    37005627.644 6 151531858.53206        41.563    37005628.049 7 145218041.56107        44.688
J03  37406596.026 3                        20.625    37406599.516 4 153173759.82004        26.344    37406600.658 4 146791535.46704        29.625
J07  37155178.697 6 195251774.48606        39.031    37155179.221 7 152144244.10007        44.094    37155180.621 8 145804910.61308        50.188
> 2021 09 22 06 30 57.0000000  0 20
E02  28209075.717 5 148239691.40905        35.125    28209077.233 6 110698484.07306        36.469    28209078.418 5 113586267.71705        34.625    28209077.867 6 112142372.42406        38.219
E07  24453751.050 7 128505327.02707        45.094    24453753.853 8  95961781.20208        49.719    24453753.677 7  98465129.19207        46.813    24453753.718 8  97213454.73908        51.344
E12                                                  26083069.407 4 102355539.13404        24.844    26083067.302 3                        21.063
E19  26921652.476 5 141474247.46705        34.656    26921656.411 6 105646376.83206        38.094    26921655.752 6 108402367.99806        36.000    26921655.962 6 107024371.95806        40.094
E26  25330577.810 6 133113074.39406        37.094    25330583.399 6  99402640.12806        40.219    25330582.589 6 101995749.80506        38.156    25330582.904 7 100699194.51907        42.281
E27  25639284.843 6 134735357.78806        41.531    25639289.360 7 100614084.58207        47.219    25639288.687 7 103238803.76707        44.344    25639288.916 8 101926443.22408        48.906
E30  24782247.083 6 130231591.98506        41.719    24782250.047 7  97250877.64607        46.094    24782249.331 7  99787854.97307        42.031    24782249.622 7  98519367.36907        47.375
E33  25319761.999 7 133056247.30407        43.719    25319763.940 7  99360188.28007        47.750    25319763.314 7 101952191.39407        44.438    25319763.542 8 100656190.88408        49.250
G05  21267662.350 7 111762314.02107        45.125    21267662.154 6        39.125    21267661.775 6  87087512.62106        39.125    21267662.071 7  87087505.61507        44.250
G13  21435233.827 7 112642913.60307        45.094    21435233.389 5        34.406    21435232.183 5  87773689.44005        34.406
G14  23991356.310 6 126075429.60906        41.375                                                                                                                                    23991359.410 7  94147246.51417        42.125
G15  20214127.399 7 106225957.02207        46.375    20214127.091 8        51.313    20214126.646 8  82773469.51908        51.313    20214126.860 7  82773469.53707        44.594
G18  21511387.610 7 113043103.50607        45.156    21511387.378 6        37.750    21511387.697 6  88085534.48306        37.750    21511387.460 7  88085533.48207        45.188    21511390.644 8  84415314.71508        49.125
G20  23420748.584 6 123076853.00006        36.344    23420747.516 3        20.688    23420750.225 3  95904035.45103        20.688
G23  22592262.390 7 118723145.49107        43.031    22592262.207 5        31.219    22592262.338 5  92511541.99705        31.219    22592261.935 7  92511542.04907        42.125    22592265.077 7  88656907.53707        46.719
G24  20493492.134 7 107694032.95107        46.438    20493491.821 8        51.438    20493494.224 8  83917437.46908        51.438    20493493.682 7  83917429.49007        46.188    20493493.996 8  80420877.42608        52.656
J01  38775717.134 7 203767767.98207        44.219    38775716.209 7 158780072.39207        44.563    38775717.714 8 152164246.04408        50.094
J02  37005588.100 6 194465681.37306        40.156    37005591.606 6 151531711.77006        41.781    37005592.224 7 145217900.88507        45.313
J03                                                  37406714.649 4 153174225.65604        26.938    37406714.629 4 146791982.04004        28.344
J07  37155205.025 6 195251912.59006        38.250    37155205.483 7 152144351.68007        43.938    37155206.906 8 145805013.75108        50.344
> 2021 09 22 06 30 58.0000000  0 20
E02  28209461.063 5 148241714.69605        35.000    28209462.972 6 110699994.98106        40.938    28209463.182 6 113587817.97506        39.719    28209463.009 7 112143902.99207        43.281
E07  24453967.275 7 128506462.87107        44.031    24453970.034 8  95962629.41508        49.219    24453969.775 8  98465999.50108        48.500    24453969.866 8  97214313.99308        51.906
E12                                                  26082781.959 4 102354406.39304        27.125    26082779.902 4                        26.156
E19  26921335.176 5 141472579.47105        34.875    26921339.035 6 105645131.28406        37.750    26921338.380 6 108401089.93806        38.219    26921338.418 6 107023110.14606        40.969
E26  25331116.762 6 133115907.59806        39.875    25331122.466 7  99404755.82507        42.844    25331121.710 7 101997920.74407        42.906    25331122.064 7 100701337.81307        45.938
E27  25638832.273 7 134732978.94407        42.281    25638836.713 8 100612308.13408        48.125    25638835.955 7 103236980.98107        46.844    25638836.260 8 101924643.59508        50.531
E30  24782233.593 6 130231520.97706        41.813    24782236.558 7  97250824.65507        45.656    24782235.671 7  99787800.65907        43.156    24782236.182 7  98519313.69707        47.531
E33  25319928.854 7 133057123.47407        43.281    25319930.740 7  99360842.60407        47.594    25319930.063 7 101952862.80207        46.406    25319930.312 8 100656853.73708        50.094
G05  21268092.459 7 111764574.48407        44.000    21268092.263 6        38.719    21268091.917 6  87089274.01406        38.719    21268092.212 7  87089266.99807        44.281
G13  21435639.143 7 112645043.64507        44.594    21435638.705 5        33.844    21435637.535 5  87775349.20905        33.844
G14  23991458.728 6 126075967.90406        40.063    23991458.281 4        25.375    23991459.874 4                        25.375                                                    23991462.135 7  94147648.39407        42.500
G15  20214215.237 7 106226418.44607        46.188    20214214.924 8        51.094    20214214.466 8  82773829.07208        51.094    20214214.686 7  82773829.11207        44.563
G18  21511408.249 7 113043212.36507        44.531    21511408.013 6        37.281    21511408.409 6  88085619.30906        37.281    21511408.086 7  88085618.30007        45.531    21511411.312 8  84415396.02808        49.094
G20  23421414.275 6 123080351.25006        37.719    23421413.207 3        20.438    23421415.798 3  95906761.35303        20.438
G23  22591716.487 7 118720276.89407        42.594    22591716.309 5        31.063    22591716.469 5  92509306.73705        31.063    22591716.253 6  92509306.75006        41.563    22591719.469 7  88654765.36207        47.281
G24  20493111.551 7 107692032.74707        46.125    20493111.238 8        51.188    20493113.566 8  83915878.87008        51.188    20493113.163 7  83915870.88107        45.813    20493113.308 8  80419383.78808        51.531
J01  38775699.322 7 203767674.34007        43.750    38775698.431 7 158779999.45107        44.219    38775699.895 8 152164176.12508        49.781
J02  37005552.472 6 194465493.43506        41.875    37005555.602 7 151531565.28307        43.625    37005556.525 7 145217760.53007        47.656
J03  37406828.702 3                        23.875    37406829.154 4 153174693.93104        27.500    37406829.534 5 146792431.05605        30.469
J07  37155231.764 6 195252053.88506        37.156    37155232.416 7 152144461.80507        44.750    37155233.703 8 145805119.24208        49.906
> 2021 09 22 06 30 59.0000000  0 20
E02  28209844.797 5 148243732.20105        32.781    28209847.280 6 110701501.69806        38.906    28209846.847 6 113589364.03906        37.563    28209847.029 6 112145429.36906        41.125
E07  24454182.684 7 128507594.79007        44.688    24454185.401 8  95963474.71808        48.531    24454185.062 8  98466866.87408        48.250    24454185.167 8  97215170.33108        51.375
E12  26082494.776 4                        26.969    26082490.789 4 102353271.56804        28.000    26082492.533 4                        29.594
E19  26921018.097 5 141470916.08405        33.281    26921022.073 6 105643889.17206        37.625    26921021.642 6 108399815.43606        39.031    26921021.801 6 107021851.84806        41.344
E26  25331656.979 6 133118747.06406        39.719    25331662.813 7  99406876.23907        43.063    25331661.992 7 102000096.42907        43.375    25331662.389 7 100703485.89507        46.250
E27  25638379.763 6 134730600.74106        41.375    25638384.263 7 100610532.21807        47.344    25638383.363 7 103235158.75307        47.031    25638383.732 8 101922844.53108        50.219
E30  24782219.259 7 130231445.56707        42.125    24782222.000 7  97250768.31807        44.375    24782221.312 7  99787742.82907        44.813    24782221.817 7  98519256.61807        47.563
E33  25320096.586 7 133058004.51007        43.594    25320098.437 7  99361500.52607        47.563    25320097.729 7 101953537.88607        47.844    25320098.005 8 100657520.25408        50.688
G05  21268522.503 7 111766834.41507        44.313    21268522.302 6        38.406    21268521.959 6  87091034.99106        38.406    21268522.240 7  87091027.98307        44.250
G13  21436043.704 7 112647169.31107        44.844    21436043.271 5        33.406    21436042.043 5  87777005.57905        33.406
G14  23991560.428 6 126076500.61806        40.063    23991560.013 4        24.688    23991561.246 4  98241432.37014        24.688                                                    23991564.334 7  94148046.31207        43.938
G15  20214302.802 7 106226878.63107        46.406    20214302.489 8        50.906    20214302.044 8  82774187.66608        50.906    20214302.243 7  82774187.68007        44.906
G18  21511429.719 7 113043325.67307        44.594    21511429.483 6        37.000    21511429.971 6  88085707.61206        37.000    21511429.430 7  88085706.67007        45.406    21511432.922 8  84415480.68108        49.875
G20  23422080.231 6 123083849.36806        39.219    23422079.167 3        21.500    23422081.465 3  95909487.15603        21.500
G23  22591170.966 7 118717409.41807        42.844    22591170.783 5        30.813    22591170.807 5  92507072.33705        30.813    22591170.594 6  92507072.32606        41.250    22591174.167 7  88652624.08107        47.063
G24  20492731.699 7 107690037.00207        45.500    20492731.386 8        50.938    20492733.761 8  83914323.74208        50.938    20492733.509 7  83914315.74107        46.000    20492733.372 8  80417893.46208        50.844
J01  38775681.384 7 203767580.33607        43.875    38775680.412 7 158779926.20607        44.313    38775682.026 8 152164105.96408        49.781
J02  37005517.469 6 194465308.14706        41.469    37005520.320 7 151531420.96407        43.469    37005521.372 8 145217622.21808        48.719
J03  37406943.632 4                        29.031    37406945.467 5 153175166.44305        31.063    37406945.393 5 146792883.56905        34.281
J07  37155259.416 6 195252199.67106        36.875    37155260.273 7 152144575.37507        45.531    37155261.450 8 145805228.05608        50.375
> 2021 09 22 06 31  0.0000000  0 20
E02  28210227.233 6 148245743.66006        36.938    28210230.053 6 110703003.75906        40.500    28210229.568 6 113590905.30206        40.250    28210229.742 7 112146951.09607        43.313
E07  24454397.295 7 128508722.61707        46.000    24454399.911 8  95964316.89408        48.375    24454399.579 8  98467731.00308        49.250    24454399.696 8  97216023.50308        51.844
E12                                                                                                  26082204.645 5                        30.500
E19  26920702.151 5 141469256.57205        34.000    26920705.920 5 105642649.91205        32.531    26920706.020 6 108398543.85906        37.250    26920705.990 6 107020596.43006        38.156
E26  25332198.444 7 133121592.01707        42.031    25332204.238 7  99409000.71207        45.188    25332203.353 7 102002276.34207        46.938    25332203.695 8 100705638.06508        49.125
E27  25637927.177 7 134728222.93807        43.125    25637931.663 7 100608756.59607        45.906    25637930.739 7 103233336.77207        46.156    25637931.181 8 101921045.73308        48.969
E30  24782204.200 7 130231365.53607        43.594    24782206.804 7  97250708.59707        44.531    24782206.093 7  99787681.54307        44.563    24782206.513 7  98519196.12007        47.469
E33  25320265.077 7 133058889.62007        43.969    25320266.860 7  99362161.51807        46.813    25320266.261 8 101954216.11308        48.813    25320266.482 8 100658189.85408        50.844
G05  21268952.253 7 111769093.49007        46.406    21268952.052 6        38.313    21268951.847 6  87092795.30406        38.313    21268952.037 7  87092788.35307        43.969
G13  21436447.147 7 112649290.36007        45.125    21436446.714 5        32.938    21436445.673 5  87778658.35305        32.938
G14  23991660.619 6 126077027.63106        40.688    23991660.199 4        24.094    23991661.520 4  98241843.02104        24.094                                                    23991664.739 6  94148439.83806        41.625
G15  20214390.007 7 106227337.12307        46.813    20214389.699 8        50.875    20214389.301 8  82774544.93808        50.875    20214389.505 7  82774544.93507        44.469
G18  21511451.922 7 113043442.76707        45.313    21511451.690 6        36.688    21511452.267 6  88085798.88006        36.688    21511451.735 7  88085797.96107        45.750    21511455.300 8  84415568.14708        50.406
G20  23422745.390 6 123087346.97106        38.781    23422744.326 3        22.000    23422747.018 3  95912212.56803        22.000
G23  22590625.636 7 118714542.37107        44.406    22590625.458 5        30.813    22590625.245 5  92504838.27505        30.813    22590625.105 7  92504838.27807        42.219    22590628.909 8  88650483.10508        48.500
G24  20492352.490 7 107688045.07207        46.094    20492352.177 8        50.563    20492354.690 8  83912771.59408        50.563    20492354.388 7  83912763.65107        45.250    20492354.305 8  80416406.01108        51.719
J01  38775663.327 7 203767485.52607        44.719    38775662.516 7 158779852.34207        44.469    38775663.985 8 152164035.17308        49.844
J02  37005482.648 7 194465125.14207        42.063    37005485.403 7 151531278.33607        42.813    37005486.702 8 145217485.52508        48.219
J03  37407056.992 6                        37.063    37407061.823 6 153175643.66406        38.563    37407062.057 6 146793340.93006        41.906
J07  37155287.686 6 195252349.24906        38.375    37155288.652 7 152144691.96807        45.125    37155289.901 8 145805339.81008        50.625
> 2021 09 22 06 31  1.0000000  0 20
E02  28210609.165 5 148247750.54105        33.031    28210612.129 6 110704502.34806        38.063    28210611.347 6 113592443.06706        36.656    28210611.590 6 112148469.25706        40.344
E07  24454611.288 7 128509846.95807        46.125    24454613.815 8  95965156.51608        48.625    24454613.529 8  98468592.53608        49.438    24454613.623 8  97216874.06308        52.063
E12                                                                                                  26081916.208 4                        24.531
E19  26920387.105 5 141467600.85805        35.875    26920390.874 6 105641413.56106        37.281    26920390.966 6 108397275.23306        40.156    26920390.931 6 107019343.95106        41.813
E26  25332740.830 7 133124441.90807        42.531    25332746.530 7  99411128.90107        46.500    25332745.785 7 102004460.06307        47.750    25332746.121 8 100707794.02708        50.188
E27  25637474.519 7 134725845.30107        42.781    25637479.171 7 100606981.13307        45.656    25637478.178 7 103231514.99707        45.375    25637478.648 8 101919247.10608        48.500
E30  24782188.241 7 130231281.62707        42.469    24782190.871 7  97250645.93307        45.219    24782190.044 7  99787617.27507        44.188    24782190.413 7  98519132.63907        47.750
E33  25320434.156 7 133059778.66707        43.594    25320435.835 7  99362825.42207        46.094    25320435.524 8 101954897.32708        48.000    25320435.592 8 100658862.41808        50.063
G05  21269381.934 7 111771351.86607        46.531    21269381.738 6        38.281    21269381.614 6  87094555.08606        38.281    21269381.784 7  87094548.10707        42.375
G13  21436849.913 7 112651407.57507        45.469    21436849.475 5        32.844    21436848.583 5  87780308.13605        32.844
G14  23991759.912 6 126077549.89906        40.781    23991759.474 3        23.750    23991760.867 3  98242249.98103        23.750    23991761.044 6  98242258.12716        36.188    23991764.101 6  94148829.85406        41.219
G15  20214477.043 7 106227794.36507        47.000    20214476.730 8        50.563    20214476.312 8  82774901.22608        50.563    20214476.300 7  82774901.24107        43.844
G18  21511474.929 7 113043563.58907        45.469    21511474.693 6        36.656    21511475.260 6  88085893.05706        36.656    21511474.786 7  88085892.07207        45.094    21511478.363 8  84415658.35108        50.781
G20  23423410.896 6 123090844.09706        37.844    23423409.828 3        21.281    23423412.477 3  95914937.59803        21.281
G23  22590080.428 7 118711676.15507        43.594    22590080.245 5        31.031    22590079.813 5  92502604.87605        31.031    22590079.637 6  92502604.92206        41.688    22590083.601 8  88648342.79008        48.125
G24  20491974.135 7 107686056.59807        46.375    20491973.822 8        50.156    20491976.278 8  83911222.14608        50.156    20491975.698 7  83911214.15307        43.656    20491975.902 8  80414921.14608        52.188
J01  38775645.164 7 203767390.12007        44.844    38775644.578 7 158779778.01407        43.875    38775645.851 8 152163963.93608        49.875
J02  37005448.152 7 194464944.05907        42.250    37005450.436 6 151531137.17906        41.531    37005452.306 7 145217350.26607        47.688
J03  37407172.400 4 196576038.66114        28.000    37407178.884 5 153176124.37205        30.625    37407179.649 5 146793801.64505        35.281
J07  37155316.743 6 195252502.18806        38.625    37155317.713 7 152144811.16407        44.531    37155318.980 8 145805454.04508        50.625
> 2021 09 22 06 31  2.0000000  0 20
E02  28210990.949 5 148249754.89505        35.750    28210993.686 6 110705999.15206        39.844    28210992.393 6 113593978.73706        38.438    28210993.011 7 112149985.48607        42.125
E07  24454825.007 7 128510970.15107        46.219    24454827.592 8  95965995.26508        48.781    24454827.247 8  98469453.15308        49.656    24454827.364 8  97217723.75108        52.250
E12                                                                                                  26081630.118 3                        21.594
E19  26920072.088 5 141465945.16605        35.094    26920075.880 6 105640177.14806        36.656    26920075.910 6 108396006.55906        39.938    26920075.906 6 107018091.39706        41.375
E26  25333283.670 7 133127294.50807        43.000    25333289.363 7  99413259.04807        46.250    25333288.736 8 102006645.78708        48.094    25333289.032 8 100709951.96008        50.219
E27  25637022.331 7 134723469.73807        42.688    25637027.062 7 100605207.16607        45.781    25637026.042 7 103229694.73907        45.250    25637026.498 8 101917449.99608        48.531
E30  24782171.942 7 130231197.25707        42.500    24782174.790 7  97250582.94907        45.281    24782173.985 7  99787552.61707        44.656    24782174.253 8  98519068.82408        48.031
E33  25320603.391 7 133060668.53907        43.750    25320605.063 7  99363489.92907        46.063    25320604.843 7 101955579.15807        47.938    25320604.839 8 100659535.58608        50.063
G05  21269811.932 7 111773611.55007        46.813    21269811.731 6        37.906    21269811.634 6  87096315.88906        37.906    21269811.755 7  87096308.91007        42.188
G13  21437252.527 7 112653523.37307        45.719    21437252.089 5        32.625    21437251.192 5  87781956.81705        32.625
G14  23991859.199 7 126078071.06307        42.188    23991858.739 3        23.406    23991860.030 3  98242656.09203        23.406    23991860.029 6  98242664.08506        36.063    23991863.169 6  94149218.97306        40.844
G15  20214563.982 7 106228250.79907        47.125    20214563.669 8        50.375    20214563.152 8  82775256.89208        50.375    20214562.991 7  82775256.90607        43.625
G18  21511498.063 7 113043685.19707        45.406    21511497.827 6        36.313    21511498.396 6  88085987.83506        36.313    21511497.775 7  88085986.87507        44.813    21511501.527 8  84415749.17908        50.969
G20  23424076.371 6 123094343.18206        38.375    23424075.303 3        20.406    23424078.251 3  95917664.13503        20.406
G23  22589534.822 7 118708808.71707        43.531    22589534.644 5        30.938    22589534.140 5  92500370.51405        30.938    22589533.903 6  92500370.54706        41.969    22589537.924 8  88646201.51508        48.000
G24  20491596.289 7 107684070.24107        46.406    20491595.976 8        49.531    20491598.249 8  83909674.34608        49.531    20491597.650 7  83909666.36807        43.406    20491597.942 8  80413437.82108        52.188
J01  38775626.958 7 203767294.36007        45.000    38775626.433 7 158779703.38007        43.781    38775627.619 8 152163892.42508        49.906
J02  37005414.233 7 194464765.39507        42.500    37005416.278 6 151530997.96506        40.969    37005418.350 7 145217216.88707        47.594
J03  37407289.585 5 196576658.20405        30.906    37407296.451 5 153176607.12805        32.406    37407297.584 6 146794264.33706        37.625
J07  37155346.402 6 195252657.31206        38.531    37155347.209 7 152144932.02107        44.438    37155348.471 8 145805569.88108        50.406
> 2021 09 22 06 31  3.0000000  0 20
E02  28211372.084 6 148251758.00206        36.250    28211374.790 6 110707495.02806        38.875    28211373.636 6 113595513.61106        38.875    28211374.103 6 112151500.85706        41.781
E07  24455038.727 7 128512092.97507        46.188    24455041.282 8  95966833.74208        48.906    24455040.932 8  98470313.51908        50.188    24455041.035 8  97218573.17408        52.531
E12  26081363.339 3                        21.969    26081327.784 3                        20.281    26081344.636 3                        23.438
E19  26919756.862 5 141464288.32505        35.313    26919760.846 6 105638939.96106        36.313    26919760.610 6 108394737.07806        39.156    26919760.608 6 107016838.05806        40.813
E26  25333826.848 7 133130148.66107        42.656    25333832.501 7  99415390.39307        45.531    25333832.015 8 102008832.71408        48.344    25333832.226 8 100712111.09608        50.063
E27  25636570.705 7 134721096.41007        42.563    25636575.396 7 100603434.85707        45.656    25636574.367 7 103227876.24107        46.188    25636574.859 8 101915654.60208        48.906
E30  24782155.916 7 130231113.45107        42.563    24782158.822 7  97250520.36807        45.313    24782157.994 7  99787488.38907        45.469    24782158.261 8  98519005.42708        48.438
E33  25320772.736 7 133061558.16507        43.813    25320774.282 7  99364154.27707        46.063    25320774.137 7 101956260.82407        47.969    25320774.089 8 100660208.59708        50.063
G05  21270242.258 7 111775872.98807        47.125    21270242.057 6        37.844    21270241.969 6  87098078.05206        37.844    21270242.208 7  87098071.04207        42.188
G13  21437655.078 7 112655638.61907        46.000    21437654.640 5        32.563    21437653.707 5  87783605.06205        32.563
G14  23991958.133 6 126078592.19506        39.906    23991957.668 3        23.094    23991959.194 3  98243062.16703        23.094    23991959.353 6  98243070.13506        36.625    23991962.163 6  94149608.14606        41.594
G15  20214650.761 7 106228706.68407        47.281    20214650.448 8        50.188    20214649.887 8  82775612.12608        50.188    20214649.750 7  82775612.13007        43.906
G18  21511521.197 7 113043806.81207        45.844    21511520.961 6        36.219    21511521.539 6  88086082.60906        36.219    21511521.034 7  88086081.64607        44.531    21511524.725 8  84415839.99208        50.938
G20  23424742.822 6 123097844.58806        38.688    23424741.758 3        20.031    23424744.503 3  95920392.49103        20.031
G23  22588988.764 7 118705939.52907        44.219    22588988.586 5        31.031    22588988.150 5  92498134.79005        31.031    22588988.056 7  92498134.78107        42.063    22588991.940 8  88644058.90508        48.219
G24  20491218.683 7 107682085.35707        47.000    20491218.370 8        49.094    20491220.496 8  83908127.69008        49.094    20491219.758 7  83908119.75207        42.656    20491220.203 8  80411955.62008        52.406
J01  38775608.643 7 203767198.34607        45.000    38775608.140 7 158779628.57607        43.969    38775609.351 8 152163820.72208        50.031
J02  37005380.755 7 194464589.00707        42.500    37005382.707 6 151530860.59806        40.594    37005384.703 7 145217085.16407        47.125
J03  37407406.851 6 196577279.95806        37.438    37407414.251 6 153177091.59306        37.750    37407415.854 7 146794728.61007        42.969
J07  37155376.291 6 195252813.82306        38.813    37155376.948 7 152145053.98707        44.531    37155378.173 8 145805686.76808        49.906
> 2021 09 22 06 31  4.0000000  0 20
E02  28211753.530 6 148253762.43106        39.031    28211756.039 6 110708991.79606        39.594    28211755.194 6 113597049.50006        38.938    28211755.399 7 112153017.18207        42.281
E07  24455252.558 7 128513216.98807        46.156    24455255.187 8  95967673.09308        48.844    24455254.855 8  98471174.74808        50.188    24455254.932 8  97219423.46208        52.531
E12  26081082.544 3                        20.031    26081038.818 3                        21.781    26081062.293 3                        20.281
E19  26919441.307 5 141462629.56605        35.000    26919445.206 5 105637701.20405        35.719    26919444.998 6 108393465.99606        40.125    26919444.877 6 107015583.14506        41.156
E26  25334369.686 6 133133002.11006        41.844    25334375.372 7  99417521.24507        45.031    25334375.045 7 102011019.14007        47.781    25334375.179 8 100714269.73408        49.469
E27  25636119.385 7 134718724.45307        43.188    25636123.955 7 100601663.58107        45.906    25636123.077 7 103226058.72007        46.438    25636123.571 8 101913860.19808        49.156
E30  24782140.395 7 130231031.77307        43.313    24782143.170 7  97250459.38407        45.156    24782142.600 7  99787425.81107        46.000    24782142.778 8  98518943.64008        48.563
E33  25320941.752 7 133062446.75807        43.719    25320943.371 7  99364817.81407        46.313    25320943.244 8 101956941.67508        48.406    25320943.171 8 100660880.78608        50.406
G05  21270672.926 7 111778136.03707        47.094    21270672.725 6        37.969    21270672.616 6  87099841.46706        37.969    21270672.588 7  87099834.47407        43.125
G13  21438057.865 7 112657755.10307        46.063    21438057.427 5        32.688    21438056.487 5  87785254.27405        32.688
G14  23992057.715 6 126079115.54106        40.219    23992057.246 3        23.000    23992058.794 3  98243469.97103        23.000    23992058.887 6  98243477.97706        37.813    23992061.631 6  94149998.92606        41.469
G15  20214737.658 7 106229163.07507        47.281    20214737.350 8        50.250    20214736.726 8  82775967.75608        50.250    20214736.515 7  82775967.75507        44.313
G18  21511544.118 7 113043927.74107        45.344    21511543.882 6        36.156    21511544.553 6  88086176.84206        36.156    21511544.200 7  88086175.84707        45.125    21511547.737 8  84415930.29908        50.563
G20  23425409.599 6 123101347.70906        40.719    23425408.535 3        20.219    23425411.139 3  95923122.19403        20.219
G23  22588442.508 7 118703069.21707        44.375    22588442.325 5        31.281    22588441.954 5  92495898.18505        31.281    22588441.704 7  92495898.22107        42.031    22588445.676 8  88641915.53208        48.500
G24  20490840.916 7 107680100.59107        46.844    20490840.603 8        48.844    20490842.756 8  83906581.13408        48.844    20490842.090 7  83906573.14907        43.656    20490842.529 8  80410473.46808        52.281
J01  38775590.370 7 203767102.45407        45.063    38775589.743 7 158779553.84007        44.344    38775591.068 8 152163749.10808        50.031
J02  37005347.335 7 194464413.24207        42.531    37005349.090 6 151530723.63606        41.906    37005351.163 7 145216953.93307        47.625
J03  37407524.959 6 196577901.43206        38.938    37407531.824 6 153177575.85106        40.438    37407534.018 7 146795192.64307        44.938
J07  37155406.144 6 195252970.05606        38.813    37155406.517 7 152145175.70407        45.094    37155407.793 8 145805803.39408        49.688
> 2021 09 22 06 31  5.0000000  0 20
E02  28212136.069 6 148255772.51506        37.625    28212138.431 6 110710492.76306        41.563    28212137.764 6 113598589.64106        41.219    28212137.898 7 112154537.74307        44.469
E07  24455467.168 7 128514345.06207        46.688    24455469.820 8  95968515.48508        48.531    24455469.493 8  98472039.12008        49.531    24455469.556 8  97220276.84508        52.094
E12  26080800.924 3                        19.063    26080748.981 3                        18.906
E19  26919124.815 5 141460965.55105        35.906    26919128.571 6 105636458.58506        36.219    26919128.307 6 108392190.96606        40.156    26919128.164 6 107014324.31706        41.438
E26  25334911.801 7 133135851.16907        42.813    25334917.427 7  99419648.78407        43.844    25334917.122 7 102013202.15407        46.094    25334917.149 8 100716425.01208        48.063
E27  25635668.449 7 134716354.30807        42.375    25635672.916 7 100599893.66307        46.313    25635672.137 7 103224242.64707        47.188    25635672.563 8 101912067.19808        49.781
E30  24782125.907 7 130230956.03507        43.563    24782128.724 7  97250402.76907        45.375    24782128.280 7  99787367.75407        46.594    24782128.401 8  98518886.30408        49.000
E33  25321110.111 7 133063331.10807        44.781    25321111.761 7  99365478.17407        46.875    25321111.518 8 101957619.29508        48.656    25321111.550 8 100661549.77808        50.781
G05  21271104.039 7 111780401.91807        45.938    21271103.843 6        38.094    21271103.781 6  87101607.08006        38.094    21271103.759 7  87101600.04507        44.125
G13  21438461.488 7 112659876.06407        46.500    21438461.050 5        32.813    21438460.099 5  87786906.97305        32.813
G14  23992158.507 6 126079645.61206        39.438    23992158.047 3        23.250    23992159.641 3  98243883.01103        23.250    23992159.726 6  98243891.02706        38.938    23992162.656 7  94150394.75707        43.563
G15  20214824.798 7 106229620.89107        47.875    20214824.490 8        50.438    20214823.839 8  82776324.49808        50.438    20214823.664 7  82776324.51407        44.781
G18  21511566.546 7 113044045.21707        45.438    21511566.310 6        36.094    21511566.897 6  88086268.37906        36.094    21511566.530 7  88086267.35207        45.031    21511570.064 8  84416017.98908        50.406
G20  23426076.783 6 123104853.66406        39.688    23426075.719 3        20.719    23426078.256 3  95925854.11203        20.719
G23  22587895.869 7 118700196.90307        44.375    22587895.686 5        31.375    22587895.335 5  92493660.01005        31.375    22587895.147 6  92493659.96506        41.031    22587899.150 8  88639770.57008        48.156
G24  20490462.750 7 107678113.49107        46.594    20490462.437 8        48.813    20490464.577 8  83905032.74808        48.813    20490464.139 7  83905024.73607        44.344    20490464.417 8  80408989.57108        51.656
J01  38775572.177 7 203767006.87307        45.000    38775571.320 7 158779479.35907        44.438    38775572.864 8 152163677.72208        50.000
J02  37005313.684 7 194464237.14107        42.594    37005315.832 7 151530586.45207        43.406    37005317.698 8 145216822.43308        48.500
J03  37407642.351 6 196578519.30506        38.594    37407649.007 6 153178057.27206        39.594    37407651.459 7 146795654.03807        43.531
J07  37155435.418 6 195253123.23106        38.844    37155435.876 7 152145295.06007        45.313    37155436.803 8 145805917.77608        49.063
> 2021 09 22 06 31  6.0000000  0 20
E02  28212520.531 6 148257791.80506        39.656    28212522.829 7 110712000.66707        43.406    28212521.997 7 113600136.88007        42.563    28212522.252 7 112156065.31607        46.063
E07  24455683.031 7 128515479.50307        46.156    24455685.679 8  95969362.63508        48.938    24455685.401 8  98472908.37008        49.813    24455685.397 8  97221135.04408        52.375
E12                                                  26080459.533 3                        19.563
E19  26918806.690 5 141459295.22705        34.750    26918810.630 6 105635211.26506        36.531    26918810.490 6 108390911.11206        40.406    26918810.307 6 107013060.73206        41.688
E26  25335452.501 7 133138693.07007        42.688    25335458.283 7  99421770.93807        44.594    25335457.795 7 102015379.69707        46.500    25335457.898 8 100718574.86108        48.594
E27  25635217.781 7 134713985.35207        43.281    25635222.262 8 100598124.66808        48.125    25635221.501 8 103222427.51208        48.719    25635221.908 8 101910275.13408        51.406
E30  24782113.082 7 130230888.68007        43.938    24782115.993 7  97250352.53307        45.406    24782115.465 7  99787316.15807        44.875    24782115.577 8  98518835.39108        48.188
E33  25321277.282 7 133064210.17607        44.313    25321279.147 7  99366134.60107        47.313    25321278.775 8 101958292.84308        48.406    25321278.919 8 100662214.76608        50.875
G05  21271535.778 7 111782670.91607        45.375    21271535.582 6        38.031    21271535.543 6  87103375.11806        38.031    21271535.503 7  87103368.10907        43.500
G13  21438866.456 7 112662004.18007        46.063    21438866.023 5        32.750    21438865.072 5  87788565.24105        32.750
G14  23992261.373 6 126080185.71206        39.156    23992260.935 3        23.313    23992262.373 3  98244303.88403        23.313    23992262.372 6  98244311.88906        37.000    23992265.588 7  94150798.08807        44.781
G15  20214912.464 8 106230081.68708        48.219    20214912.151 8        50.563    20214911.523 8  82776683.56308        50.563    20214911.348 7  82776683.57807        43.875
G18  21511588.238 7 113044158.32007        45.688    21511588.002 6        36.063    21511588.383 6  88086356.49306        36.063    21511588.294 7  88086355.43607        44.406    21511591.532 8  84416102.43408        49.875
G20  23426744.217 6 123108362.13006        40.094    23426743.158 3        21.125    23426745.900 3  95928587.97003        21.125
G23  22587348.932 7 118697323.29807        44.281    22587348.745 5        31.250    22587348.478 5  92491420.82505        31.250    22587348.433 6  92491420.77606        41.281    22587352.329 7  88637624.66807        47.250
G24  20490083.883 7 107676122.47807        47.250    20490083.570 8        48.844    20490085.656 8  83903481.29808        48.844    20490085.459 7  83903473.27607        43.969    20490085.438 8  80407502.77208        50.656
J01  38775554.067 7 203766912.29607        45.125    38775553.452 7 158779405.64807        43.781    38775554.861 8 152163607.08008        50.125
J02  37005279.860 7 194464059.10607        43.375    37005282.165 7 151530447.65307        43.375    37005283.749 7 145216689.46707        47.563
J03  37407758.810 6 196579130.75306        40.875    37407765.207 6 153178533.76006        39.188    37407767.627 6 146796110.65006        41.906
J07  37155463.625 6 195253271.38106        38.594    37155464.182 7 152145410.46807        45.375    37155464.997 8 145806028.38808        49.219
> 2021 09 22 06 31  7.0000000  0 19
E02  28212906.748 6 148259821.06006        38.844    28212909.014 6 110713516.00306        39.719    28212908.054 6 113601691.70806        39.625    28212908.396 7 112157600.38707        42.625
E07  24455899.966 7 128516620.11907        46.250    24455902.793 8  95970214.35908        50.000    24455902.496 8  98473782.33408        50.406    24455902.546 8  97221997.89108        53.156
E19  26918488.066 6 141457620.45606        36.313    26918492.096 6 105633960.63206        38.188    26918491.809 6 108389627.83206        39.813    26918491.644 7 107011793.76907        42.063
E26  25335991.795 7 133141527.20607        42.625    25335997.628 7  99423887.31007        45.906    25335997.270 8 102017551.31308        48.125    25335997.301 8 100720718.85508        50.063
E27  25634766.925 7 134711615.48607        44.344    25634771.393 7 100596354.92107        47.438    25634770.658 8 103220611.60508        48.594    25634771.008 8 101908482.30508        51.031
E30  24782101.629 7 130230828.75907        44.094    24782104.650 7  97250307.76007        45.875    24782104.004 7  99787270.24507        45.625    24782104.121 8  98518790.05108        48.719
E33  25321443.827 7 133065085.22007        45.469    25321445.842 7  99366788.00507        47.531    25321445.141 8 101958963.29208        48.031    25321445.449 8 100662876.69608        50.750
G05  21271968.086 7 111784941.43507        46.469    21271967.885 6        37.656    21271967.596 6  87105144.34806        37.656    21271967.686 7  87105137.36107        42.563
G13  21439272.694 7 112664139.36707        46.344    21439272.256 5        32.469    21439271.382 5  87790229.01205        32.469
G14  23992366.120 7 126080735.33507        42.250    23992365.718 3        23.063    23992366.918 3  98244732.16603        23.063    23992366.793 6  98244740.15506        38.000    23992370.428 7  94151208.48607        45.750
G15  20215000.899 8 106230546.06408        48.156    20215000.586 8        50.313    20214999.882 8  82777045.41508        50.313    20214999.510 7  82777045.40607        43.094
G18  21511609.250 7 113044268.33807        46.406    21511609.018 5        35.750    21511609.283 5  88086442.19205        35.750    21511609.412 7  88086441.14407        44.063    21511612.357 8  84416184.56208        49.219
G20  23427412.145 6 123111870.79406        41.813    23427411.086 3        21.406    23427413.569 3  95931322.01103        21.406
G23  22586802.106 7 118694450.49507        44.750    22586801.919 5        31.125    22586801.779 5  92489182.27405        31.125    22586801.988 6  92489182.30306        41.188    22586805.669 8  88635479.41408        48.063
G24  20489704.178 8 107674127.10208        48.063    20489703.865 8        48.750    20489705.910 8  83901926.45008        48.750    20489705.881 7  83901918.46607        43.594    20489705.735 8  80406012.72308        52.000
J01  38775536.320 7 203766818.82507        45.813    38775535.702 7 158779332.80807        43.500    38775537.118 8 152163537.27208        50.313
J02  37005245.178 7 194463877.06107        43.031    37005247.910 7 151530305.77907        43.688    37005248.930 7 145216553.48507        46.750
J03  37407873.641 6 196579734.34606        41.219    37407879.926 6 153179004.03406        36.500    37407882.362 6 146796561.28406        40.594
J07  37155490.495 6 195253413.59306        39.188    37155491.357 7 152145521.32807        43.906    37155492.150 8 145806134.62008        49.781
> 2021 09 22 06 31  8.0000000  0 19
E02  28213294.234 6 148261858.09106        39.844    28213296.556 6 110715037.23806        41.094    28213295.783 6 113603252.68806        40.594    28213296.028 7 112159141.49007        43.906
E07  24456117.927 7 128517765.34007        46.781    24456120.813 8  95971069.52208        50.125    24456120.524 8  98474659.80008        51.375    24456120.583 8  97222864.19508        53.781
E19  26918168.859 5 141455943.36605        35.344    26918172.977 6 105632708.25906        37.344    26918172.748 6 108388342.82106        39.969    26918172.659 6 107010525.07206        41.719
E26  25336529.895 7 133144355.46007        43.625    25336536.050 7  99425999.28407        46.031    25336535.487 7 102019718.38707        47.625    25336535.600 8 100722858.36808        49.906
E27  25634315.611 7 134709243.95507        43.875    25634320.121 7 100594583.94207        46.844    25634319.562 8 103218794.43708        49.281    25634319.745 8 101906688.23108        51.125
E30  24782091.424 7 130230774.13407        44.406    24782094.306 7  97250266.92107        46.031    24782093.577 7  99787228.33507        46.781    24782093.780 8  98518748.66608        49.469
E33  25321610.012 7 133065958.22607        45.250    25321612.034 7  99367439.93507        47.094    25321611.285 7 101959632.22207        47.813    25321611.581 8 100663537.11008        50.469
G05  21272400.327 7 111787212.55807        46.469    21272400.131 6        37.438    21272399.749 6  87106914.05506        37.438    21272399.595 6  87106907.03906        41.563
G13  21439680.086 7 112666280.00507        47.188    21439679.648 5        32.656    21439678.726 5  87791897.03405        32.656
G14  23992472.162 6 126081291.97606        41.313    23992471.769 3        23.781    23992472.822 3  98245165.90703        23.781    23992472.699 6  98245173.87506        37.281    23992476.377 7  94151624.18707        44.844
G15  20215089.900 8 106231013.59708        48.094    20215089.587 8        50.156    20215088.839 8  82777409.71908        50.156    20215088.663 7  82777409.71407        43.125
G18  21511629.859 7 113044377.03107        47.250    21511629.623 5        35.750    21511629.970 5  88086526.86205        35.750    21511630.224 7  88086525.85107        43.406    21511632.911 8  84416265.70708        49.438
G20  23428079.825 6 123115378.50206        41.688    23428078.770 3        21.844    23428081.049 3  95934055.30203        21.844
G23  22586255.641 7 118691579.58907        44.219    22586255.454 5        31.094    22586255.470 5  92486945.20805        31.094    22586255.609 6  92486945.17106        41.094    22586259.220 7  88633335.53007        47.469
G24  20489323.792 7 107672128.61907        47.438    20489323.479 8        48.844    20489325.588 8  83900369.19008        48.844    20489325.524 7  83900361.21107        44.281    20489325.553 8  80404520.32508        52.563
J01  38775518.674 7 203766726.37907        45.719    38775518.136 7 158779260.75607        43.438    38775519.544 8 152163468.22508        50.375
J02  37005209.784 7 194463691.18407        43.563    37005212.907 7 151530160.91707        42.531    37005213.365 7 145216414.68507        46.000
J03  37407987.299 6 196580331.48406        38.969    37407993.633 5 153179469.39905        35.500    37407995.841 6 146797007.22206        39.938
J07  37155516.564 6 195253551.20706        38.656    37155517.679 7 152145628.51007        44.219    37155518.466 8 145806237.32108        50.469
> 2021 09 22 06 31  9.0000000  0 20
E02  28213683.510 6 148263903.21606        40.813    28213685.822 6 110716564.38706        41.844    28213684.905 6 113604819.62906        41.375    28213685.196 7 112160688.55007        44.625
E07  24456336.644 7 128518914.58707        45.063    24456339.613 8  95971927.71208        50.406    24456339.358 8  98475540.39508        51.688    24456339.376 9  97223733.59609        54.094
E12                                                  26079585.841 3                        22.813
E19  26917849.902 5 141454266.04205        35.000    26917853.864 5 105631455.77905        35.594    26917853.402 6 108387057.64006        37.344    26917853.474 6 107009256.25206        39.469
E26  25337066.953 7 133147177.89207        42.750    25337073.201 7  99428106.95607        45.000    25337072.690 7 102021881.03107        47.469    25337072.833 8 100724993.53708        49.313
E27  25633863.707 7 134706869.14807        42.688    25633868.129 7 100592810.56107        46.156    25633867.712 8 103216974.75408        48.438    25633867.842 8 101904891.69908        50.344
E30  24782081.812 7 130230723.47507        42.750    24782084.737 7  97250229.07607        46.844    24782084.038 7  99787189.54907        47.500    24782084.289 8  98518710.35508        50.219
E33  25321775.944 7 133066830.72307        43.719    25321778.068 7  99368091.47407        46.875    25321777.374 7 101960300.78007        47.844    25321777.656 8 100664197.17008        50.375
G05  21272832.352 7 111789482.84807        45.313    21272832.151 6        37.094    21272831.759 6  87108683.11306        37.094    21272831.679 7  87108676.11007        42.125
G13  21440088.443 7 112668425.61907        46.125    21440088.010 5        33.031    21440087.023 5  87793568.92605        33.031
G14  23992579.202 6 126081854.75006        40.469    23992578.840 3        23.688    23992579.902 3  98245604.42603        23.688    23992579.991 6  98245612.38506        38.188    23992583.503 7  94152044.34507        46.000
G15  20215179.550 7 106231484.64807        47.594    20215179.242 8        50.063    20215178.457 8  82777776.76408        50.063    20215178.456 7  82777776.74607        43.531
G18  21511650.635 7 113044485.81707        46.688    21511650.399 5        35.719    21511650.682 5  88086611.62105        35.719    21511650.829 7  88086610.59307        43.781    21511653.661 8  84416346.91208        49.250
G20  23428746.775 6 123118883.38906        40.750    23428745.720 3        22.469    23428748.092 3  95936786.38803        22.469
G23  22585710.055 7 118688712.31907        43.531    22585709.868 5        30.844    22585709.856 5  92484710.95905        30.844    22585710.192 6  92484710.91306        41.000    22585713.471 7  88631194.33507        47.156
G24  20488942.725 7 107670127.05707        45.906    20488942.412 8        48.906    20488944.677 8  83898809.52808        48.906    20488944.780 7  83898801.51507        45.031    20488944.785 8  80403025.61708        52.438
J01  38775501.319 7 203766634.96607        45.063    38775500.852 7 158779189.51907        43.438    38775502.186 8 152163399.95008        50.656
J02  37005173.391 7 194463500.19307        42.125    37005176.702 7 151530012.10407        42.281    37005177.007 7 145216272.02807        46.219
J03  37408099.660 6 196580921.69606        39.719    37408105.725 6 153179929.22106        37.125    37408108.539 7 146797447.96907        42.344
J07  37155541.659 6 195253683.84306        37.781    37155542.677 7 152145731.85807        44.031    37155543.898 8 145806336.38108        50.375
> 2021 09 22 06 31 10.0000000  0 20
E02  28214073.686 6 148265955.16706        39.906    28214076.043 6 110718096.62106        40.625    28214075.533 7 113606391.82807        42.594    28214075.716 7 112162240.76607        44.563
E07  24456555.901 7 128520066.88807        44.281    24456559.018 8  95972788.20408        50.188    24456558.637 8  98476423.31808        51.125    24456558.687 8  97224605.30308        53.688
E12                                                  26079297.645 5                        31.781
E19  26917530.713 5 141452590.00905        34.313    26917534.956 6 105630204.10406        37.313    26917534.334 6 108385773.33606        38.844    26917534.495 6 107007988.26106        41.125
E26  25337602.976 7 133149994.79907        42.656    25337609.308 7  99430210.45207        45.875    25337608.820 7 102024039.43007        47.250    25337608.968 8 100727124.48408        49.594
E27  25633410.740 7 134704489.33407        42.813    25633415.341 7 100591033.42407        46.406    25633414.692 7 103215151.29207        46.844    25633414.943 8 101903091.40208        49.688
E30  24782072.685 7 130230675.13607        42.781    24782075.816 7  97250192.98807        47.625    24782074.974 7  99787152.54707        47.969    24782075.319 8  98518673.81108        50.750
E33  25321942.047 7 133067703.95707        43.750    25321944.319 7  99368743.55507        47.281    25321943.634 7 101960969.88807        47.719    25321943.934 8 100664857.76308        50.500
G05  21273263.908 7 111791750.91307        45.406    21273263.712 6        36.750    21273263.369 6  87110450.42806        36.750    21273263.539 7  87110443.41707        42.406
G13  21440497.633 7 112670575.24807        45.781    21440497.200 5        32.656    21440496.083 5  87795243.94505        32.656
G14  23992686.933 6 126082422.02906        37.000    23992686.558 3        23.125    23992687.860 3  98246046.44103        23.125    23992687.547 6  98246054.38206        37.781    23992691.640 7  94152468.01707        44.625
G15  20215269.836 7 106231959.16307        47.250    20215269.523 8        49.875    20215268.738 8  82778146.50308        49.875    20215268.832 7  82778146.49307        43.719
G18  21511671.468 7 113044595.80007        45.594    21511671.236 5        35.469    21511671.618 5  88086697.31205        35.469    21511671.604 7  88086696.29307        43.625    21511674.664 8  84416429.05808        48.969
G20  23429412.868 6 123122383.39406        41.719    23429411.813 3        22.719    23429414.202 3  95939513.65903        22.719
G23  22585165.340 7 118685849.76507        43.000    22585165.153 5        30.344    22585165.146 5  92482480.37705        30.344    22585165.360 6  92482480.33606        39.938    22585168.724 7  88629056.75807        47.031
G24  20488561.246 7 107668122.52807        46.031    20488560.933 8        48.750    20488563.216 8  83897247.54608        48.750    20488563.489 7  83897239.52807        45.188    20488563.454 8  80401528.69708        52.531
J01  38775484.206 7 203766544.47807        45.281    38775483.694 7 158779119.01407        43.125    38775485.100 8 152163332.37808        50.719
J02  37005135.588 7 194463302.83607        42.156    37005139.243 6 151529858.34006        41.125    37005139.629 7 145216124.67707        47.281
J03  37408210.542 6 196581504.52806        38.094    37408216.921 5 153180383.38305        34.406    37408219.632 6 146797883.15306        39.063
J07  37155565.994 6 195253811.51106        38.281    37155566.908 7 152145831.29407        43.344    37155568.358 8 145806431.68708        49.875
> 2021 09 22 06 31 11.0000000  0 20
E02  28214465.315 6 148268011.25906        37.313    28214467.382 6 110719631.98206        38.031    28214467.086 6 113607967.31706        40.844    28214467.095 7 112163796.19807        42.438
E07  24456775.377 7 128521220.21307        44.344    24456778.561 8  95973649.46808        50.438    24456778.060 8  98477307.04908        50.844    24456778.190 8  97225477.80208        53.688
E12  26079011.058 6 137046129.96016        37.500    26079011.595 6 102339643.04516        38.906
E19  26917212.499 5 141450917.36705        35.250    26917216.604 6 105628955.08206        36.063    26917216.080 6 108384491.74906        38.188    26917216.246 6 107006722.96006        40.156
E26  25338138.542 7 133152808.24407        43.438    25338144.905 7  99432311.37107        46.344    25338144.234 7 102026195.14907        47.094    25338144.453 8 100729252.80208        49.750
E27  25632956.696 7 134702103.88207        42.188    25632961.467 7 100589252.06007        46.219    25632960.791 7 103213323.47107        47.531    25632961.073 8 101901286.80908        49.906
E30  24782063.595 7 130230626.48507        43.563    24782066.823 8  97250156.66508        48.781    24782065.924 8  99787115.26108        48.875    24782066.313 8  98518637.00508        51.875
E33  25322108.838 7 133068579.93707        44.500    25322111.092 7  99369397.67507        47.656    25322110.443 8 101961641.07208        48.469    25322110.712 8 100665520.41708        51.063
G05  21273694.749 7 111794015.58007        45.188    21273694.553 6        36.469    21273694.322 6  87112215.09206        36.469    21273694.487 7  87112208.06507        42.219
G13  21440907.112 7 112672726.69807        45.688    21440906.679 5        32.281    21440905.487 5  87796920.38205        32.281
G14  23992795.450 6 126082990.62506        38.844    23992795.079 3        22.813    23992796.038 3  98246489.45303        22.813    23992795.868 6  98246497.43906        37.969    23992799.885 7  94152892.61407        45.313
G15  20215360.668 7 106232436.40307        47.156    20215360.355 8        49.750    20215359.548 8  82778518.37008        49.750    20215359.687 7  82778518.36407        43.719
G18  21511692.789 7 113044708.76407        45.375    21511692.557 5        35.031    21511693.140 5  88086785.32905        35.031    21511693.158 7  88086784.33207        42.938    21511696.191 8  84416513.42908        49.438
G20  23430077.744 6 123125877.35606        41.063    23430076.689 3        22.531    23430079.133 3  95942236.21903        22.531
G23  22584621.900 7 118682992.78007        43.406    22584621.713 4        29.813    22584621.486 4  92480254.13304        29.813    22584621.861 6  92480254.15806        38.875    22584625.127 7  88626923.31407        47.563
G24  20488179.602 7 107666116.25607        46.281    20488179.289 8        48.688    20488181.442 8  83895684.20308        48.688    20488181.858 7  83895676.18007        44.719    20488181.774 8  80400030.48708        52.938
J01  38775467.161 7 203766454.56307        45.594    38775466.519 7 158779048.94307        42.750    38775468.054 8 152163265.22008        50.719
J02  37005096.801 7 194463099.37707        42.688    37005100.367 6 151529699.81006        40.906    37005101.119 8 145215972.74308        48.094
J03                                                  37408327.321 4 153180833.15704        28.875    37408329.902 5 146798314.17005        32.906
J07  37155589.698 6 195253935.45906        38.406    37155590.617 7 152145927.86607        43.313    37155591.982 8 145806524.24808        49.750
> 2021 09 22 06 31 12.0000000  0 20
E02  28214856.417 5 148270067.71005        35.531    28214858.818 6 110721167.70406        37.688    28214858.634 6 113609543.03306        39.844    28214858.568 6 112165351.90706        41.781
E07  24456994.804 7 128522372.63307        44.281    24456997.930 8  95974510.02608        50.469    24456997.236 8  98478190.06608        50.656    24456997.460 8  97226349.58908        53.594
E12  26078725.671 5 137044630.79805        34.625    26078726.212 6 102338523.50106        36.969    26078726.130 6 105008223.25916        36.969
E19  26916895.067 5 141449248.00305        34.688    26916898.805 6 105627708.43006        37.063    26916898.644 6 108383212.58606        39.000    26916898.595 6 107005460.04906        41.031
E26  25338674.068 7 133155621.63107        43.813    25338680.449 7  99434412.27507        46.313    25338679.491 7 102028350.87307        46.719    25338679.890 8 100731381.11608        49.531
E27  25632502.039 7 134699715.44207        42.656    25632506.985 7 100587468.48307        46.250    25632506.291 7 103211493.36307        47.500    25632506.613 8 101899479.96708        49.938
E30  24782054.083 7 130230576.11407        43.406    24782057.397 8  97250119.07008        48.531    24782056.551 8  99787076.66708        49.094    24782056.887 8  98518598.91108        51.844
E33  25322276.091 7 133069458.75707        44.188    25322278.327 7  99370053.91407        47.625    25322277.838 8 101962314.44108        48.906    25322278.044 8 100666185.22008        51.281
G05  21274125.264 7 111796278.09307        45.094    21274125.063 6        36.156    21274124.859 6  87113978.08106        36.156    21274125.409 6  87113971.06006        41.500
G13  21441316.472 7 112674877.50407        45.469    21441316.039 5        31.719    21441314.752 5  87798596.32905        31.719
G14  23992903.511 6 126083558.26306        38.438    23992903.176 3        22.875    23992904.028 3  98246931.74903        22.875    23992903.934 6  98246939.74306        37.500    23992907.861 7  94153316.45007        45.531
G15  20215451.653 7 106232914.45407        47.094    20215451.340 8        49.438    20215450.519 8  82778890.87108        49.438    20215450.827 7  82778890.87307        42.844
G18  21511714.722 7 113044824.63307        45.656    21511714.490 5        34.500    21511715.198 5  88086875.61105        34.500    21511715.122 6  88086874.60806        41.563    21511718.339 8  84416599.93708        50.063
G20  23430742.040 7 123129367.91607        42.594    23430740.990 3        22.563    23430743.441 3  95944956.12103        22.563
G23  22584078.906 7 118680138.99107        43.250    22584078.719 4        29.156    22584078.425 4  92478030.39604        29.156    22584078.859 6  92478030.41406        38.219    22584082.182 8  88624792.21808        48.156
G24  20487797.931 7 107664110.26907        46.438    20487797.618 8        48.531    20487799.718 8  83894121.08408        48.531    20487800.205 7  83894113.08107        43.938    20487800.139 8  80398532.50708        53.125
J01  38775450.048 7 203766364.51607        45.719    38775449.397 7 158778978.77107        42.063    38775450.959 8 152163197.98108        50.625
J02  37005057.580 7 194462893.34207        42.469    37005061.124 6 151529539.28906        40.813    37005062.100 7 145215818.87707        47.906
J03  37408429.795 3                        22.406    37408439.478 4 153181282.28504        26.094    37408439.649 5 146798744.61605        31.344
J07  37155613.044 6 195254058.64006        38.375    37155614.093 7 152146023.85307        42.781    37155615.467 8 145806616.21908        49.938
> 2021 09 22 06 31 13.0000000  0 20
E02  28215247.049 6 148272120.86506        36.813    28215249.444 6 110722700.83906        36.719    28215249.285 6 113611116.24906        39.688    28215249.361 6 112166905.09406        41.281
E07  24457213.614 7 128523522.37207        44.469    24457216.727 8  95975368.61508        50.500    24457215.943 8  98479071.04708        50.688    24457216.194 8  97227219.37408        53.594
E12  26078440.661 5 137043133.15305        34.000    26078441.335 5 102337405.10605        35.969    26078441.160 6 105007075.65306        36.281    26078441.180 6 103672240.93116        39.063
E19  26916578.295 5 141447582.24605        35.875    26916581.889 6 105626464.49306        37.438    26916581.718 6 108381936.18906        39.250    26916581.587 6 107004199.88706        41.406
E26  25339210.180 7 133158438.62107        43.625    25339216.575 7  99436515.86207        46.563    25339215.565 7 102030509.32707        46.750    25339215.956 8 100733512.13108        49.688
E27  25632047.373 7 134697326.36207        42.719    25632052.338 7 100585684.43407        46.438    25632051.690 7 103209662.78107        47.438    25632051.998 8 101897672.64708        50.000
E30  24782043.881 7 130230522.56707        43.594    24782047.222 8  97250079.05808        48.344    24782046.441 8  99787035.61308        49.469    24782046.777 8  98518558.37508        51.906
E33  25322443.986 7 133070341.25807        44.031    25322446.262 7  99370712.95107        47.281    25322445.915 8 101962990.66308        49.031    25322446.033 8 100666852.85208        51.188
G05  21274555.639 7 111798539.52807        45.125    21274555.438 5        35.438    21274555.208 5  87115740.22905        35.438    21274555.963 6  87115733.23106        39.656
G13  21441725.077 7 112677025.45907        45.250    21441724.639 5        30.906    21441723.497 5  87800270.05605        30.906
G14  23993010.821 6 126084122.14406        37.844    23993010.513 3        22.375    23993011.283 3  98247371.12903        22.375    23993011.179 6  98247379.13206        36.375    23993015.019 7  94153737.56707        44.375
G15  20215542.508 7 106233391.96307        47.094    20215542.195 8        48.781    20215541.387 8  82779262.95308        48.781    20215541.649 6  82779262.96606        40.813
G18  21511737.492 7 113044944.03807        45.469    21511737.260 5        33.813    21511737.923 5  88086968.65405        33.813    21511737.654 6  88086967.65806        40.000    21511741.141 8  84416689.09208        49.875
G20  23431405.976 6 123132857.20606        41.719    23431404.930 3        22.406    23431407.518 3  95947675.02003        22.406
G23  22583536.097 7 118677286.75807        43.188    22583535.910 4        28.438    22583535.638 4  92475807.87104        28.438    22583536.003 6  92475807.88306        36.531    22583539.526 7  88622662.27807        47.938
G24  20487416.824 7 107662106.95407        46.500    20487416.511 8        48.063    20487418.503 8  83892560.05208        48.063    20487419.115 6  83892552.04606        41.906    20487418.964 8  80397036.53108        53.125
J01  38775432.903 7 203766274.14007        45.844    38775432.142 6 158778908.34306        40.281    38775433.757 8 152163130.49608        50.656
J02  37005018.462 7 194462687.98207        42.844    37005022.001 6 151529379.23106        38.813    37005023.076 8 145215665.54208        48.000
J03  37408542.876 4                        25.469                                                    37408550.086 4 146799176.95604        29.344
J07  37155637.004 6 195254184.12806        38.188    37155637.988 6 152146121.60406        40.969    37155639.360 8 145806709.90108        49.781
> 2021 09 22 06 31 14.0000000  0 20
E02  28215636.549 6 148274169.39606        36.719    28215639.209 6 110724230.58106        37.750    28215639.174 6 113612685.89506        40.813    28215639.245 7 112168454.78807        42.375
E07  24457431.891 7 128524668.74707        44.469    24457434.877 8  95976224.68608        50.500    24457434.018 8  98479949.42308        50.625    24457434.302 8  97228086.59708        53.594
E12  26078156.007 5 137041636.55505        34.813    26078156.636 6 102336287.53406        37.375    26078156.393 6 105005928.91606        36.813    26078156.376 6 103671108.77406        40.156
E19  26916262.071 5 141445920.45905        35.375    26916265.734 6 105625223.62806        36.938    26916265.455 6 108380662.93906        38.688    26916265.319 6 107002942.82606        40.844
E26  25339747.180 7 133161260.10907        43.688    25339753.475 7  99438622.77407        46.281    25339752.432 7 102032671.22407        47.031    25339752.904 8 100735646.54508        49.688
E27  25631592.584 7 134694936.80207        43.031    25631597.582 7 100583900.05807        46.219    25631596.952 7 103207831.85907        47.063    25631597.247 8 101895864.99908        49.656
E30  24782032.828 7 130230464.95407        43.281    24782036.308 8  97250036.03908        48.875    24782035.494 8  99786991.50508        49.031    24782035.798 8  98518514.81608        52.000
E33  25322612.688 7 133071227.93807        43.875    25322614.890 7  99371375.05207        46.969    25322614.705 8 101963670.04808        49.219    25322614.762 8 100667523.59208        51.156
G05  21274985.704 7 111800799.83907        44.813    21274985.503 5        34.750    21274985.353 5  87117501.50505        34.750    21274986.102 6  87117494.50606        39.063
G13  21442133.096 7 112679169.72707        45.469    21442132.658 5        30.188    21442131.542 5  87801940.91305        30.188
G14  23993117.354 6 126084681.41606        39.844    23993117.091 3        22.000    23993117.672 3  98247806.92603        22.000    23993117.724 5  98247814.89205        34.844    23993121.500 7  94154155.18807        44.875
G15  20215633.160 7 106233868.52607        47.031    20215632.847 8        48.250    20215632.080 8  82779634.30008        48.250    20215632.423 6  82779634.31306        40.500
G18  21511760.946 7 113045067.30307        45.469    21511760.710 5        33.125    21511761.394 5  88087064.70005        33.125    21511761.156 6  88087063.69206        39.469    21511764.651 8  84416781.15308        49.781
G20  23432069.797 6 123136345.31406        41.813    23432068.751 3        22.031    23432071.365 3  95950393.00903        22.031
G23  22582993.789 7 118674435.91607        43.406    22582993.602 4        27.750    22582993.157 4  92473586.44104        27.750    22582993.755 6  92473586.41306        36.500    22582997.041 7  88620533.42607        47.438
G24  20487036.124 7 107660106.89307        46.156    20487035.816 7        47.563    20487037.905 7  83891001.55707        47.563    20487038.595 6  83890993.56306        41.688    20487038.419 8  80395542.96708        53.250
J01  38775415.706 7 203766183.27207        45.875    38775414.841 6 158778837.52806        40.406    38775416.397 8 152163062.62808        50.625
J02  37004979.734 7 194462483.82207        43.125    37004982.848 6 151529220.13006        38.781    37004984.254 7 145215513.04607        47.844
J03                                                  37408661.514 4                        24.531
J07  37155661.431 6 195254312.54006        38.281    37155662.541 6 152146221.72306        41.500    37155663.751 8 145806805.82508        49.656
> 2021 09 22 06 31 15.0000000  0 20
E02  28216025.992 5 148276214.67205        35.188    28216028.402 6 110725757.90406        38.969    28216028.491 6 113614253.02006        41.625    28216028.579 7 112170002.01007        43.375
E07  24457649.576 7 128525812.09607        45.594    24457652.440 8  95977078.45608        50.656    24457651.618 8  98480825.50708        51.000    24457651.859 8  97228951.52608        53.875
E12  26077871.970 5 137040144.07105        35.406    26077872.685 6 102335172.99606        36.750    26077872.483 6 105004785.39006        37.063    26077872.427 6 103669979.74106        39.938
E19  26915947.183 6 141444265.06906        36.219    26915950.669 6 105623987.44406        36.313    26915950.342 6 108379394.46406        37.469    26915950.123 6 107001690.49506        39.875
E26  25340284.764 7 133164085.72207        42.938    25340291.192 7  99440732.84607        45.000    25340290.032 7 102034836.29507        45.188    25340290.545 8 100737784.11708        48.125
E27  25631137.535 7 134692545.02207        43.875    25631142.418 7 100582113.93707        46.688    25631141.771 7 103205999.14207        47.625    25631142.065 8 101894055.58508        50.188
E30  24782021.057 7 130230402.92007        42.969    24782024.362 7  97249989.69207        47.969    24782023.604 8  99786943.92908        48.344    24782023.889 8  98518467.85808        51.125
E33  25322782.478 7 133072120.50207        43.531    25322784.638 7  99372041.57107        46.688    25322784.657 8 101964353.93708        48.906    25322784.589 8 100668198.79708        50.844
G05  21275415.493 7 111803057.78307        46.188    21275415.288 5        34.188    21275415.043 5  87119260.93105        34.188    21275415.636 6  87119253.90206        38.531
G13  21442540.623 7 112681310.87807        46.313    21442540.185 4        29.625    21442538.974 4  87803609.34704        29.625
G14  23993223.186 6 126085235.96506        40.375    23993222.945 3        21.438    23993223.158 3  98248239.04103        21.438    23993222.968 5  98248246.99605        34.656    23993226.732 7  94154569.29907        44.125
G15  20215723.898 7 106234345.27207        46.406    20215723.585 7        47.719    20215722.804 7  82780005.78607        47.719    20215722.992 6  82780005.75706        40.969
G18  21511785.565 7 113045196.20507        44.844    21511785.329 5        32.438    21511785.888 5  88087165.14105        32.438    21511785.389 6  88087164.13706        40.188    21511789.209 8  84416877.38208        49.938
G20  23432732.913 6 123139830.06606        40.281    23432731.867 3        21.094    23432734.460 3  95953108.38603        21.094
G23  22582452.084 7 118671589.01907        44.000    22582451.901 4        27.250    22582451.468 4  92471368.07904        27.250    22582451.882 6  92471368.08706        37.375    22582455.226 7  88618407.49907        47.000
G24  20486656.139 7 107658109.96407        46.250    20486655.826 7        47.063    20486657.903 7  83889445.50407        47.063    20486658.491 7  83889437.49107        42.344    20486658.409 8  80394051.75108        53.219
J01  38775398.306 7 203766092.51107        45.938    38775397.646 6 158778766.81406        40.906    38775399.121 8 152162994.84208        50.594
J02  37004940.812 7 194462279.12307        43.750    37004943.574 6 151529060.66406        38.781    37004945.337 7 145215360.21407        46.906
J03                                                  37408780.490 3                        20.250
J07  37155686.387 6 195254443.44206        38.438    37155687.259 7 152146323.69507        42.063    37155688.608 8 145806903.54108        49.563
> 2021 09 22 06 31 16.0000000  0 20
E02  28216414.636 6 148278257.32506        37.219    28216417.277 6 110727283.27706        40.188    28216417.233 6 113615818.18506        41.781    28216417.219 7 112171547.27207        44.000
E07  24457866.538 7 128526952.32207        45.125    24457869.413 8  95977929.91208        50.531    24457868.709 8  98481699.16908        51.375    24457868.903 9  97229814.08409        54.000
E12  26077588.948 6 137038656.50006        36.938    26077589.635 6 102334062.12006        37.156    26077589.420 6 105003645.47306        38.375    26077589.310 6 103668854.32206        40.750
E19  26915633.085 5 141442615.80305        35.500    26915636.680 6 105622755.82606        37.063    26915636.413 6 108378130.76606        37.875    26915636.224 6 107000442.82806        40.438
E26  25340822.862 7 133166913.82107        44.031    25340829.319 7  99442844.71707        46.188    25340828.128 7 102037003.27007        47.281    25340828.649 8 100739923.53208        49.781
E27  25630681.682 7 134690149.25607        44.125    25630686.548 7 100580324.90707        45.625    25630685.926 7 103204163.42607        47.969    25630686.206 8 101892243.21808        49.844
E30  24782008.093 7 130230336.10407        42.281    24782011.588 7  97249939.82007        46.281    24782010.694 7  99786892.72107        46.563    24782011.042 8  98518417.31508        49.375
E33  25322953.448 7 133073018.60707        43.625    25322955.560 7  99372712.24307        47.156    25322955.580 8 101965042.07008        48.156    25322955.434 8 100668878.18808        50.625
G05  21275844.522 7 111805312.25507        45.375    21275844.321 5        34.000    21275844.058 5  87121017.66405        34.000    21275844.586 6  87121010.61106        40.219
G13  21442947.599 7 112683449.07107        46.344    21442947.161 4        29.719    21442945.852 4  87805275.46604        29.719
G14  23993327.920 6 126085786.00206        41.344    23993327.675 3        21.719    23993327.843 3  98248667.64403        21.719    23993327.614 5  98248675.58205        34.656    23993331.413 7  94154980.03507        43.156
G15  20215814.752 7 106234822.24807        46.063    20215814.439 7        47.313    20215813.566 7  82780377.44607        47.313    20215813.824 6  82780377.44906        41.469
G18  21511811.193 7 113045330.40107        45.406    21511810.952 5        32.031    21511811.425 5  88087269.70205        32.031    21511810.980 6  88087268.65106        40.406    21511814.711 8  84416977.57508        49.281
G20  23433395.098 6 123143309.94306        41.344    23433394.048 3        20.844    23433396.633 3  95955819.98403        20.844
G23  22581911.151 7 118668746.66107        43.219    22581910.968 4        26.906    22581910.601 4  92469153.24404        26.906    22581910.915 6  92469153.21706        36.625    22581914.226 7  88616284.91407        46.719
G24  20486276.524 7 107656115.00107        47.125    20486276.211 7        47.094    20486278.280 7  83887890.98707        47.094    20486278.762 7  83887882.97107        43.250    20486278.748 8  80392561.99108        53.219
J01  38775380.994 7 203766001.49607        45.531    38775380.220 6 158778695.87606        41.625    38775381.774 8 152162926.86108        50.656
J02  37004901.477 7 194462072.11007        43.406    37004904.016 6 151528899.24706        38.500    37004905.793 7 145215205.61707        46.281
J03                                                  37408895.393 3                        20.125    37408882.976 3                        23.813
J07  37155711.568 6 195254575.27006        39.625    37155712.417 6 152146426.40606        41.625    37155713.773 8 145807001.95808        50.313
> 2021 09 22 06 31 17.0000000  0 20
E02  28216802.772 6 148280296.71806        37.219    28216805.254 6 110728806.24006        38.500    28216805.157 6 113617380.82606        40.313    28216805.130 7 112173090.06807        42.406
E07  24458082.774 7 128528089.05307        44.906    24458085.638 8  95978778.75008        49.156    24458085.179 8  98482570.13508        50.875    24458085.212 8  97230673.98908        53.031
E12  26077306.981 6 137037174.08806        36.563    26077307.442 6 102332955.05006        36.781    26077307.318 6 105002509.55406        38.500    26077307.256 6 103667732.86406        40.656
E19  26915320.618 6 141440973.53906        36.375    26915324.308 6 105621529.44606        38.188    26915323.873 6 108376872.35406        40.344    26915323.853 7 106999200.44307        42.250
E26  25341361.673 6 133169745.39306        41.031    25341367.967 7  99444959.14107        42.094    25341367.165 7 102039172.87407        44.063    25341367.416 7 100742065.54707        46.094
E27  25630225.158 7 134687749.58907        44.125    25630229.918 7 100578532.86607        46.156    25630229.304 7 103202324.62707        47.094    25630229.553 8 101890427.78608        49.625
E30  24781994.300 7 130230263.95007        42.375    24781997.654 7  97249885.89907        45.625    24781996.846 7  99786837.44307        45.969    24781997.160 8  98518362.71108        48.750
E33  25323125.893 7 133073923.01907        44.750    25323127.642 7  99373387.60607        46.813    25323127.583 8 101965735.03608        48.344    25323127.393 8 100669562.36208        50.594
G05  21276272.777 7 111807563.10007        45.219    21276272.572 5        34.031    21276272.404 5  87122771.54505        34.031    21276272.814 6  87122764.49506        41.000
G13  21443353.762 7 112685583.76907        45.531    21443353.329 4        29.844    21443352.028 4  87806938.85204        29.844
G14  23993431.296 6 126086330.65406        41.750    23993431.046 3        22.000    23993431.420 3  98249092.03203        22.000    23993431.360 6  98249100.06506        36.594    23993434.375 6  94155386.77206        39.438
G15  20215905.585 7 106235299.43407        46.094    20215905.272 7        47.219    20215904.365 7  82780749.27407        47.219    20215904.552 7  82780749.28407        42.469
G18  21511837.914 7 113045470.54707        45.469    21511837.678 5        31.844    21511838.066 5  88087378.89105        31.844    21511837.871 6  88087377.90406        41.156    21511841.337 8  84417082.23508        49.688
G20  23434056.111 6 123146784.67906        40.938    23434055.061 3        20.500    23434057.880 3  95958527.54003        20.500
G23  22581371.348 7 118665909.16207        44.031    22581371.165 4        26.875    22581370.611 4  92466942.19604        26.875    22581370.913 6  92466942.18106        38.531    22581374.281 7  88614165.96307        47.438
G24  20485897.394 7 107654122.55907        46.594    20485897.086 7        47.375    20485899.149 7  83886338.43007        47.375    20485899.560 7  83886330.41107        44.063    20485899.555 8  80391074.10308        52.875
J01  38775363.779 7 203765910.31707        45.250    38775362.955 7 158778624.81007        42.188    38775364.477 8 152162858.76708        50.813
J02  37004861.794 7 194461862.90907        43.969    37004864.302 6 151528736.24806        41.313    37004866.030 8 145215049.33108        48.375
J03                                                                                                  37408995.035 3                        18.813
J07  37155736.758 6 195254708.60706        39.156    37155737.860 7 152146530.29007        42.531    37155739.191 8 145807101.51708        50.250
> 2021 09 22 06 31 18.0000000  0 19
E02  28217189.621 6 148282329.70706        38.156    28217192.286 6 110730324.30306        37.688    28217192.025 6 113618938.53606        40.781    28217191.890 7 112174627.96407        42.313
E07  24458298.200 7 128529220.77407        45.688    24458300.936 8  95979623.83308        49.688    24458300.611 8  98483437.28408        50.844    24458300.591 8  97231530.10008        53.250
E12  26077025.324 5 137035694.25105        35.656    26077025.829 6 102331850.06706        38.313    26077025.720 6 105001375.64806        39.719    26077025.781 7 103666613.40207        42.063
E19  26915009.487 5 141439338.04405        35.094    26915013.150 6 105620308.11806        37.563    26915012.884 6 108375619.17006        40.469    26915012.710 7 106997963.18507        42.125
E26  25341901.761 6 133172583.09106        36.844    25341907.882 6  99447078.22206        38.313    25341907.160 6 102041347.20606        39.188    25341907.313 6 100744212.27106        41.813
E27  25629768.094 7 134685348.08707        44.031    25629773.032 7 100576739.52807        45.594    25629772.236 7 103200484.54007        47.063    25629772.554 8 101888611.08308        49.344
E30  24781979.333 7 130230185.28907        43.969    24781982.607 7  97249827.11807        45.781    24781981.987 7  99786777.11407        47.656    24781982.223 8  98518303.16008        49.750
E33  25323299.413 7 133074833.95307        44.250    25323300.774 7  99374067.77507        46.281    25323300.820 8 101966432.97808        48.313    25323300.506 8 100670251.42308        50.313
G05  21276700.721 7 111809811.37207        46.625    21276700.516 5        34.125    21276700.249 5  87124523.40305        34.125    21276700.661 6  87124516.33106        39.469
G13  21443758.962 7 112687713.11707        46.000    21443758.524 4        29.813    21443757.205 4  87808598.07004        29.813
G14  23993533.373 6 126086868.11306        41.625    23993533.137 3        21.969    23993533.618 3  98249510.83203        21.969    23993533.428 5  98249518.75205        33.844    23993536.720 7  94155788.10807        42.250
G15  20215996.197 7 106235775.45107        46.000    20215995.889 7        46.938    20215994.943 7  82781120.18307        46.938    20215995.200 6  82781120.14206        41.375
G18  21511865.890 7 113045616.73007        45.500    21511865.654 5        31.813    21511865.878 5  88087492.78405        31.813    21511865.769 6  88087491.78406        39.906    21511869.128 8  84417191.38108        50.063
G20  23434716.635 6 123150256.36606        39.906    23434715.585 3        20.031    23434718.529 3  95961232.74303        20.031
G23  22580832.009 7 118663074.61307        42.938    22580831.831 4        26.875    22580831.181 4  92464733.44904        26.875    22580831.423 6  92464733.45106        38.688    22580834.764 7  88612049.22107        47.875
G24  20485518.994 7 107652134.39607        46.750    20485518.681 7        47.281    20485520.829 7  83884789.20007        47.281    20485521.400 6  83884781.15106        41.938    20485521.076 8  80389589.42208        51.938
J01  38775346.331 7 203765818.57307        45.156    38775345.490 6 158778553.28906        40.031    38775347.084 8 152162790.24408        50.688
J02  37004821.834 7 194461654.47507        43.031    37004824.844 6 151528573.75706        38.156    37004826.360 7 145214893.63607        46.063
J07  37155762.979 6 195254845.95306        38.625    37155763.952 6 152146637.25906        39.750    37155765.247 8 145807204.05208        49.563
> 2021 09 22 06 31 19.0000000  0 19
E02  28217574.771 6 148284354.12506        38.344    28217577.386 6 110731836.02306        38.156    28217577.133 6 113620489.69906        41.250    28217577.260 7 112176159.40307        42.719
E07  24458512.465 7 128530347.02107        45.000    24458515.157 8  95980464.79208        48.688    24458514.944 8  98484300.17108        50.313    24458514.950 8  97232382.02308        52.531
E12  26076743.093 6 137034212.45206        36.219    26076743.571 6 102330743.49506        38.406    26076743.910 6 105000240.27006        40.688    26076743.708 7 103665492.43607        42.594
E19  26914698.538 5 141437706.10705        32.344    26914702.667 6 105619089.37706        39.406    26914702.193 6 108374368.69206        41.094    26914702.237 7 106996728.57607        43.281
E26  25342443.350 5 133175428.26805        35.594    25342449.191 6  99449202.82106        36.781    25342448.590 6 102043527.24006        38.094    25342448.716 6 100746364.56606        40.438
E27  25629311.430 7 134682948.35807        43.219    25629316.345 7 100574947.54407        44.719    25629315.667 7 103198645.75207        47.094    25629315.879 8 101886795.68608        48.906
E30  24781963.130 7 130230100.98907        43.875    24781966.469 7  97249764.10107        46.156    24781965.998 7  99786712.46007        46.656    24781966.175 8  98518239.32308        49.406
E33  25323473.442 7 133075748.82407        42.625    25323475.011 8  99374750.98908        49.000    25323474.897 8 101967134.04108        49.313    25323474.684 8 100670943.55308        52.188
G05  21277128.549 7 111812059.32507        47.500    21277128.344 5        33.719    21277128.011 5  87126275.02205        33.719    21277128.552 6  87126267.98206        36.688
G13  21444162.896 7 112689836.17407        45.719    21444162.458 4        29.031    21444161.259 4  87810252.39504        29.031
G14  23993634.017 7 126087398.11207        42.188    23993633.749 3        21.094    23993634.484 3  98249923.81303        21.094    23993634.879 5  98249931.63605        31.125    23993637.691 7  94156183.81207        43.625
G15  20216086.267 7 106236248.44607        46.625    20216085.959 7        46.125    20216084.946 7  82781488.73307        46.125    20216085.430 6  82781488.70406        37.344
G18  21511894.425 7 113045766.50407        45.719    21511894.189 5        30.969    21511894.360 5  88087609.47205        30.969    21511893.951 6  88087608.47806        36.563    21511897.679 8  84417303.22408        51.219
G20  23435377.641 6 123153729.06406        40.125    23435376.591 3        19.188    23435379.374 3  95963938.72103        19.188
G23  22580292.213 7 118660238.85107        42.813    22580292.030 4        26.469    22580291.528 4  92462523.76104        26.469    22580291.718 6  92462523.78106        36.844    22580295.244 7  88609931.65607        47.719
G24  20485141.579 7 107650151.13907        46.594    20485141.266 7        46.375    20485143.438 7  83883243.78307        46.375    20485144.005 6  83883235.73306        37.781    20485143.614 8  80388108.42008        51.531
J01  38775328.618 7 203765725.45307        45.313    38775327.665 6 158778480.70906        37.250    38775329.345 8 152162720.65408        50.219
J02  37004782.987 7 194461450.26007        42.281    37004786.501 5 151528414.60905        34.938    37004787.359 7 145214741.15207        46.250
J07  37155789.982 6 195254988.69806        38.344    37155791.289 6 152146748.48706        36.313    37155792.376 8 145807310.63208        49.438
> 2021 09 22 06 31 20.0000000  0 19
E02  28217958.300 6 148286370.84706        36.969    28217961.270 6 110733341.95006        41.906    28217960.844 7 113622034.95107        43.844    28217961.114 7 112177684.99007        45.938
E07  24458725.922 7 128531469.00007        45.531    24458728.744 8  95981302.62008        49.094    24458728.484 8  98485159.85508        50.938    24458728.500 8  97233230.77308        53.031
E12  26076460.058 5 137032725.37505        35.875    26076460.387 6 102329632.98206        37.969    26076460.583 6 104999100.82606        40.031    26076460.598 7 103664367.45107        42.031
E19  26914387.671 5 141436073.74705        31.281    26914392.013 6 105617870.50106        37.313    26914391.541 6 108373118.00006        40.156    26914391.656 6 106995493.80206        41.813
E26  25342986.079 6 133178279.80706        38.844    25342991.815 6  99451332.19906        39.656    25342991.275 6 102045712.17006        40.625    25342991.343 7 100748521.71807        43.094
E27  25628855.671 7 134680553.04607        42.875    25628860.320 7 100573158.81707        44.625    25628859.941 7 103196810.35907        46.594    25628859.872 8 101884983.62208        48.625
E30  24781946.573 7 130230013.56807        43.656    24781949.881 7  97249698.79407        44.813    24781949.252 7  99786645.47307        45.938    24781949.531 8  98518173.16908        48.406
E33  25323647.770 7 133076664.71707        43.938    25323649.442 8  99375434.97608        48.219    25323648.966 7 101967835.84407        47.844    25323649.009 8 100671636.45108        51.031
G05  21277556.687 7 111814309.28007        46.875    21277556.486 5        33.344    21277556.171 5  87128028.21505        33.344    21277556.535 6  87128021.17606        38.938
G13  21444565.885 7 112691954.10907        45.688    21444565.447 4        28.625    21444564.340 4  87811902.70904        28.625
G14  23993733.889 6 126087922.89906        41.563    23993733.576 3        20.594    23993734.332 3  98250332.72803        20.594    23993735.074 5  98250340.76005        33.750    23993738.118 7  94156575.70107        44.094
G15  20216175.626 7 106236717.93907        46.281    20216175.313 7        45.563    20216174.282 7  82781854.55307        45.563    20216174.539 6  82781854.53006        40.063
G18  21511923.309 7 113045917.09607        46.219    21511923.073 5        30.500    21511922.981 5  88087726.81405        30.500    21511922.663 6  88087725.78706        39.281    21511926.320 8  84417415.65908        49.375
G20  23436039.332 6 123157205.85106        40.281    23436038.291 3        18.031    23436040.956 3  95966647.86603        18.031
G23  22579751.810 7 118657399.03807        42.781    22579751.623 4        26.406    22579751.126 4  92460310.90304        26.406    22579751.494 6  92460310.87906        37.969    22579754.864 7  88607810.99607        46.844
G24  20484765.046 7 107648172.18807        47.156    20484764.733 7        45.781    20484766.851 7  83881701.72207        45.781    20484767.358 6  83881693.72406        41.125    20484767.016 8  80386630.58708        52.844
J01  38775310.586 7 203765630.76807        45.281    38775309.417 6 158778406.95206        40.406    38775311.254 8 152162649.95508        49.969
J02  37004745.360 7 194461251.97907        42.969    37004748.958 6 151528260.13606        36.469    37004749.600 7 145214593.06607        46.313
J07  37155818.169 6 195255136.71206        39.531    37155819.270 6 152146863.81306        40.000    37155820.591 8 145807421.12108        50.406
> 2021 09 22 06 31 21.0000000  0 19
E02  28218341.149 6 148288380.82006        37.813    28218344.085 7 110734842.93307        42.156    28218343.184 7 113623575.13007        42.969    28218343.711 7 112179205.57407        45.563
E07  24458938.801 7 128532587.60007        46.688    24458941.700 8  95982137.92308        49.313    24458941.434 8  98486016.96508        50.438    24458941.435 8  97234076.98608        52.875
E12  26076176.139 6 137031233.25606        36.156    26076176.584 6 102328518.69706        38.938    26076176.716 6 104997957.44706        41.594    26076176.728 7 103663238.62607        43.313
E19  26914076.507 5 141434440.81905        32.000    26914080.757 5 105616651.07505        35.094    26914080.829 6 108371866.76006        39.719    26914080.784 6 106994258.47006        40.625
E26  25343529.831 6 133181137.33206        40.219    25343535.594 7  99453466.05807        42.375    25343535.098 7 102047901.67907        44.000    25343535.177 7 100750683.41407        46.219
E27  25628400.707 7 134678162.24007        42.719    25628405.355 7 100571373.46507        45.094    25628404.912 7 103194978.46007        46.031    25628404.830 8 101883174.99808        48.531
E30  24781929.448 7 130229923.90007        43.375    24781932.876 7  97249631.88307        45.313    24781932.155 7  99786576.79307        46.469    24781932.477 8  98518105.38108        48.938
E33  25323822.155 7 133077581.26607        43.656    25323823.824 7  99376119.38707        47.438    25323823.113 7 101968538.11607        47.938    25323823.350 8 100672329.79908        50.688
G05  21277985.289 7 111816561.57507        46.375    21277985.088 5        33.188    21277984.785 5  87129783.22905        33.188    21277984.953 6  87129776.22306        37.906
G13  21444968.168 7 112694067.87207        46.750    21444967.730 4        28.844    21444966.591 4  87813549.76104        28.844
G14  23993832.949 6 126088443.70406        40.938    23993832.614 3        20.281    23993833.460 3  98250738.54303        20.281    23993833.674 5  98250746.55205        31.031    23993837.185 6  94156964.66306        41.000
G15  20216264.462 7 106237184.48407        46.344    20216264.149 7        45.219    20216263.059 7  82782218.07807        45.219    20216263.263 6  82782218.03006        39.375
G18  21511952.185 7 113046068.14107        45.813    21511951.949 5        30.344    21511951.694 5  88087844.49605        30.344    21511951.595 6  88087843.47606        39.281    21511955.024 8  84417528.43708        49.625
G20  23436701.908 6 123160686.97206        40.000    23436700.867 2        17.781    23436703.410 2  95969360.38202        17.781
G23  22579210.512 7 118654555.13607        42.844    22579210.325 4        26.250    22579209.988 4  92458094.86304        26.250    22579210.613 6  92458094.80906        38.156    22579213.718 7  88605687.23407        47.188
G24  20484389.243 7 107646197.13807        46.719    20484388.930 7        45.719    20484391.015 7  83880162.71207        45.719    20484391.475 6  83880154.72506        40.875    20484391.251 8  80385155.72908        53.500
J01  38775292.476 7 203765534.87007        45.000    38775291.099 6 158778332.17106        39.906    38775292.935 8 152162578.31008        49.938
J02  37004708.909 7 194461059.51107        43.125    37004712.384 6 151528110.14206        36.938    37004712.958 7 145214449.32107        46.188
J07  37155847.483 6 195255289.59106        39.125    37155848.222 6 152146982.91006        40.625    37155849.628 8 145807535.24808        50.063
> 2021 09 22 06 31 22.0000000  0 20
E02  28218722.912 6 148290385.18506        36.938    28218725.707 7 110736339.67707        42.438    28218724.687 7 113625110.85707        43.219    28218725.099 7 112180721.80907        45.875
E07  24459151.092 7 128533702.60907        47.125    24459154.003 8  95982970.55408        49.219    24459153.502 8  98486871.32108        50.250    24459153.654 8  97234920.47908        52.750
E12  26075891.740 6 137029738.64406        37.031    26075892.388 6 102327402.60206        38.969    26075892.432 6 104996812.25506        41.594    26075892.441 7 103662107.97007        43.313
E19  26913765.965 5 141432808.97205        32.719    26913769.976 5 105615432.48405        35.313    26913770.373 6 108370616.39306        40.844    26913770.199 6 106993023.98506        41.438
E26  25344074.487 7 133183999.54107        42.875    25344080.166 7  99455603.42907        46.063    25344079.848 7 102050094.82907        47.594    25344079.884 8 100752848.67208        49.875
E27  25627946.297 7 134675773.31307        43.375    25627950.773 7 100569589.53507        44.875    25627950.253 7 103193147.97607        45.781    25627950.263 8 101881367.79808        48.344
E30  24781911.819 7 130229831.16607        43.719    24781915.280 7  97249562.60607        45.500    24781914.622 7  99786505.73207        46.875    24781914.828 8  98518035.21208        49.219
E33  25323996.735 7 133078499.58207        43.531    25323998.569 7  99376805.13607        47.313    25323997.897 8 101969241.74408        48.094    25323998.086 8 100673024.48308        50.688
G05  21278413.961 7 111818814.32307        46.281    21278413.760 5        33.063    21278413.494 5  87131538.60305        33.063    21278413.704 6  87131531.57406        38.969
G13  21445369.698 7 112696177.50607        46.938    21445369.265 4        29.188    21445368.050 4  87815193.61204        29.188
G14  23993931.385 6 126088960.09806        40.281    23993931.064 3        19.750    23993931.678 3  98251140.90903        19.750    23993931.950 5  98251148.88905        33.188    23993935.287 6  94157350.26606        39.563
G15  20216352.693 7 106237648.65207        46.188    20216352.385 7        45.188    20216351.372 7  82782579.75307        45.188    20216351.645 6  82782579.75806        40.750
G18  21511981.142 7 113046220.77707        45.406    21511980.906 5        30.406    21511980.692 5  88087963.41805        30.406    21511980.544 6  88087962.42206        40.500    21511984.042 8  84417642.40908        49.594
G20  23437364.669 6 123164169.50306        39.969    23437363.623 3        18.000    23437366.156 3  95972074.01403        18.000
G23  22578668.976 7 118651709.29407        42.750    22578668.789 4        26.313    22578668.477 4  92455877.31504        26.313    22578669.175 6  92455877.32406        39.188    22578672.226 7  88603562.11807        47.781
G24  20484014.027 7 107644225.22707        46.688    20484013.714 7        45.875    20484015.795 7  83878626.15307        45.875    20484016.122 7  83878618.15807        42.750    20484016.060 8  80383683.18908        53.781
J01  38775273.879 7 203765437.68107        44.781    38775272.616 6 158778256.44606        41.500    38775274.419 8 152162505.74008        49.906
J02  37004673.021 7 194460870.27407        42.906    37004676.278 6 151527962.69506        38.344    37004676.914 7 145214308.00107        45.719
J03                                                                                                  37409563.824 3                        21.688
J07  37155877.331 6 195255445.87306        38.719    37155877.959 6 152147104.69306        41.750    37155879.364 8 145807651.96608        50.125
> 2021 09 22 06 31 23.0000000  0 20
E02  28219103.519 6 148292387.17206        37.469    28219106.824 6 110737834.71206        41.594    28219105.522 6 113626644.87306        41.500    28219106.068 7 112182236.33607        44.531
E07  24459362.984 7 128534816.02707        47.125    24459365.918 8  95983802.00108        49.063    24459365.363 8  98487724.46308        50.375    24459365.542 8  97235762.77508        52.750
E12  26075607.434 6 137028243.91006        36.938    26075608.100 6 102326286.40306        39.156    26075608.077 6 104995666.96206        41.750    26075608.077 7 103660977.22507        43.531
E19  26913455.701 5 141431178.19005        32.250    26913459.529 6 105614214.72706        36.188    26913460.297 6 108369366.83706        41.531    26913459.908 7 106991790.32207        42.188
E26  25344619.600 7 133186863.80307        42.875    25344625.297 7  99457742.33307        45.813    25344624.885 7 102052289.54907        47.688    25344625.020 8 100755015.48408        49.781
E27  25627491.904 7 134673384.69207        42.906    25627496.197 7 100567805.80507        44.750    25627495.628 7 103191317.73007        45.625    25627495.740 8 101879560.80908        48.219
E30  24781893.861 7 130229736.92007        43.906    24781897.277 7  97249492.22707        45.188    24781896.744 7  99786433.52107        47.000    24781896.977 8  98517963.91808        49.094
E33  25324171.688 7 133079419.43207        43.438    25324173.615 7  99377492.04407        47.250    25324173.002 7 101969946.56807        47.938    25324173.096 8 100673720.34908        50.594
G05  21278842.553 7 111821067.06307        46.313    21278842.352 5        33.219    21278842.175 5  87133293.97705        33.219    21278842.304 6  87133286.97806        40.031
G13  21445770.722 7 112698285.39907        46.750    21445770.284 4        29.813    21445769.181 4  87816836.11804        29.813
G14  23994029.063 6 126089474.61806        40.781    23994028.733 3        19.469    23994029.638 3  98251541.83203        19.469    23994029.964 5  98251549.88705        33.531    23994033.301 6  94157734.48706        41.594
G15  20216440.834 7 106238112.21607        46.438    20216440.526 7        45.531    20216439.566 7  82782940.96507        45.531    20216439.816 6  82782940.97106        41.906
G18  21512010.346 7 113046375.02107        45.500    21512010.110 5        30.781    21512010.021 5  88088083.60305        30.781    21512009.838 6  88088082.59406        41.906    21512013.412 8  84417757.57708        49.625
G20  23438027.297 6                        37.313
G23  22578127.056 7 118648863.37807        42.594    22578126.869 4        26.469    22578126.941 4  92453659.71904        26.469    22578127.326 6  92453659.74406        39.813    22578130.748 8  88601436.93608        48.094
G24  20483639.247 7 107642255.01007        46.781    20483638.934 7        46.281    20483640.899 7  83877090.92107        46.281    20483641.324 7  83877082.94307        43.938    20483641.204 8  80382211.93308        53.813
J01  38775255.326 7 203765340.05207        45.031    38775254.179 7 158778180.38207        42.656    38775255.889 8 152162432.83108        50.031
J02  37004637.279 7 194460681.99007        42.875    37004640.653 6 151527815.95806        39.531    37004641.047 7 145214167.42307        45.375
J03  37409724.227 5                        31.719    37409683.877 5                        33.656    37409685.658 6 146803639.62816        40.156
J07  37155907.389 6 195255603.60106        38.688    37155908.084 7 152147227.59907        42.719    37155909.409 8 145807769.75708        50.031
